time_s,leg,north_m,east_m,along_m,cross_m,agl_ft,altitude_ft,speed_kts,vertical_speed_fps,heading_deg,pitch_deg,roll_deg,aileron_cmd,elevator_cmd,rudder_cmd,throttle_cmd,flaps_cmd,gear_cmd,brake_cmd
0.155,Upwind,0.194,0.000,0.000,0.000,3.691,3.691,1.367,0.001,0.000,0.454,0.000,0.0000,0.0634,0.0000,0.0674,0.5000,1.0000,0.0000
0.290,Upwind,0.331,0.000,0.136,0.000,3.691,3.691,2.080,0.000,0.000,0.452,0.000,0.0000,0.0630,0.0000,0.1348,0.5000,1.0000,0.0000
0.429,Upwind,0.489,0.000,0.294,0.000,3.691,3.691,2.373,0.001,0.000,0.450,0.000,0.0000,0.0629,0.0000,0.2047,0.5000,1.0000,0.0000
0.640,Upwind,0.777,0.000,0.582,0.000,3.691,3.691,2.677,0.000,0.000,0.450,0.000,0.0000,0.0630,0.0000,0.3099,0.5000,1.0000,0.0000
0.824,Upwind,1.039,0.000,0.845,0.000,3.691,3.691,2.835,0.000,0.000,0.450,0.000,0.0000,0.0629,0.0000,0.4020,0.5000,1.0000,0.0000
1.021,Upwind,1.340,0.000,1.146,0.000,3.691,3.691,2.984,0.000,0.000,0.449,0.000,0.0000,0.0629,0.0000,0.5005,0.5000,1.0000,0.0000
1.221,Upwind,1.661,0.000,1.466,0.000,3.691,3.691,3.181,0.000,0.000,0.450,0.000,0.0000,0.0630,0.0000,0.6005,0.5000,1.0000,0.0000
1.431,Upwind,2.034,0.000,1.839,0.000,3.691,3.691,3.442,0.000,0.000,0.450,0.000,0.0000,0.0630,0.0000,0.7057,0.5000,1.0000,0.0000
1.627,Upwind,2.375,0.000,2.181,0.000,3.691,3.691,3.735,0.000,0.000,0.450,0.000,0.0000,0.0631,0.0000,0.8035,0.5000,1.0000,0.0000
1.820,Upwind,2.780,0.000,2.586,0.000,3.691,3.691,4.083,0.000,0.000,0.451,0.000,0.0000,0.0631,0.0000,0.9001,0.5000,1.0000,0.0000
2.033,Upwind,3.263,0.000,3.069,0.000,3.691,3.691,4.497,0.000,0.000,0.451,0.000,0.0000,0.0632,0.0000,1.0000,0.5000,1.0000,0.0000
2.224,Upwind,3.716,0.000,3.521,0.000,3.691,3.691,4.939,0.000,0.000,0.451,0.000,0.0000,0.0632,0.0000,1.0000,0.5000,1.0000,0.0000
2.425,Upwind,4.261,0.000,4.067,0.000,3.691,3.691,5.549,0.000,0.000,0.452,0.000,0.0000,0.0633,0.0000,1.0000,0.5000,1.0000,0.0000
2.621,Upwind,4.871,0.000,4.677,0.000,3.691,3.691,6.145,0.000,0.000,0.452,0.000,0.0000,0.0633,0.0000,1.0000,0.5000,1.0000,0.0000
2.841,Upwind,5.614,0.000,5.420,0.000,3.691,3.691,6.955,0.000,0.000,0.452,0.000,0.0000,0.0634,0.0000,1.0000,0.5000,1.0000,0.0000
3.038,Upwind,6.387,0.000,6.193,0.000,3.691,3.691,7.886,0.000,0.000,0.453,0.000,0.0000,0.0635,0.0000,1.0000,0.5000,1.0000,0.0000
3.223,Upwind,7.180,0.000,6.986,0.000,3.691,3.691,8.776,0.000,0.000,0.453,0.000,0.0000,0.0635,0.0000,1.0000,0.5000,1.0000,0.0000
3.429,Upwind,8.147,0.000,7.953,0.000,3.691,3.691,9.858,0.000,0.000,0.454,0.000,0.0000,0.0636,0.0000,1.0000,0.5000,1.0000,0.0000
3.635,Upwind,9.329,0.000,9.135,0.000,3.691,3.691,11.064,0.001,0.000,0.454,0.000,0.0000,0.0637,0.0000,1.0000,0.5000,1.0000,0.0000
3.823,Upwind,10.448,0.000,10.254,0.000,3.691,3.691,12.347,0.001,0.000,0.455,0.000,0.0000,0.0636,0.0000,1.0000,0.5000,1.0000,0.0000
4.029,Upwind,11.796,0.000,11.601,0.000,3.692,3.692,13.630,0.001,0.000,0.454,0.000,0.0000,0.0636,0.0000,1.0000,0.5000,1.0000,0.0000
4.235,Upwind,13.404,0.000,13.210,0.000,3.692,3.692,14.912,0.001,0.000,0.454,0.000,0.0000,0.0635,0.0000,1.0000,0.5000,1.0000,0.0000
4.428,Upwind,14.886,0.000,14.692,0.000,3.692,3.692,16.193,0.001,0.000,0.454,0.000,0.0000,0.0635,0.0000,1.0000,0.5000,1.0000,0.0000
4.626,Upwind,16.629,0.000,16.435,0.000,3.692,3.692,17.473,0.001,0.000,0.453,0.000,0.0000,0.0634,0.0000,1.0000,0.5000,1.0000,0.0000
4.827,Upwind,18.504,0.000,18.309,0.000,3.692,3.693,18.751,0.001,0.000,0.453,0.000,0.0000,0.0634,0.0000,1.0000,0.5000,1.0000,0.0000
5.039,Upwind,20.683,0.000,20.488,0.000,3.693,3.693,20.135,0.002,0.000,0.453,0.000,0.0000,0.0633,0.0000,1.0000,0.5000,1.0000,0.0000
5.230,Upwind,22.647,0.000,22.453,0.000,3.693,3.693,21.305,0.002,0.000,0.452,0.000,0.0000,0.0633,0.0000,1.0000,0.5000,1.0000,0.0000
5.433,Upwind,25.111,0.000,24.916,0.000,3.693,3.693,22.686,0.002,0.000,0.452,0.000,0.0000,0.0632,0.0000,1.0000,0.5000,1.0000,0.0000
5.622,Upwind,27.316,0.000,27.121,0.000,3.694,3.694,23.854,0.002,0.000,0.451,0.000,0.0000,0.0631,0.0000,1.0000,0.5000,1.0000,0.0000
5.828,Upwind,29.846,0.000,29.652,0.000,3.694,3.694,25.127,0.002,0.000,0.451,0.000,0.0000,0.0630,0.0000,1.0000,0.5000,1.0000,0.0000
6.028,Upwind,32.508,0.000,32.314,0.000,3.695,3.695,26.399,0.002,0.000,0.450,0.000,0.0000,0.0630,0.0000,1.0000,0.5000,1.0000,0.0000
6.224,Upwind,35.301,0.000,35.106,0.000,3.695,3.695,27.669,0.002,0.000,0.450,0.000,0.0000,0.0629,0.0000,1.0000,0.5000,1.0000,0.0000
6.440,Upwind,38.473,0.000,38.279,0.000,3.696,3.696,29.044,0.003,0.000,0.449,0.000,0.0000,0.0628,0.0000,1.0000,0.5000,1.0000,0.0000
6.624,Upwind,41.277,0.000,41.083,0.000,3.696,3.696,30.206,0.003,0.000,0.448,0.000,0.0000,0.0627,0.0000,1.0000,0.5000,1.0000,0.0000
6.839,Upwind,44.733,0.000,44.538,0.000,3.697,3.697,31.578,0.003,0.000,0.447,0.000,0.0000,0.0626,0.0000,1.0000,0.5000,1.0000,0.0000
7.029,Upwind,47.776,0.001,47.581,0.001,3.697,3.697,32.737,0.003,0.000,0.447,0.000,0.0000,0.0624,0.0000,1.0000,0.5000,1.0000,0.0000
7.223,Upwind,51.220,0.001,51.026,0.001,3.698,3.698,34.001,0.003,0.000,0.446,0.000,0.0000,0.0623,0.0000,1.0000,0.5000,1.0000,0.0000
7.442,Upwind,55.098,0.001,54.904,0.001,3.699,3.699,35.369,0.004,0.000,0.445,0.000,0.0000,0.0622,0.0000,1.0000,0.5000,1.0000,0.0000
7.620,Upwind,58.498,0.001,58.304,0.001,3.699,3.699,36.524,0.004,0.000,0.444,0.000,0.0000,0.0621,0.0000,1.0000,0.5000,1.0000,0.0000
7.830,Upwind,62.332,0.001,62.138,0.001,3.700,3.700,37.784,0.004,0.000,0.443,0.000,0.0000,0.0619,0.0000,1.0000,0.5000,1.0000,0.0000
8.020,Upwind,66.295,0.001,66.101,0.001,3.701,3.701,38.937,0.004,0.000,0.442,0.000,0.0000,0.0618,0.0000,1.0000,0.5000,1.0000,0.0000
8.233,Upwind,70.735,0.001,70.540,0.001,3.702,3.702,40.298,0.004,0.000,0.441,0.000,0.0000,0.0616,0.0000,1.0000,0.5000,1.0000,0.0000
8.434,Upwind,74.967,0.001,74.773,0.001,3.703,3.703,41.658,0.004,0.000,0.440,0.000,0.0000,0.0614,0.0000,1.0000,0.5000,1.0000,0.0000
8.642,Upwind,79.329,0.001,79.134,0.001,3.703,3.703,42.911,0.005,0.000,0.438,0.000,0.0000,0.0613,0.0000,1.0000,0.5000,1.0000,0.0000
8.846,Upwind,83.819,0.001,83.625,0.001,3.704,3.704,44.058,0.005,0.000,0.437,0.000,0.0000,0.0611,0.0000,1.0000,0.5000,1.0000,0.0000
9.030,Upwind,88.438,0.002,88.244,0.002,3.705,3.705,45.412,0.005,0.000,0.436,0.000,0.0000,0.0609,0.0000,1.0000,0.5000,1.0000,0.0000
9.235,Upwind,93.186,0.002,92.991,0.002,3.706,3.706,46.661,0.005,0.000,0.435,0.000,0.0000,0.0607,0.0000,1.0000,0.5000,1.0000,0.0000
9.439,Upwind,98.062,0.002,97.867,0.002,3.707,3.707,47.907,0.006,0.000,0.433,0.000,0.0000,0.0605,0.0000,1.0000,0.5000,1.0000,0.0000
9.628,Upwind,102.644,0.002,102.449,0.002,3.709,3.709,49.048,0.006,0.000,0.432,0.000,0.0000,0.0603,0.0000,1.0000,0.5000,1.0000,0.0000
9.836,Upwind,108.198,0.002,108.003,0.002,3.710,3.710,50.395,0.006,0.001,0.430,0.000,0.0000,0.0600,0.0000,1.0000,0.5000,1.0000,0.0000
10.027,Upwind,113.014,0.002,112.820,0.002,3.711,3.711,51.533,0.007,0.001,0.428,0.000,0.0000,0.0598,0.0000,1.0000,0.5000,1.0000,0.0000
10.231,Upwind,118.845,0.003,118.651,0.003,3.712,3.713,52.875,0.007,0.001,0.427,0.000,0.0000,0.0595,0.0000,1.0000,0.5000,1.0000,0.0000
10.430,Upwind,123.895,0.003,123.701,0.003,3.714,3.714,54.010,0.007,0.001,0.425,0.000,0.0000,0.0593,0.0000,1.0000,0.5000,1.0000,0.0000
10.638,Upwind,130.002,0.003,129.807,0.003,3.715,3.715,55.348,0.007,0.001,0.423,0.000,0.0000,0.0590,0.0000,1.0000,0.5000,1.0000,0.0000
10.827,Upwind,135.285,0.003,135.091,0.003,3.717,3.717,56.479,0.008,0.001,0.421,0.000,0.0000,0.0587,0.0000,1.0000,0.5000,1.0000,0.0000
11.029,Upwind,141.170,0.003,140.976,0.003,3.718,3.718,57.710,0.008,0.001,0.419,0.000,0.0000,0.0585,0.0000,1.0000,0.5000,1.0000,0.0000
11.238,Upwind,147.689,0.004,147.495,0.004,3.720,3.720,59.042,0.008,0.001,0.417,0.000,0.0000,0.0581,0.0000,1.0000,0.5000,1.0000,0.0000
11.422,Upwind,153.320,0.004,153.126,0.004,3.721,3.721,60.065,0.009,0.001,0.415,0.000,0.0000,0.0579,0.0000,1.0000,0.5000,1.0000,0.0000
11.638,Upwind,160.113,0.004,159.918,0.004,3.723,3.723,61.494,0.009,0.001,0.412,0.000,-0.0001,0.0575,0.0000,1.0000,0.5000,1.0000,0.0000
11.821,Upwind,165.975,0.005,165.781,0.005,3.725,3.725,62.514,0.009,0.001,0.410,0.000,-0.0001,0.0572,0.0000,1.0000,0.5000,1.0000,0.0000
12.022,Upwind,172.491,0.005,172.297,0.005,3.727,3.727,63.836,0.010,0.001,0.408,0.000,-0.0001,0.0569,0.0000,1.0000,0.5000,1.0000,0.0000
12.236,Upwind,179.692,0.005,179.497,0.005,3.729,3.729,65.055,0.010,0.001,0.405,0.000,-0.0001,0.0565,0.0000,1.0000,0.5000,1.0000,0.0000
12.420,Upwind,185.899,0.006,185.705,0.006,3.731,3.731,66.271,0.011,0.002,0.403,0.000,-0.0001,0.0561,0.0000,1.0000,0.5000,1.0000,0.0000
12.622,Upwind,192.791,0.006,192.597,0.006,3.733,3.733,67.484,0.012,0.002,0.400,0.000,-0.0001,0.0557,0.0000,1.0000,0.5000,1.0000,0.0000
12.855,Upwind,200.989,0.007,200.794,0.007,3.736,3.736,68.695,0.012,0.002,0.397,0.000,-0.0001,0.0552,0.0000,1.0000,0.5000,1.0000,0.0000
13.039,Upwind,207.549,0.007,207.354,0.007,3.738,3.738,70.003,0.013,0.002,0.393,0.000,-0.0001,0.0547,0.0000,1.0000,0.5000,1.0000,0.0000
13.225,Upwind,214.213,0.008,214.019,0.008,3.741,3.741,71.108,0.013,0.002,0.390,0.000,-0.0001,0.0543,0.0000,1.0000,0.5000,1.0000,0.0000
13.421,Upwind,221.602,0.008,221.407,0.008,3.743,3.743,72.311,0.014,0.002,0.387,0.000,-0.0001,0.0538,0.0000,1.0000,0.5000,1.0000,0.0000
13.638,Upwind,229.746,0.009,229.551,0.009,3.746,3.746,73.610,0.014,0.002,0.383,0.000,-0.0001,0.0533,0.0000,1.0000,0.5000,1.0000,0.0000
13.833,Upwind,237.392,0.009,237.197,0.009,3.749,3.749,74.707,0.014,0.002,0.380,0.000,-0.0001,0.0528,0.0000,1.0000,0.5000,1.0000,0.0000
14.045,Upwind,245.160,0.010,244.966,0.010,3.752,3.752,76.000,0.015,0.003,0.376,0.000,-0.0001,0.0522,0.0000,1.0000,0.5000,1.0000,0.0000
14.229,Upwind,252.390,0.011,252.195,0.011,3.755,3.755,77.092,0.015,0.003,0.372,0.000,-0.0001,0.0517,0.0000,1.0000,0.5000,1.0000,0.0000
14.428,Upwind,260.393,0.011,260.199,0.011,3.757,3.757,78.280,0.012,0.003,0.369,0.000,-0.0001,0.0513,0.0000,1.0000,0.5000,1.0000,0.0000
14.636,Upwind,269.201,0.012,269.007,0.012,3.760,3.760,79.564,0.010,0.003,0.366,0.000,-0.0001,0.0509,0.0000,1.0000,0.5000,1.0000,0.0000
14.837,Upwind,277.459,0.013,277.265,0.013,3.762,3.762,80.649,0.010,0.003,0.363,0.000,-0.0001,0.0506,0.0000,1.0000,0.5000,1.0000,0.0000
15.026,Upwind,285.135,0.014,284.941,0.014,3.764,3.764,81.829,0.011,0.003,0.361,0.000,-0.0001,0.0502,0.0000,1.0000,0.5000,1.0000,0.0000
15.237,Upwind,294.339,0.015,294.144,0.015,3.766,3.766,83.106,0.011,0.004,0.358,0.000,-0.0001,0.0498,0.0000,1.0000,0.5000,1.0000,0.0000
15.431,Upwind,302.961,0.015,302.766,0.015,3.768,3.768,84.183,0.011,0.004,0.355,0.000,-0.0001,0.0495,0.0000,1.0000,0.5000,1.0000,0.0000
15.636,Upwind,311.703,0.016,311.509,0.016,3.770,3.770,85.454,0.011,0.004,0.352,0.000,-0.0002,0.0490,0.0000,1.0000,0.5000,1.0000,0.0000
15.824,Upwind,319.823,0.017,319.628,0.017,3.772,3.772,86.527,0.011,0.004,0.350,0.000,-0.0002,0.0487,0.0000,1.0000,0.5000,1.0000,0.0000
16.038,Upwind,329.549,0.018,329.355,0.018,3.775,3.775,87.695,0.011,0.005,0.347,0.000,-0.0002,0.0483,0.0000,1.0000,0.5000,1.0000,0.0000
16.233,Upwind,338.652,0.020,338.458,0.020,3.777,3.777,88.861,0.011,0.005,0.344,0.000,-0.0002,0.0479,0.0000,1.0000,0.5000,1.0000,0.0000
16.439,Upwind,347.875,0.021,347.681,0.021,3.779,3.779,90.121,0.011,0.005,0.341,0.000,-0.0002,0.0474,0.0000,1.0000,0.5000,1.0000,0.0000
16.638,Upwind,357.218,0.022,357.024,0.022,3.782,3.782,91.281,0.012,0.005,0.338,0.000,-0.0002,0.0470,0.0000,1.0000,0.5000,1.0000,0.0000
16.837,Upwind,366.680,0.023,366.485,0.023,3.784,3.784,92.342,0.012,0.006,0.335,0.000,-0.0002,0.0466,0.0000,1.0000,0.5000,1.0000,0.0000
17.021,Upwind,375.458,0.025,375.263,0.025,3.786,3.786,93.497,0.012,0.006,0.332,0.000,-0.0002,0.0462,0.0000,1.0000,0.5000,1.0000,0.0000
17.232,Upwind,385.960,0.026,385.765,0.026,3.788,3.788,94.650,0.012,0.006,0.329,0.000,-0.0002,0.0458,0.0000,1.0000,0.5000,1.0000,0.0000
17.429,Upwind,394.955,0.028,394.761,0.028,3.791,3.791,95.800,0.012,0.006,0.326,0.000,-0.0002,0.0454,0.0000,1.0000,0.5000,1.0000,0.0000
17.622,Upwind,404.881,0.029,404.687,0.029,3.793,3.793,96.947,0.012,0.007,0.323,0.000,-0.0003,0.0449,0.0000,1.0000,0.5000,1.0000,0.0000
17.842,Upwind,415.767,0.031,415.573,0.031,3.796,3.796,98.187,0.012,0.007,0.320,0.000,-0.0003,0.0445,0.0000,1.0000,0.5000,1.0000,0.0000
18.035,Upwind,425.939,0.033,425.744,0.033,3.798,3.798,99.328,0.012,0.007,0.317,0.000,-0.0003,0.0440,0.0000,1.0000,0.5000,1.0000,0.0000
18.233,Upwind,436.227,0.034,436.033,0.034,3.801,3.801,100.467,0.012,0.008,0.314,0.000,-0.0003,0.0436,0.0000,1.0000,0.5000,1.0000,0.0000
18.439,Upwind,446.633,0.036,446.438,0.036,3.803,3.803,101.603,0.013,0.008,0.310,0.000,-0.0003,0.0431,0.0000,1.0000,0.5000,1.0000,0.0000
18.631,Upwind,457.155,0.038,456.961,0.038,3.806,3.806,102.736,0.013,0.008,0.307,0.000,-0.0003,0.0427,0.0000,1.0000,0.5000,1.0000,0.0000
18.853,Upwind,468.686,0.041,468.491,0.041,3.808,3.808,103.866,0.013,0.009,0.304,0.000,-0.0003,0.0422,0.0000,1.0000,0.5000,1.0000,0.0000
19.038,Upwind,478.549,0.043,478.354,0.043,3.811,3.811,104.994,0.013,0.009,0.301,0.000,-0.0003,0.0418,0.0000,1.0000,0.5000,1.0000,0.0000
19.226,Upwind,488.509,0.045,488.315,0.045,3.813,3.813,106.025,0.013,0.010,0.298,0.000,-0.0004,0.0414,0.0000,1.0000,0.5000,1.0000,0.0000
19.439,Upwind,500.406,0.047,500.212,0.047,3.816,3.816,107.241,0.013,0.010,0.294,0.000,-0.0004,0.0409,0.0000,1.0000,0.5000,1.0000,0.0000
19.634,Upwind,511.508,0.050,511.313,0.050,3.818,3.818,108.360,0.013,0.010,0.291,0.000,-0.0004,0.0404,0.0000,1.0000,0.5000,1.0000,0.0000
19.837,Upwind,522.724,0.052,522.530,0.052,3.821,3.821,109.476,0.013,0.011,0.288,0.000,-0.0004,0.0400,0.0000,1.0000,0.5000,1.0000,0.0000
20.022,Upwind,533.107,0.055,532.912,0.055,3.823,3.823,110.497,0.013,0.011,0.285,0.000,-0.0004,0.0395,0.0000,1.0000,0.5000,1.0000,0.0000
20.239,Upwind,545.501,0.058,545.307,0.058,3.826,3.826,111.700,0.013,0.012,0.281,0.000,-0.0004,0.0390,0.0000,1.0000,0.5000,1.0000,0.0000
20.433,Upwind,557.061,0.061,556.866,0.061,3.829,3.829,112.808,0.013,0.012,0.278,0.000,-0.0004,0.0385,0.0000,1.0000,0.5000,1.0000,0.0000
20.638,Upwind,568.734,0.064,568.540,0.064,3.832,3.832,113.913,0.014,0.012,0.274,0.000,-0.0005,0.0381,0.0000,1.0000,0.5000,1.0000,0.0000
20.826,Upwind,579.535,0.066,579.341,0.066,3.834,3.834,114.923,0.014,0.013,0.271,0.000,-0.0005,0.0376,0.0000,1.0000,0.5000,1.0000,0.0000
21.025,Upwind,591.426,0.070,591.231,0.070,3.837,3.837,116.022,0.014,0.013,0.268,0.000,-0.0005,0.0372,0.0000,1.0000,0.5000,1.0000,0.0000
21.235,Upwind,604.435,0.073,604.240,0.073,3.840,3.840,117.209,0.014,0.014,0.264,0.000,-0.0005,0.0366,0.0000,1.0000,0.5000,1.0000,0.0000
21.434,Upwind,616.561,0.077,616.366,0.077,3.842,3.842,118.211,0.014,0.014,0.261,0.000,-0.0005,0.0362,0.0000,1.0000,0.5000,1.0000,0.0000
21.622,Upwind,627.774,0.080,627.580,0.080,3.845,3.845,119.301,0.014,0.015,0.257,0.000,-0.0006,0.0357,0.0000,1.0000,0.5000,1.0000,0.0000
21.840,Upwind,641.149,0.084,640.954,0.084,3.848,3.848,120.479,0.014,0.015,0.254,0.000,-0.0006,0.0352,0.0000,1.0000,0.5000,1.0000,0.0000
22.031,Upwind,653.610,0.088,653.416,0.088,3.851,3.851,121.473,0.014,0.016,0.250,0.000,-0.0006,0.0347,0.0000,1.0000,0.5000,1.0000,0.0000
22.235,Upwind,666.183,0.092,665.989,0.092,3.854,3.854,122.644,0.014,0.016,0.247,0.000,-0.0006,0.0342,0.0000,1.0000,0.5000,1.0000,0.0000
22.426,Upwind,677.806,0.096,677.612,0.096,3.856,3.856,123.632,0.014,0.017,0.243,0.000,-0.0006,0.0337,0.0000,1.0000,0.5000,1.0000,0.0000
22.624,Upwind,690.592,0.100,690.397,0.100,3.859,3.859,124.707,0.014,0.017,0.240,0.000,-0.0007,0.0332,0.0000,1.0000,0.5000,1.0000,0.0000
22.824,Upwind,703.488,0.105,703.293,0.105,3.862,3.862,125.779,0.014,0.018,0.236,0.000,-0.0007,0.0327,0.0000,1.0000,0.5000,1.0000,0.0000
23.036,Upwind,717.582,0.110,717.388,0.110,3.865,3.865,126.937,0.014,0.018,0.232,0.000,-0.0007,0.0322,0.0000,1.0000,0.5000,1.0000,0.0000
23.244,Upwind,730.708,0.115,730.513,0.115,3.868,3.868,128.003,0.015,0.019,0.229,0.000,-0.0007,0.0317,0.0000,1.0000,0.5000,1.0000,0.0000
23.433,Upwind,743.942,0.120,743.748,0.120,3.871,3.871,128.977,0.015,0.019,0.226,0.000,-0.0007,0.0312,0.0000,1.0000,0.5000,1.0000,0.0000
23.620,Upwind,756.170,0.125,755.975,0.125,3.874,3.874,130.037,0.015,0.020,0.222,0.000,-0.0008,0.0307,0.0000,1.0000,0.5000,1.0000,0.0000
23.841,Upwind,770.738,0.130,770.544,0.130,3.877,3.877,131.182,0.015,0.021,0.218,0.000,-0.0008,0.0302,0.0000,1.0000,0.5000,1.0000,0.0000
24.029,Upwind,783.165,0.135,782.971,0.135,3.879,3.879,132.148,0.015,0.021,0.215,0.000,-0.0008,0.0297,0.0000,1.0000,0.5000,1.0000,0.0000
24.224,Upwind,796.826,0.141,796.631,0.141,3.882,3.882,133.199,0.015,0.022,0.211,0.000,-0.0008,0.0292,0.0000,1.0000,0.5000,1.0000,0.0000
24.437,Upwind,811.746,0.148,811.552,0.148,3.886,3.886,134.334,0.015,0.022,0.207,0.000,-0.0009,0.0286,0.0000,1.0000,0.5000,1.0000,0.0000
24.623,Upwind,824.470,0.153,824.275,0.153,3.888,3.888,135.292,0.015,0.023,0.204,-0.001,-0.0009,0.0281,0.0000,1.0000,0.5000,1.0000,0.0000
24.826,Upwind,838.453,0.159,838.259,0.159,3.891,3.891,136.335,0.015,0.023,0.200,-0.001,-0.0009,0.0276,0.0000,1.0000,0.5000,1.0000,0.0000
25.032,Upwind,853.723,0.166,853.528,0.166,3.894,3.894,137.375,0.015,0.024,0.196,-0.001,-0.0009,0.0271,0.0000,1.0000,0.5000,1.0000,0.0000
25.230,Upwind,866.741,0.172,866.547,0.172,3.897,3.897,138.413,0.015,0.025,0.193,-0.001,-0.0010,0.0266,0.0000,1.0000,0.5000,1.0000,0.0000
25.429,Upwind,881.045,0.179,880.851,0.179,3.900,3.900,139.448,0.015,0.025,0.189,-0.001,-0.0010,0.0261,0.0000,1.0000,0.5000,1.0000,0.0000
25.637,Upwind,896.661,0.187,896.466,0.187,3.904,3.904,140.566,0.015,0.026,0.185,-0.001,-0.0010,0.0255,0.0000,1.0000,0.5000,1.0000,0.0000
25.826,Upwind,909.972,0.194,909.777,0.194,3.906,3.906,141.509,0.015,0.026,0.181,-0.001,-0.0010,0.0250,0.0000,1.0000,0.5000,1.0000,0.0000
26.036,Upwind,925.817,0.202,925.623,0.202,3.910,3.910,142.622,0.015,0.027,0.177,-0.001,-0.0011,0.0244,0.0000,1.0000,0.5000,1.0000,0.0000
26.226,Upwind,939.321,0.209,939.127,0.209,3.912,3.912,143.560,0.015,0.028,0.174,-0.001,-0.0011,0.0240,0.0000,1.0000,0.5000,1.0000,0.0000
26.428,Upwind,954.154,0.217,953.960,0.217,3.915,3.916,144.582,0.015,0.028,0.170,-0.001,-0.0011,0.0234,0.0000,1.0000,0.5000,1.0000,0.0000
26.632,Upwind,970.341,0.225,970.147,0.225,3.919,3.919,145.600,0.016,0.029,0.166,-0.001,-0.0012,0.0229,0.0000,1.0000,0.5000,1.0000,0.0000
26.837,Upwind,985.393,0.234,985.198,0.234,3.922,3.922,146.701,0.016,0.030,0.162,-0.001,-0.0012,0.0223,0.0000,1.0000,0.5000,1.0000,0.0000
27.031,Upwind,1000.548,0.242,1000.354,0.242,3.925,3.925,147.714,0.016,0.030,0.158,-0.001,-0.0012,0.0218,0.0000,1.0000,0.5000,1.0000,0.0000
27.237,Upwind,1015.808,0.251,1015.614,0.251,3.928,3.928,148.724,0.016,0.031,0.155,-0.001,-0.0012,0.0213,0.0000,1.0000,0.5000,1.0000,0.0000
27.425,Upwind,1029.887,0.259,1029.693,0.259,3.931,3.931,149.648,0.016,0.031,0.151,-0.001,-0.0013,0.0208,0.0000,1.0000,0.5000,1.0000,0.0000
27.626,Upwind,1045.344,0.269,1045.150,0.269,3.930,3.930,150.637,-0.076,0.032,0.176,-0.001,-0.0013,-0.6500,0.0000,1.0000,0.5000,1.0000,0.0000
27.835,Upwind,1062.203,0.279,1062.009,0.279,3.916,3.916,151.684,0.018,0.033,0.356,-0.001,-0.0013,-0.6500,0.0000,1.0000,0.5000,1.0000,0.0000
28.036,Upwind,1077.868,0.289,1077.674,0.289,3.936,3.936,152.643,0.155,0.034,0.610,-0.001,-0.0014,-0.6500,0.0000,1.0000,0.5000,1.0000,0.0000
28.236,Upwind,1093.631,0.299,1093.437,0.299,3.971,3.971,153.598,0.185,0.035,0.950,-0.001,-0.0014,-0.6500,0.0000,1.0000,0.5000,1.0000,0.0000
28.433,Upwind,1109.493,0.309,1109.299,0.309,4.006,4.007,154.467,0.209,0.035,1.335,-0.001,-0.0014,-0.6500,0.0000,1.0000,0.5000,1.0000,0.0000
28.632,Upwind,1125.451,0.320,1125.257,0.320,4.052,4.052,155.408,0.242,0.036,1.832,-0.001,-0.0015,-0.6500,0.0000,1.0000,0.5000,1.0000,0.0000
28.826,Upwind,1140.164,0.329,1139.970,0.329,4.103,4.103,156.339,0.275,0.037,2.404,-0.002,-0.0015,-0.6500,0.0000,1.0000,0.5000,1.0000,0.0000
29.028,Upwind,1156.306,0.341,1156.112,0.341,4.161,4.161,157.260,0.305,0.038,3.046,-0.002,-0.0016,-0.6500,0.0000,1.0000,0.5000,1.0000,0.0000
29.234,Upwind,1173.899,0.353,1173.705,0.353,4.231,4.231,158.244,0.334,0.039,3.815,-0.002,-0.0016,-0.6500,0.0000,1.0000,0.5000,1.0000,0.0000
29.422,Upwind,1188.870,0.364,1188.676,0.364,4.295,4.295,159.063,0.403,0.040,4.517,-0.002,-0.0016,-0.6500,0.0000,1.0000,0.5000,1.0000,0.0000
29.624,Upwind,1205.289,0.376,1205.095,0.376,4.415,4.415,159.935,0.877,0.040,5.318,-0.004,-0.0015,-0.6500,0.0000,1.0000,0.5000,1.0000,0.0000
29.821,Upwind,1221.796,0.388,1221.602,0.388,4.675,4.675,160.775,1.789,0.041,6.124,-0.006,-0.0013,-0.6500,0.0000,1.0000,0.5000,1.0000,0.0000
30.034,Upwind,1239.774,0.401,1239.580,0.401,5.209,5.209,161.645,3.207,0.042,6.976,-0.011,-0.0011,-0.6500,0.0000,1.0000,0.5000,1.0000,0.0000
30.246,Upwind,1256.451,0.414,1256.257,0.414,6.009,6.009,162.407,4.839,0.042,7.723,-0.015,-0.0010,-0.6500,0.0000,1.0000,0.5000,1.0000,0.0000
30.426,Upwind,1271.803,0.426,1271.609,0.426,7.050,7.050,163.068,6.540,0.043,8.366,-0.019,-0.0008,-0.6500,0.0000,1.0000,0.5000,1.0000,0.0000
30.630,Upwind,1288.617,0.439,1288.423,0.439,8.556,8.556,163.746,8.548,0.043,9.018,-0.024,-0.0007,-0.6500,0.0000,1.0000,0.5000,1.0000,0.0000
30.835,Upwind,1306.904,0.453,1306.710,0.453,10.654,10.654,164.428,10.831,0.043,9.666,-0.028,-0.0006,-0.6500,0.0000,1.0000,0.5000,1.0000,0.0000
31.024,Upwind,1322.430,0.466,1322.236,0.466,12.823,12.823,164.964,12.835,0.043,10.172,-0.032,-0.0005,-0.6500,0.0000,1.0000,0.5000,1.0000,0.0000
31.235,Upwind,1340.835,0.480,1340.641,0.480,15.864,15.864,165.549,15.246,0.043,10.725,-0.035,-0.0004,-0.6500,0.0000,1.0000,0.5000,1.0000,0.0000
31.437,Upwind,1357.873,0.493,1357.679,0.493,19.137,19.138,166.046,17.489,0.043,11.198,-0.038,-0.0003,-0.5737,0.0000,1.0000,0.5000,1.0000,0.0000
31.632,Upwind,1374.952,0.507,1374.758,0.507,22.533,22.533,166.469,19.550,0.042,11.581,-0.041,-0.0002,-0.4979,0.0000,1.0000,0.5000,1.0000,0.0000
31.826,Upwind,1390.640,0.519,1390.446,0.519,26.665,26.665,166.898,21.757,0.042,11.904,-0.043,-0.0002,-0.4367,0.0000,1.0000,0.5000,1.0000,0.0000
32.024,Upwind,1407.786,0.532,1407.592,0.532,31.229,31.229,167.298,23.869,0.041,12.112,-0.044,-0.0001,-0.4021,0.0000,1.0000,0.5000,1.0000,0.0000
32.228,Upwind,1424.962,0.545,1424.768,0.545,36.202,36.202,167.674,25.827,0.040,12.209,-0.045,-0.0001,-0.3904,0.0000,1.0000,0.5000,1.0000,0.0000
32.429,Upwind,1442.167,0.558,1441.973,0.558,41.548,41.548,168.030,27.606,0.040,12.216,-0.046,-0.0001,-0.3959,0.0000,1.0000,0.5000,1.0000,0.0000
32.621,Upwind,1459.400,0.571,1459.206,0.571,47.230,47.231,168.370,29.183,0.039,12.164,-0.047,-0.0001,-0.4109,0.0000,1.0000,0.5000,1.0000,0.0000
32.832,Upwind,1478.098,0.584,1477.904,0.584,53.208,53.208,168.697,30.562,0.038,12.088,-0.048,-0.0001,-0.4279,0.0000,1.0000,0.5000,1.0000,0.0000
33.028,Upwind,1493.944,0.596,1493.750,0.596,59.443,59.443,169.012,31.760,0.038,12.018,-0.048,0.0000,-0.4414,0.0000,1.0000,0.5000,1.0000,0.0000
33.224,Upwind,1511.255,0.608,1511.061,0.608,65.902,65.902,169.319,32.810,0.037,11.976,-0.048,0.0000,-0.4471,0.0000,1.0000,0.5000,1.0000,0.0000
33.432,Upwind,1530.039,0.622,1529.845,0.622,73.123,73.124,169.641,33.833,0.036,11.975,-0.049,0.0000,-0.4430,0.0000,1.0000,0.5000,1.0000,0.0000
33.626,Upwind,1545.956,0.633,1545.762,0.633,79.400,79.401,169.906,34.636,0.036,12.011,-0.049,0.0000,-0.4318,0.0000,1.0000,0.5000,1.0000,0.0000
33.828,Upwind,1563.344,0.645,1563.150,0.645,86.412,86.412,170.188,35.474,0.035,12.082,-0.049,0.0000,-0.4136,0.0000,1.0000,0.5000,1.0000,0.0000
34.028,Upwind,1580.756,0.657,1580.562,0.657,93.589,93.589,170.461,36.298,0.035,12.175,-0.050,0.0000,-0.3921,0.0000,1.0000,0.5000,1.0000,0.0000
34.233,Upwind,1599.645,0.670,1599.451,0.670,101.549,101.550,170.747,37.182,0.034,12.283,-0.050,0.0000,-0.3685,0.0000,1.0000,0.5000,1.0000,0.0000
34.423,Upwind,1615.649,0.680,1615.455,0.680,108.434,108.435,170.981,37.927,0.034,12.368,-0.050,0.0000,-0.3508,0.0000,1.0000,0.5000,1.0000,0.0000
34.622,Upwind,1633.128,0.692,1632.934,0.692,116.101,116.101,171.227,38.734,0.034,12.446,-0.050,0.0000,-0.3355,0.0000,1.0000,0.5000,1.0000,0.0000
34.821,Upwind,1650.628,0.703,1650.434,0.703,123.927,123.927,171.465,39.522,0.033,12.504,-0.050,0.0000,-0.3250,0.0000,1.0000,0.5000,1.0000,0.0000
35.025,Upwind,1668.147,0.715,1667.953,0.715,131.907,131.908,171.695,40.279,0.033,12.539,-0.051,0.0000,-0.3190,0.0000,1.0000,0.5000,1.0000,0.0000
35.230,Upwind,1685.686,0.726,1685.492,0.726,140.036,140.036,171.918,40.996,0.033,12.557,-0.051,0.0000,-0.3167,0.0000,1.0000,0.5000,1.0000,0.0000
35.421,Upwind,1703.244,0.737,1703.050,0.737,148.303,148.303,172.136,41.667,0.033,12.562,-0.051,0.0000,-0.3165,0.0000,1.0000,0.5000,1.0000,0.0000
35.624,Upwind,1720.820,0.748,1720.626,0.748,156.699,156.700,172.348,42.289,0.032,12.560,-0.051,0.0000,-0.3171,0.0000,1.0000,0.5000,0.0000,0.0000
35.830,Upwind,1738.416,0.759,1738.222,0.759,165.930,165.931,172.574,42.912,0.032,12.557,-0.051,0.0000,-0.3175,0.0000,1.0000,0.5000,0.0000,0.0000
36.037,Upwind,1757.499,0.770,1757.305,0.770,173.843,173.844,172.763,43.404,0.032,12.559,-0.051,-0.0001,-0.3166,0.0000,1.0000,0.5000,0.0000,0.0000
36.225,Upwind,1773.663,0.780,1773.469,0.780,182.575,182.575,172.967,43.909,0.032,12.566,-0.050,-0.0001,-0.3143,0.0000,0.9986,0.5000,0.0000,0.0000
36.420,Upwind,1791.315,0.790,1791.121,0.790,191.405,191.405,173.164,44.387,0.031,12.581,-0.050,-0.0001,-0.3105,0.0000,0.9959,0.5000,0.0000,0.0000
36.628,Upwind,1808.984,0.801,1808.790,0.801,201.076,201.077,173.368,44.881,0.031,12.602,-0.050,-0.0001,-0.3053,0.0000,0.9930,0.5000,0.0000,0.0000
36.820,Upwind,1826.671,0.811,1826.477,0.811,209.341,209.342,173.532,45.284,0.031,12.624,-0.051,-0.0001,-0.3003,0.0000,0.9907,0.5000,0.0000,0.0000
37.021,Upwind,1844.375,0.821,1844.181,0.821,218.440,218.441,173.704,45.708,0.030,12.649,-0.051,-0.0001,-0.2949,0.0000,0.9883,0.5000,0.0000,0.0000
37.222,Upwind,1862.094,0.831,1861.900,0.831,227.623,227.624,173.869,46.119,0.030,12.672,-0.051,-0.0001,-0.2900,0.0000,0.9860,0.5000,0.0000,0.0000
37.435,Upwind,1881.307,0.842,1881.113,0.842,237.663,237.664,174.039,46.548,0.029,12.694,-0.051,-0.0001,-0.2855,0.0000,0.9836,0.5000,0.0000,0.0000
37.630,Upwind,1897.578,0.850,1897.384,0.850,247.010,247.011,174.189,46.927,0.029,12.711,-0.051,0.0000,-0.2823,0.0000,0.9815,0.5000,0.0000,0.0000
37.827,Upwind,1915.341,0.860,1915.147,0.860,256.432,256.433,174.334,47.290,0.029,12.723,-0.051,0.0000,-0.2800,0.0000,0.9795,0.5000,0.0000,0.0000
38.027,Upwind,1933.119,0.870,1932.925,0.870,265.925,265.926,174.472,47.633,0.028,12.731,-0.051,0.0000,-0.2784,0.0000,0.9776,0.5000,0.0000,0.0000
38.222,Upwind,1950.909,0.879,1950.715,0.879,274.685,274.686,174.595,47.932,0.028,12.737,-0.051,-0.0001,-0.2775,0.0000,0.9759,0.5000,0.0000,0.0000
38.422,Upwind,1968.713,0.888,1968.519,0.888,284.302,284.304,174.724,48.239,0.027,12.741,-0.051,0.0000,-0.2766,0.0000,0.9741,0.5000,0.0000,0.0000
38.630,Upwind,1986.529,0.897,1986.335,0.897,294.789,294.790,174.859,48.552,0.027,12.745,-0.051,-0.0001,-0.2757,0.0000,0.9722,0.5000,0.0000,0.0000
38.820,Upwind,2004.358,0.906,2004.164,0.906,303.713,303.714,174.969,48.802,0.026,12.749,-0.051,-0.0001,-0.2748,0.0000,0.9706,0.5000,0.0000,0.0000
39.031,Upwind,2023.687,0.916,2023.493,0.916,313.499,313.501,175.085,49.061,0.026,12.754,-0.051,-0.0001,-0.2736,0.0000,0.9690,0.5000,0.0000,0.0000
39.220,Upwind,2040.053,0.924,2039.859,0.924,323.336,323.338,175.198,49.307,0.026,12.760,-0.051,0.0000,-0.2723,0.0000,0.9674,0.5000,0.0000,0.0000
39.423,Upwind,2057.918,0.932,2057.724,0.932,333.222,333.223,175.307,49.542,0.025,12.766,-0.051,0.0000,-0.2708,0.0000,0.9659,0.5000,0.0000,0.0000
39.621,Upwind,2075.794,0.941,2075.600,0.941,343.153,343.154,175.413,49.767,0.025,12.773,-0.051,-0.0001,-0.2692,0.0000,0.9644,0.5000,0.0000,0.0000
39.827,Upwind,2093.682,0.949,2093.488,0.949,353.961,353.963,175.524,50.001,0.025,12.781,-0.051,0.0000,-0.2675,0.0000,0.9628,0.5000,0.0000,0.0000
40.032,Upwind,2113.073,0.958,2112.879,0.958,363.982,363.984,175.624,50.208,0.024,12.788,-0.051,0.0000,-0.2661,0.0000,0.9614,0.5000,0.0000,0.0000
40.235,Upwind,2130.983,0.966,2130.789,0.966,374.044,374.045,175.721,50.407,0.024,12.793,-0.051,-0.0001,-0.2649,0.0000,0.9601,0.5000,0.0000,0.0000
40.420,Upwind,2147.411,0.973,2147.217,0.973,383.301,383.303,175.808,50.582,0.023,12.798,-0.051,0.0000,-0.2640,0.0000,0.9589,0.5000,0.0000,0.0000
40.627,Upwind,2165.341,0.981,2165.147,0.981,394.282,394.284,175.907,50.780,0.023,12.802,-0.051,0.0000,-0.2631,0.0000,0.9575,0.5000,0.0000,0.0000
40.822,Upwind,2183.282,0.989,2183.088,0.989,403.606,403.608,175.987,50.940,0.023,12.806,-0.051,0.0000,-0.2624,0.0000,0.9564,0.5000,0.0000,0.0000
41.025,Upwind,2201.233,0.997,2201.039,0.997,413.811,413.813,176.069,51.106,0.022,12.809,-0.051,-0.0001,-0.2617,0.0000,0.9552,0.5000,0.0000,0.0000
41.230,Upwind,2220.690,1.005,2220.496,1.005,424.902,424.904,176.154,51.277,0.022,12.813,-0.051,0.0000,-0.2607,0.0000,0.9540,0.5000,0.0000,0.0000
41.431,Upwind,2238.660,1.012,2238.466,1.012,435.173,435.175,176.228,51.428,0.022,12.818,-0.051,0.0000,-0.2597,0.0000,0.9530,0.5000,0.0000,0.0000
41.631,Upwind,2256.638,1.019,2256.444,1.019,445.473,445.475,176.297,51.573,0.021,12.823,-0.051,-0.0001,-0.2585,0.0000,0.9520,0.5000,0.0000,0.0000
41.831,Upwind,2274.625,1.026,2274.431,1.026,455.802,455.804,176.363,51.713,0.021,12.828,-0.051,0.0000,-0.2573,0.0000,0.9511,0.5000,0.0000,0.0000
42.025,Upwind,2291.120,1.033,2290.926,1.033,465.294,465.296,176.421,51.836,0.020,12.833,-0.051,0.0000,-0.2562,0.0000,0.9503,0.5000,0.0000,0.0000
42.234,Upwind,2310.623,1.040,2310.429,1.040,476.540,476.543,176.485,51.977,0.020,12.839,-0.051,-0.0001,-0.2549,0.0000,0.9494,0.5000,0.0000,0.0000
42.430,Upwind,2327.131,1.046,2326.937,1.046,486.948,486.951,176.541,52.102,0.020,12.844,-0.051,0.0000,-0.2538,0.0000,0.9486,0.5000,0.0000,0.0000
42.621,Upwind,2345.148,1.053,2344.954,1.053,496.510,496.513,176.589,52.212,0.019,12.849,-0.051,0.0000,-0.2529,0.0000,0.9479,0.5000,0.0000,0.0000
42.830,Upwind,2363.171,1.060,2362.977,1.060,507.837,507.839,176.643,52.338,0.019,12.853,-0.051,0.0000,-0.2519,0.0000,0.9472,0.5000,0.0000,0.0000
43.026,Upwind,2381.201,1.066,2381.007,1.066,517.441,517.444,176.686,52.439,0.018,12.857,-0.051,0.0000,-0.2512,0.0000,0.9466,0.5000,0.0000,0.0000
43.228,Upwind,2399.238,1.072,2399.044,1.072,528.816,528.818,176.734,52.554,0.018,12.860,-0.051,0.0000,-0.2504,0.0000,0.9459,0.5000,0.0000,0.0000
43.426,Upwind,2417.280,1.078,2417.086,1.078,538.459,538.462,176.773,52.647,0.018,12.863,-0.051,0.0000,-0.2499,0.0000,0.9454,0.5000,0.0000,0.0000
43.629,Upwind,2435.329,1.084,2435.135,1.084,549.877,549.880,176.815,52.752,0.017,12.866,-0.051,0.0000,-0.2492,0.0000,0.9448,0.5000,0.0000,0.0000
43.832,Upwind,2454.888,1.091,2454.694,1.091,560.437,560.440,176.852,52.844,0.017,12.869,-0.051,-0.0001,-0.2486,0.0000,0.9443,0.5000,0.0000,0.0000
44.025,Upwind,2471.444,1.096,2471.250,1.096,571.014,571.017,176.887,52.931,0.017,12.871,-0.051,0.0000,-0.2481,0.0000,0.9438,0.5000,0.0000,0.0000
44.223,Upwind,2489.509,1.102,2489.315,1.102,580.726,580.728,176.917,53.008,0.016,12.874,-0.051,0.0000,-0.2475,0.0000,0.9433,0.5000,0.0000,0.0000
44.429,Upwind,2507.580,1.107,2507.386,1.107,592.220,592.223,176.950,53.095,0.016,12.877,-0.051,0.0000,-0.2469,0.0000,0.9429,0.5000,0.0000,0.0000
44.625,Upwind,2525.656,1.113,2525.462,1.113,601.961,601.964,176.977,53.166,0.015,12.879,-0.050,0.0000,-0.2464,0.0000,0.9425,0.5000,0.0000,0.0000
44.826,Upwind,2543.737,1.118,2543.543,1.118,612.601,612.604,177.004,53.239,0.015,12.882,-0.050,0.0000,-0.2458,0.0000,0.9421,0.5000,0.0000,0.0000
45.036,Upwind,2563.330,1.124,2563.136,1.124,624.145,624.148,177.032,53.316,0.015,12.884,-0.050,0.0000,-0.2452,0.0000,0.9417,0.5000,0.0000,0.0000
45.226,Upwind,2579.913,1.128,2579.719,1.128,633.925,633.928,177.054,53.377,0.014,12.887,-0.050,-0.0001,-0.2447,0.0000,0.9414,0.5000,0.0000,0.0000
45.423,Upwind,2598.008,1.133,2597.814,1.133,644.607,644.610,177.076,53.442,0.014,12.889,-0.050,0.0000,-0.2443,0.0000,0.9411,0.5000,0.0000,0.0000
45.627,Upwind,2616.107,1.138,2615.913,1.138,656.193,656.196,177.098,53.509,0.014,12.891,-0.050,0.0000,-0.2438,0.0000,0.9408,0.5000,0.0000,0.0000
45.825,Upwind,2634.211,1.143,2634.017,1.143,666.008,666.011,177.116,53.563,0.013,12.893,-0.050,0.0000,-0.2434,0.0000,0.9406,0.5000,0.0000,0.0000
46.026,Upwind,2652.319,1.148,2652.125,1.148,677.620,677.623,177.136,53.624,0.013,12.895,-0.050,0.0000,-0.2430,0.0000,0.9403,0.5000,0.0000,0.0000
46.226,Upwind,2670.431,1.152,2670.237,1.152,687.455,687.459,177.151,53.673,0.013,12.896,-0.050,-0.0001,-0.2427,0.0000,0.9401,0.5000,0.0000,0.0000
46.432,Upwind,2690.057,1.157,2689.863,1.157,699.090,699.094,177.168,53.728,0.012,12.898,-0.050,-0.0001,-0.2423,0.0000,0.9398,0.5000,0.0000,0.0000
46.629,Upwind,2706.667,1.161,2706.473,1.161,708.945,708.948,177.181,53.773,0.012,12.899,-0.050,0.0000,-0.2421,0.0000,0.9396,0.5000,0.0000,0.0000
46.829,Upwind,2724.791,1.165,2724.597,1.165,720.601,720.604,177.195,53.823,0.011,12.901,-0.049,0.0000,-0.2417,0.0000,0.9394,0.5000,0.0000,0.0000
47.032,Upwind,2744.429,1.169,2744.235,1.169,731.370,731.373,177.208,53.867,0.011,12.902,-0.049,0.0000,-0.2414,0.0000,0.9393,0.5000,0.0000,0.0000
47.229,Upwind,2761.049,1.173,2760.855,1.173,742.148,742.151,177.219,53.909,0.011,12.903,-0.049,0.0000,-0.2412,0.0000,0.9391,0.5000,0.0000,0.0000
47.429,Upwind,2779.184,1.177,2778.990,1.177,752.034,752.038,177.229,53.946,0.010,12.904,-0.049,0.0000,-0.2409,0.0000,0.9390,0.5000,0.0000,0.0000
47.625,Upwind,2797.322,1.181,2797.128,1.181,763.727,763.731,177.239,53.988,0.010,12.906,-0.049,0.0000,-0.2406,0.0000,0.9388,0.5000,0.0000,0.0000
47.822,Upwind,2815.464,1.184,2815.270,1.184,773.628,773.632,177.247,54.022,0.010,12.907,-0.049,0.0000,-0.2404,0.0000,0.9387,0.5000,0.0000,0.0000
48.028,Upwind,2833.609,1.188,2833.415,1.188,785.337,785.341,177.255,54.060,0.009,12.908,-0.049,0.0000,-0.2402,0.0000,0.9386,0.5000,0.0000,0.0000
48.232,Upwind,2853.270,1.192,2853.076,1.192,796.152,796.156,177.262,54.093,0.009,12.909,-0.049,0.0000,-0.2399,0.0000,0.9385,0.5000,0.0000,0.0000
48.426,Upwind,2869.909,1.195,2869.715,1.195,806.974,806.978,177.269,54.125,0.009,12.910,-0.048,0.0000,-0.2397,0.0000,0.9384,0.5000,0.0000,0.0000
48.624,Upwind,2888.064,1.198,2887.870,1.198,816.900,816.904,177.274,54.153,0.009,12.911,-0.048,0.0000,-0.2396,0.0000,0.9383,0.5000,0.0000,0.0000
48.832,Upwind,2907.735,1.201,2907.541,1.201,828.636,828.640,177.279,54.185,0.008,12.912,-0.048,0.0000,-0.2394,0.0000,0.9383,0.5000,0.0000,0.0000
49.025,Upwind,2924.383,1.204,2924.189,1.204,838.572,838.576,177.283,54.210,0.008,12.912,-0.048,0.0000,-0.2392,0.0000,0.9382,0.5000,0.0000,0.0000
49.224,Upwind,2942.547,1.207,2942.353,1.207,849.417,849.421,177.287,54.237,0.008,12.913,-0.048,0.0000,-0.2391,0.0000,0.9382,0.5000,0.0000,0.0000
49.433,Upwind,2962.228,1.210,2962.034,1.210,860.267,860.271,177.291,54.262,0.007,12.914,-0.048,-0.0001,-0.2389,0.0000,0.9381,0.5000,0.0000,0.0000
49.624,Upwind,2978.884,1.212,2978.690,1.212,871.122,871.126,177.293,54.286,0.007,12.914,-0.048,0.0000,-0.2388,0.0000,0.9381,0.5000,0.0000,0.0000
49.826,Upwind,2997.057,1.215,2996.863,1.215,882.886,882.891,177.296,54.311,0.007,12.915,-0.048,0.0000,-0.2387,0.0000,0.9380,0.5000,0.0000,0.0000
50.022,Upwind,3015.233,1.218,3015.039,1.218,892.845,892.849,177.297,54.331,0.006,12.916,-0.047,0.0000,-0.2385,0.0000,0.9380,0.5000,0.0000,0.0000
50.228,Upwind,3033.411,1.220,3033.217,1.220,904.619,904.624,177.299,54.353,0.006,12.916,-0.047,0.0000,-0.2384,0.0000,0.9380,0.5000,0.0000,0.0000
50.425,Upwind,3051.593,1.222,3051.399,1.222,914.586,914.590,177.299,54.372,0.006,12.917,-0.047,0.0000,-0.2383,0.0000,0.9380,0.5000,0.0000,0.0000
50.631,Upwind,3071.293,1.225,3071.099,1.225,926.368,926.373,177.300,54.392,0.005,12.917,-0.047,0.0000,-0.2382,0.0000,0.9380,0.5000,0.0000,0.0000
50.824,Upwind,3087.964,1.227,3087.770,1.227,936.342,936.346,177.300,54.409,0.005,12.917,-0.047,0.0000,-0.2381,0.0000,0.9380,0.5000,0.0000,0.0000
51.024,Upwind,3106.154,1.229,3105.960,1.229,947.225,947.230,177.300,54.426,0.005,12.918,-0.047,0.0000,-0.2380,0.0000,0.9380,0.5000,0.0000,0.0000
51.226,Upwind,3124.346,1.231,3124.152,1.231,959.019,959.024,177.299,54.444,0.004,12.918,-0.047,0.0000,-0.2380,0.0000,0.9380,0.5000,0.0000,0.0000
51.424,Upwind,3142.542,1.233,3142.348,1.233,969.002,969.007,177.298,54.458,0.004,12.919,-0.046,0.0000,-0.2379,0.0000,0.9380,0.5000,0.0000,0.0000
51.625,Upwind,3160.739,1.234,3160.545,1.234,979.895,979.900,177.297,54.473,0.004,12.919,-0.046,0.0000,-0.2378,0.0000,0.9380,0.5000,0.0000,0.0000
51.828,Upwind,3178.940,1.236,3178.746,1.236,991.699,991.704,177.295,54.489,0.004,12.919,-0.046,0.0000,-0.2378,0.0000,0.9380,0.5000,0.0000,0.0000
52.025,Upwind,3197.143,1.238,3196.949,1.238,1002.599,1002.603,177.293,54.503,0.003,12.920,-0.046,0.0000,-0.2377,0.0000,0.9381,0.5000,0.0000,0.0000
52.232,Upwind,3216.866,1.239,3216.672,1.239,1013.500,1013.505,177.291,54.515,0.003,12.920,-0.046,0.0000,-0.2376,0.0000,0.9381,0.5000,0.0000,0.0000
52.436,Upwind,3235.074,1.241,3234.880,1.241,1024.405,1024.410,177.288,54.528,0.003,12.920,-0.046,0.0000,-0.2376,0.0000,0.9381,0.5000,0.0000,0.0000
52.621,Upwind,3251.767,1.242,3251.573,1.242,1034.402,1034.407,177.286,54.539,0.003,12.920,-0.046,0.0000,-0.2376,0.0000,0.9382,0.5000,0.0000,0.0000
52.821,Upwind,3269.980,1.243,3269.786,1.243,1045.311,1045.316,177.283,54.550,0.002,12.920,-0.045,0.0000,-0.2375,0.0000,0.9382,0.5000,0.0000,0.0000
53.021,Upwind,3288.196,1.244,3288.002,1.244,1056.222,1056.227,177.280,54.561,0.002,12.921,-0.045,0.0000,-0.2375,0.0000,0.9383,0.5000,0.0000,0.0000
53.232,Upwind,3307.933,1.246,3307.739,1.246,1068.045,1068.050,177.276,54.572,0.002,12.921,-0.045,0.0000,-0.2375,0.0000,0.9383,0.5000,0.0000,0.0000
53.431,Upwind,3326.153,1.247,3325.959,1.247,1078.960,1078.965,177.272,54.582,0.002,12.921,-0.045,0.0000,-0.2374,0.0000,0.9384,0.5000,0.0000,0.0000
53.634,Upwind,3344.377,1.247,3344.183,1.247,1089.877,1089.883,177.269,54.591,0.001,12.921,-0.045,0.0000,-0.2374,0.0000,0.9384,0.5000,0.0000,0.0000
53.826,Upwind,3361.084,1.248,3360.890,1.248,1100.797,1100.802,177.265,54.600,0.001,12.921,-0.045,0.0000,-0.2374,0.0000,0.9385,0.5000,0.0000,0.0000
54.026,Upwind,3379.311,1.249,3379.117,1.249,1111.717,1111.723,177.261,54.609,0.001,12.921,-0.045,0.0000,-0.2374,0.0000,0.9385,0.5000,0.0000,0.0000
54.227,Upwind,3397.542,1.250,3397.348,1.250,1122.640,1122.645,177.256,54.617,0.001,12.921,-0.045,0.0000,-0.2373,0.0000,0.9386,0.5000,0.0000,0.0000
54.423,Upwind,3415.775,1.250,3415.581,1.250,1132.654,1132.659,177.252,54.624,0.000,12.921,-0.044,0.0000,-0.2373,0.0000,0.9386,0.5000,0.0000,0.0000
54.622,Upwind,3434.010,1.251,3433.816,1.251,1143.579,1143.584,177.248,54.631,0.000,12.921,-0.044,0.0000,-0.2373,0.0000,0.9387,0.5000,0.0000,0.0000
54.823,Upwind,3452.247,1.251,3452.053,1.251,1154.506,1154.511,177.243,54.638,360.000,12.921,-0.044,0.0000,-0.2373,0.0000,0.9388,0.5000,0.0000,0.0000
55.024,Upwind,3470.487,1.252,3470.293,1.252,1165.434,1165.440,177.238,54.645,360.000,12.921,-0.044,0.0000,-0.2373,0.0000,0.9388,0.5000,0.0000,0.0000
55.226,Upwind,3488.729,1.252,3488.535,1.252,1176.364,1176.370,177.233,54.652,359.999,12.921,-0.044,0.0000,-0.2373,0.0000,0.9389,0.5000,0.0000,0.0000
55.427,Upwind,3506.974,1.252,3506.780,1.252,1188.206,1188.212,177.227,54.658,359.999,12.921,-0.044,0.0000,-0.2373,0.0000,0.9390,0.5000,0.0000,0.0000
55.630,Upwind,3525.221,1.252,3525.027,1.252,1199.138,1199.144,177.222,54.664,359.999,12.921,-0.044,0.0000,-0.2374,0.0000,0.9390,0.5000,0.0000,0.0000
55.831,Upwind,3544.991,1.252,3544.797,1.252,1210.071,1210.077,177.217,54.670,359.999,12.921,-0.044,0.0000,-0.2373,0.0000,0.9391,0.5000,0.0000,0.0000
56.028,Upwind,3561.722,1.252,3561.528,1.252,1221.006,1221.012,177.211,54.675,359.998,12.921,-0.044,0.0000,-0.2373,0.0000,0.9392,0.5000,0.0000,0.0000
56.229,Upwind,3579.976,1.252,3579.782,1.252,1231.941,1231.947,177.206,54.680,359.998,12.921,-0.043,0.0000,-0.2374,0.0000,0.9393,0.5000,0.0000,0.0000
56.423,Upwind,3598.232,1.252,3598.038,1.252,1241.966,1241.972,177.201,54.685,359.998,12.921,-0.043,0.0000,-0.2374,0.0000,0.9393,0.5000,0.0000,0.0000
56.622,Upwind,3616.491,1.252,3616.297,1.252,1252.904,1252.910,177.195,54.690,359.998,12.921,-0.043,0.0000,-0.2374,0.0000,0.9394,0.5000,0.0000,0.0000
56.823,Upwind,3634.752,1.252,3634.558,1.252,1263.842,1263.848,177.189,54.694,359.998,12.921,-0.043,0.0000,-0.2374,0.0000,0.9395,0.5000,0.0000,0.0000
57.030,Upwind,3654.537,1.251,3654.343,1.251,1275.693,1275.699,177.183,54.699,359.997,12.921,-0.043,0.0000,-0.2374,0.0000,0.9396,0.5000,0.0000,0.0000
57.226,Upwind,3671.280,1.251,3671.086,1.251,1286.633,1286.640,177.177,54.703,359.997,12.921,-0.043,0.0000,-0.2374,0.0000,0.9397,0.5000,0.0000,0.0000
57.428,Upwind,3689.548,1.251,3689.354,1.251,1297.574,1297.581,177.171,54.707,359.997,12.921,-0.043,0.0000,-0.2374,0.0000,0.9398,0.5000,0.0000,0.0000
57.632,Upwind,3709.341,1.250,3709.147,1.250,1308.516,1308.523,177.165,54.711,359.997,12.921,-0.043,0.0000,-0.2374,0.0000,0.9398,0.5000,0.0000,0.0000
57.825,Upwind,3726.090,1.249,3725.896,1.249,1319.459,1319.465,177.159,54.715,359.997,12.921,-0.043,0.0000,-0.2374,0.0000,0.9399,0.5000,0.0000,0.0000
58.031,Upwind,3745.888,1.249,3745.694,1.249,1330.402,1330.409,177.152,54.719,359.996,12.921,-0.042,0.0000,-0.2374,0.0000,0.9400,0.5000,0.0000,0.0000
58.225,Upwind,3762.642,1.248,3762.448,1.248,1340.434,1340.441,177.147,54.722,359.996,12.921,-0.042,0.0000,-0.2375,0.0000,0.9401,0.5000,0.0000,0.0000
58.428,Upwind,3780.921,1.247,3780.727,1.247,1352.291,1352.298,177.140,54.726,359.996,12.921,-0.042,0.0000,-0.2375,0.0000,0.9402,0.5000,0.0000,0.0000
58.621,Upwind,3799.202,1.246,3799.008,1.246,1362.324,1362.331,177.134,54.729,359.996,12.920,-0.042,0.0000,-0.2376,0.0000,0.9403,0.5000,0.0000,0.0000
58.821,Upwind,3817.486,1.245,3817.292,1.245,1373.270,1373.277,177.127,54.731,359.996,12.920,-0.042,0.0000,-0.2376,0.0000,0.9404,0.5000,0.0000,0.0000
59.029,Upwind,3835.772,1.244,3835.578,1.244,1385.129,1385.136,177.120,54.735,359.995,12.920,-0.042,0.0000,-0.2376,0.0000,0.9405,0.5000,0.0000,0.0000
59.221,Upwind,3854.060,1.243,3853.866,1.243,1395.164,1395.171,177.114,54.737,359.995,12.920,-0.042,0.0000,-0.2376,0.0000,0.9406,0.5000,0.0000,0.0000
59.420,Upwind,3872.350,1.242,3872.156,1.242,1406.112,1406.118,177.108,54.740,359.995,12.920,-0.042,0.0000,-0.2377,0.0000,0.9406,0.5000,0.0000,0.0000
59.624,Upwind,3890.643,1.241,3890.449,1.241,1417.060,1417.067,177.101,54.742,359.995,12.920,-0.042,0.0000,-0.2377,0.0000,0.9407,0.5000,0.0000,0.0000
59.832,Upwind,3910.463,1.240,3910.269,1.240,1428.921,1428.928,177.094,54.745,359.995,12.920,-0.042,0.0000,-0.2377,0.0000,0.9408,0.5000,0.0000,0.0000
60.021,Upwind,3927.235,1.239,3927.041,1.239,1438.957,1438.964,177.088,54.747,359.994,12.920,-0.041,0.0000,-0.2377,0.0000,0.9409,0.5000,0.0000,0.0000
60.223,Upwind,3945.534,1.237,3945.340,1.237,1449.907,1449.914,177.081,54.749,359.994,12.919,-0.041,0.0000,-0.2378,0.0000,0.9410,0.5000,0.0000,0.0000
60.431,Upwind,3965.361,1.236,3965.167,1.236,1461.770,1461.777,177.074,54.752,359.994,12.919,-0.041,0.0000,-0.2378,0.0000,0.9411,0.5000,0.0000,0.0000
60.625,Upwind,3982.140,1.234,3981.946,1.234,1471.808,1471.815,177.068,54.754,359.994,12.919,-0.041,0.0001,-0.2378,0.0000,0.9412,0.5000,0.0000,0.0000
60.831,Upwind,4001.971,1.233,4001.777,1.233,1483.671,1483.678,177.060,54.756,359.994,12.919,-0.041,0.0000,-0.2379,0.0000,0.9413,0.5000,0.0000,0.0000
61.026,Upwind,4018.754,1.231,4018.560,1.231,1493.710,1493.717,177.054,54.758,359.994,12.919,-0.041,0.0000,-0.2379,0.0000,0.9414,0.5000,0.0000,0.0000
61.227,Upwind,4037.065,1.230,4036.871,1.230,1505.574,1505.582,177.046,54.760,359.993,12.919,-0.041,0.0001,-0.2379,0.0000,0.9415,0.5000,0.0000,0.0000
61.432,Upwind,4056.903,1.228,4056.709,1.228,1516.526,1516.534,177.040,54.762,359.993,12.918,-0.040,0.0000,-0.2380,0.0000,0.9416,0.5000,0.0000,0.0000
61.626,Upwind,4073.692,1.226,4073.498,1.226,1526.566,1526.574,177.033,54.763,359.993,12.918,-0.040,0.0000,-0.2380,0.0000,0.9417,0.5000,0.0000,0.0000
61.829,Upwind,4092.009,1.225,4091.815,1.225,1538.432,1538.439,177.026,54.765,359.993,12.918,-0.040,0.0000,-0.2380,0.0000,0.9418,0.5000,0.0000,0.0000
62.022,Upwind,4110.329,1.223,4110.135,1.223,1548.472,1548.480,177.019,54.767,359.993,12.918,-0.040,0.0001,-0.2381,0.0000,0.9419,0.5000,0.0000,0.0000
62.220,Upwind,4128.650,1.221,4128.456,1.221,1559.426,1559.433,177.012,54.768,359.993,12.918,-0.040,0.0000,-0.2381,0.0000,0.9420,0.5000,0.0000,0.0000
62.429,Upwind,4146.974,1.219,4146.780,1.219,1571.292,1571.300,177.005,54.770,359.992,12.918,-0.040,0.0000,-0.2381,0.0000,0.9421,0.5000,0.0000,0.0000
62.623,Upwind,4165.300,1.217,4165.105,1.217,1581.334,1581.341,176.998,54.772,359.992,12.918,-0.039,0.0000,-0.2382,0.0000,0.9422,0.5000,0.0000,0.0000
62.829,Upwind,4183.629,1.215,4183.435,1.215,1593.201,1593.209,176.991,54.773,359.992,12.917,-0.039,0.0000,-0.2382,0.0000,0.9423,0.5000,0.0000,0.0000
63.031,Upwind,4203.487,1.213,4203.292,1.213,1604.156,1604.163,176.983,54.775,359.992,12.917,-0.039,0.0000,-0.2383,0.0000,0.9424,0.5000,0.0000,0.0000
63.226,Upwind,4220.292,1.211,4220.098,1.211,1615.111,1615.118,176.976,54.776,359.992,12.917,-0.039,0.0000,-0.2383,0.0000,0.9425,0.5000,0.0000,0.0000
63.424,Upwind,4238.627,1.209,4238.433,1.209,1625.153,1625.161,176.970,54.777,359.992,12.917,-0.039,0.0001,-0.2383,0.0000,0.9426,0.5000,0.0000,0.0000
63.630,Upwind,4258.492,1.206,4258.298,1.206,1637.022,1637.029,176.962,54.779,359.992,12.917,-0.038,0.0000,-0.2384,0.0000,0.9427,0.5000,0.0000,0.0000
63.828,Upwind,4275.303,1.204,4275.109,1.204,1647.977,1647.985,176.955,54.780,359.992,12.916,-0.038,0.0000,-0.2384,0.0000,0.9428,0.5000,0.0000,0.0000
64.021,Upwind,4293.645,1.202,4293.451,1.202,1658.021,1658.028,176.948,54.781,359.991,12.916,-0.038,0.0000,-0.2384,0.0000,0.9429,0.5000,0.0000,0.0000
64.229,Upwind,4311.988,1.200,4311.793,1.200,1669.890,1669.898,176.941,54.782,359.991,12.916,-0.038,0.0000,-0.2385,0.0000,0.9430,0.5000,0.0000,0.0000
64.427,Upwind,4330.334,1.198,4330.140,1.198,1680.846,1680.855,176.933,54.784,359.991,12.916,-0.038,0.0000,-0.2385,0.0000,0.9431,0.5000,0.0000,0.0000
64.631,Upwind,4350.212,1.195,4350.018,1.195,1691.803,1691.811,176.926,54.785,359.991,12.916,-0.038,0.0000,-0.2386,0.0000,0.9432,0.5000,0.0000,0.0000
64.822,Upwind,4367.033,1.193,4366.839,1.193,1701.847,1701.855,176.920,54.786,359.991,12.916,-0.037,0.0000,-0.2386,0.0000,0.9433,0.5000,0.0000,0.0000
65.032,Upwind,4386.915,1.190,4386.721,1.190,1713.718,1713.726,176.912,54.787,359.991,12.915,-0.037,0.0001,-0.2386,0.0000,0.9434,0.5000,0.0000,0.0000
65.222,Upwind,4403.740,1.188,4403.546,1.188,1723.762,1723.770,176.905,54.788,359.991,12.915,-0.037,0.0000,-0.2387,0.0000,0.9435,0.5000,0.0000,0.0000
65.423,Upwind,4422.097,1.186,4421.903,1.186,1734.719,1734.728,176.898,54.789,359.991,12.915,-0.037,0.0000,-0.2387,0.0000,0.9436,0.5000,0.0000,0.0000
65.628,Upwind,4440.457,1.183,4440.263,1.183,1746.591,1746.599,176.890,54.790,359.991,12.915,-0.037,0.0000,-0.2388,0.0000,0.9437,0.5000,0.0000,0.0000
65.826,Upwind,4458.818,1.181,4458.624,1.181,1756.635,1756.644,176.883,54.791,359.991,12.915,-0.037,0.0000,-0.2388,0.0000,0.9438,0.5000,0.0000,0.0000
66.029,Upwind,4477.182,1.178,4476.988,1.178,1768.507,1768.515,176.875,54.792,359.991,12.914,-0.037,0.0000,-0.2389,0.0000,0.9439,0.5000,0.0000,0.0000
66.230,Upwind,4495.548,1.175,4495.354,1.175,1779.465,1779.474,176.868,54.793,359.990,12.914,-0.036,0.0001,-0.2389,0.0000,0.9440,0.5000,0.0000,0.0000
66.423,Upwind,4513.916,1.173,4513.722,1.173,1789.511,1789.519,176.861,54.794,359.990,12.914,-0.036,0.0000,-0.2389,0.0000,0.9441,0.5000,0.0000,0.0000
66.628,Upwind,4532.286,1.170,4532.092,1.170,1801.383,1801.391,176.854,54.795,359.990,12.914,-0.036,0.0000,-0.2390,0.0000,0.9442,0.5000,0.0000,0.0000
66.830,Upwind,4550.658,1.168,4550.464,1.168,1812.342,1812.350,176.846,54.796,359.990,12.914,-0.036,0.0001,-0.2390,0.0000,0.9443,0.5000,0.0000,0.0000
67.023,Upwind,4569.033,1.165,4568.839,1.165,1822.388,1822.396,176.840,54.796,359.990,12.914,-0.036,0.0000,-0.2391,0.0000,0.9444,0.5000,0.0000,0.0000
67.225,Upwind,4587.410,1.162,4587.216,1.162,1833.347,1833.356,176.832,54.797,359.990,12.913,-0.036,0.0001,-0.2391,0.0000,0.9445,0.5000,0.0000,0.0000
67.426,Upwind,4605.789,1.159,4605.595,1.159,1844.307,1844.315,176.825,54.798,359.990,12.913,-0.035,0.0000,-0.2391,0.0000,0.9446,0.5000,0.0000,0.0000
67.629,Upwind,4624.170,1.157,4623.976,1.157,1856.180,1856.188,176.817,54.799,359.990,12.913,-0.035,0.0000,-0.2392,0.0000,0.9447,0.5000,0.0000,0.0000
67.821,Upwind,4642.554,1.154,4642.360,1.154,1866.226,1866.235,176.810,54.800,359.990,12.913,-0.035,0.0000,-0.2392,0.0000,0.9448,0.5000,0.0000,0.0000
68.023,Upwind,4660.940,1.151,4660.746,1.151,1877.186,1877.195,176.803,54.801,359.990,12.913,-0.035,0.0000,-0.2393,0.0000,0.9449,0.5000,0.0000,0.0000
68.226,Upwind,4679.328,1.148,4679.134,1.148,1889.060,1889.069,176.795,54.801,359.990,12.912,-0.035,0.0001,-0.2393,0.0000,0.9450,0.5000,0.0000,0.0000
68.430,Upwind,4697.718,1.146,4697.523,1.146,1900.020,1900.029,176.788,54.802,359.990,12.912,-0.035,0.0000,-0.2394,0.0000,0.9451,0.5000,0.0000,0.0000
68.634,Upwind,4717.643,1.143,4717.449,1.143,1910.980,1910.989,176.780,54.803,359.990,12.912,-0.035,0.0000,-0.2394,0.0000,0.9452,0.5000,0.0000,0.0000
68.831,Upwind,4736.038,1.140,4735.844,1.140,1921.941,1921.950,176.773,54.804,359.990,12.912,-0.034,0.0000,-0.2394,0.0000,0.9453,0.5000,0.0000,0.0000
69.033,Upwind,4754.434,1.137,4754.240,1.137,1931.988,1931.998,176.766,54.804,359.990,12.912,-0.034,0.0000,-0.2395,0.0000,0.9454,0.5000,0.0000,0.0000
69.221,Upwind,4771.300,1.134,4771.105,1.134,1942.949,1942.958,176.759,54.805,359.990,12.911,-0.034,0.0000,-0.2395,0.0000,0.9455,0.5000,0.0000,0.0000
69.428,Upwind,4789.701,1.131,4789.507,1.131,1954.824,1954.833,176.751,54.806,359.990,12.911,-0.034,0.0001,-0.2396,0.0000,0.9456,0.5000,0.0000,0.0000
69.622,Upwind,4808.105,1.129,4807.911,1.129,1964.871,1964.881,176.744,54.806,359.990,12.911,-0.034,0.0000,-0.2396,0.0000,0.9457,0.5000,0.0000,0.0000
69.824,Upwind,4826.510,1.126,4826.315,1.126,1975.833,1975.842,176.736,54.807,359.990,12.911,-0.034,0.0000,-0.2397,0.0000,0.9458,0.5000,0.0000,0.0000
70.023,Upwind,4844.918,1.123,4844.724,1.123,1986.794,1986.804,176.729,54.808,359.989,12.911,-0.034,0.0000,-0.2397,0.0000,0.9459,0.5000,0.0000,0.0000
70.224,Upwind,4863.328,1.120,4863.134,1.120,1997.756,1997.765,176.722,54.808,359.989,12.910,-0.034,0.0000,-0.2397,0.0000,0.9460,0.5000,0.0000,0.0000
70.435,Crosswind,4883.273,1.117,4883.079,1.117,2009.638,2009.647,176.666,54.900,359.989,12.846,0.037,0.2800,0.2500,0.0000,0.8637,0.0000,0.0000,0.0000
70.630,Crosswind,4900.137,1.115,4899.943,1.115,2020.612,2020.622,176.432,54.782,359.985,12.485,0.424,0.2800,0.2500,0.0001,0.7666,0.0000,0.0000,0.0000
70.821,Crosswind,4918.507,1.115,4918.313,1.115,2030.617,2030.627,176.082,54.303,359.976,11.922,1.018,0.2800,0.2500,0.0000,0.7000,0.0000,0.0000,0.0000
71.038,Crosswind,4938.372,1.123,4938.178,1.123,2042.277,2042.287,175.635,53.229,359.959,11.035,1.946,0.2800,0.2500,-0.0003,0.7000,0.0000,0.0000,0.0000
71.226,Crosswind,4955.158,1.139,4954.964,1.139,2052.781,2052.791,175.264,51.730,359.933,10.064,2.967,0.2800,0.2500,-0.0005,0.7000,0.0000,0.0000,0.0000
71.423,Crosswind,4973.454,1.169,4973.260,1.169,2062.105,2062.115,174.962,49.916,359.902,9.089,4.006,0.2473,0.2500,-0.0009,0.7051,0.0000,0.0000,0.0000
71.627,Crosswind,4991.742,1.216,4991.548,1.216,2072.640,2072.650,174.664,47.238,359.855,7.877,5.296,0.1949,0.1546,-0.0013,0.7140,0.0000,0.0000,0.0000
71.826,Crosswind,5010.034,1.282,5009.840,1.282,2081.797,2081.807,174.460,44.250,359.808,6.780,6.469,0.1511,0.0092,-0.0016,0.7211,0.0000,0.0000,0.0000
72.031,Crosswind,5029.865,1.376,5029.671,1.376,2090.313,2090.323,174.321,40.858,359.773,5.814,7.571,0.1133,-0.1074,-0.0020,0.7270,0.0000,0.0000,0.0000
72.220,Crosswind,5046.663,1.475,5046.469,1.475,2097.500,2097.510,174.240,37.517,359.762,5.105,8.489,0.0834,-0.1864,-0.0023,0.7315,0.0000,0.0000,0.0000
72.423,Crosswind,5065.011,1.604,5064.817,1.604,2104.630,2104.640,174.203,33.776,359.786,4.554,9.372,0.0564,-0.2404,-0.0025,0.7352,0.0000,0.0000,0.0000
72.620,Crosswind,5083.384,1.758,5083.189,1.758,2111.015,2111.025,174.217,30.098,359.852,4.233,10.118,0.0352,-0.2641,-0.0028,0.7378,0.0000,0.0000,0.0000
72.830,Crosswind,5101.786,1.939,5101.592,1.939,2117.123,2117.133,174.287,26.331,359.975,4.111,10.770,0.0177,-0.2638,-0.0030,0.7391,0.0000,0.0000,0.0000
73.026,Crosswind,5120.215,2.152,5120.021,2.152,2122.065,2122.075,174.397,23.149,0.132,4.155,11.232,0.0075,-0.2453,-0.0033,0.7393,0.0000,0.0000,0.0000
73.230,Crosswind,5138.673,2.401,5138.479,2.401,2126.404,2126.414,174.541,20.295,0.324,4.294,11.567,0.0015,-0.2641,-0.0037,0.7385,0.0000,0.0000,0.0000
73.427,Crosswind,5157.159,2.692,5156.965,2.692,2129.906,2129.917,174.692,17.952,0.527,4.474,11.775,-0.0002,-0.3143,-0.0041,0.7371,0.0000,0.0000,0.0000
73.632,Crosswind,5177.215,3.059,5177.021,3.059,2133.526,2133.536,174.882,15.522,0.802,4.755,11.916,0.0000,-0.3526,-0.0045,0.7350,0.0000,0.0000,0.0000
73.826,Crosswind,5194.210,3.416,5194.016,3.416,2136.435,2136.445,175.067,13.619,1.089,5.072,11.966,0.0021,-0.3696,-0.0049,0.7326,0.0000,0.0000,0.0000
74.022,Crosswind,5212.772,3.858,5212.578,3.858,2138.794,2138.804,175.239,12.164,1.374,5.393,11.959,0.0056,-0.3721,-0.0052,0.7301,0.0000,0.0000,0.0000
74.222,Crosswind,5231.357,4.358,5231.163,4.358,2141.093,2141.104,175.428,10.882,1.703,5.753,11.912,0.0096,-0.3656,-0.0055,0.7273,0.0000,0.0000,0.0000
74.432,Crosswind,5251.515,4.971,5251.321,4.971,2143.330,2143.340,175.631,9.818,2.069,6.124,11.833,0.0139,-0.3528,-0.0058,0.7242,0.0000,0.0000,0.0000
74.621,Crosswind,5268.589,5.550,5268.395,5.550,2145.066,2145.076,175.800,9.145,2.379,6.398,11.756,0.0172,-0.3417,-0.0059,0.7216,0.0000,0.0000,0.0000
74.822,Crosswind,5287.234,6.247,5287.040,6.247,2146.837,2146.847,175.981,8.595,2.709,6.638,11.673,0.0201,-0.3328,-0.0060,0.7187,0.0000,0.0000,0.0000
75.022,Crosswind,5305.896,7.015,5305.702,7.015,2148.376,2148.386,176.144,8.213,3.000,6.795,11.606,0.0220,-0.3305,-0.0060,0.7162,0.0000,0.0000,0.0000
75.226,Crosswind,5324.574,7.855,5324.380,7.855,2150.115,2150.125,176.335,7.849,3.324,6.901,11.542,0.0234,-0.3342,-0.0059,0.7133,0.0000,0.0000,0.0000
75.431,Crosswind,5344.828,8.846,5344.634,8.846,2151.780,2151.790,176.525,7.521,3.626,6.930,11.499,0.0238,-0.3466,-0.0057,0.7105,0.0000,0.0000,0.0000
75.631,Crosswind,5363.539,9.837,5363.345,9.837,2153.254,2153.264,176.700,7.218,3.886,6.903,11.478,0.0233,-0.3647,-0.0055,0.7079,0.0000,0.0000,0.0000
75.823,Crosswind,5380.706,10.810,5380.512,10.810,2154.550,2154.560,176.862,6.916,4.110,6.849,11.475,0.0224,-0.3842,-0.0053,0.7057,0.0000,0.0000,0.0000
76.028,Crosswind,5399.447,11.941,5399.252,11.941,2156.006,2156.017,177.055,6.518,4.362,6.772,11.486,0.0211,-0.4089,-0.0051,0.7030,0.0000,0.0000,0.0000
76.224,Crosswind,5418.204,13.144,5418.010,13.144,2157.168,2157.178,177.221,6.146,4.567,6.711,11.505,0.0198,-0.4289,-0.0049,0.7007,0.0000,0.0000,0.0000
76.426,Crosswind,5436.976,14.420,5436.782,14.420,2158.354,2158.364,177.404,5.713,4.787,6.662,11.533,0.0184,-0.4482,-0.0048,0.7000,0.0000,0.0000,0.0000
76.633,Crosswind,5457.330,15.884,5457.136,15.884,2159.540,2159.550,177.608,5.233,5.024,6.642,11.565,0.0171,-0.4642,-0.0047,0.7000,0.0000,0.0000,0.0000
76.830,Crosswind,5474.568,17.189,5474.374,17.189,2160.543,2160.553,177.801,4.801,5.245,6.658,11.594,0.0162,-0.4740,-0.0046,0.7000,0.0000,0.0000,0.0000
77.020,Crosswind,5493.387,18.683,5493.193,18.683,2161.388,2161.399,177.982,4.431,5.450,6.700,11.617,0.0156,-0.4780,-0.0045,0.7000,0.0000,0.0000,0.0000
77.231,Crosswind,5513.792,20.384,5513.598,20.384,2162.305,2162.316,178.198,4.043,5.697,6.778,11.637,0.0153,-0.4782,-0.0045,0.7000,0.0000,0.0000,0.0000
77.428,Crosswind,5531.072,21.892,5530.877,21.892,2163.083,2163.093,178.400,3.743,5.928,6.867,11.647,0.0154,-0.4750,-0.0045,0.7000,0.0000,0.0000,0.0000
77.625,Crosswind,5549.938,23.608,5549.744,23.608,2163.748,2163.758,178.587,3.518,6.143,6.955,11.650,0.0158,-0.4702,-0.0046,0.7000,0.0000,0.0000,0.0000
77.822,Crosswind,5568.819,25.399,5568.625,25.399,2164.431,2164.441,178.791,3.324,6.378,7.048,11.647,0.0164,-0.4644,-0.0046,0.7000,0.0000,0.0000,0.0000
78.024,Crosswind,5587.715,27.267,5587.521,27.267,2165.080,2165.091,178.997,3.175,6.614,7.129,11.636,0.0172,-0.4594,-0.0047,0.7000,0.0000,0.0000,0.0000
78.226,Crosswind,5606.625,29.210,5606.431,29.210,2165.754,2165.765,179.221,3.050,6.869,7.197,11.620,0.0181,-0.4558,-0.0047,0.7000,0.0000,0.0000,0.0000
78.424,Crosswind,5625.550,31.230,5625.355,31.230,2166.305,2166.315,179.412,2.959,7.083,7.235,11.603,0.0189,-0.4553,-0.0048,0.7000,0.0000,0.0000,0.0000
78.621,Crosswind,5644.489,33.326,5644.294,33.326,2166.887,2166.897,179.623,2.863,7.315,7.258,11.583,0.0197,-0.4570,-0.0049,0.7000,0.0000,0.0000,0.0000
78.823,Crosswind,5663.442,35.499,5663.248,35.499,2167.449,2167.460,179.836,2.757,7.546,7.263,11.564,0.0203,-0.4611,-0.0049,0.7000,0.0000,0.0000,0.0000
79.023,Crosswind,5682.410,37.747,5682.216,37.747,2167.989,2167.999,180.053,2.634,7.776,7.255,11.547,0.0209,-0.4670,-0.0049,0.7000,0.0000,0.0000,0.0000
79.224,Crosswind,5701.392,40.072,5701.198,40.072,2168.501,2168.512,180.273,2.489,8.005,7.240,11.532,0.0212,-0.4742,-0.0049,0.7000,0.0000,0.0000,0.0000
79.421,Crosswind,5720.388,42.473,5720.194,42.473,2168.983,2168.993,180.496,2.323,8.235,7.225,11.522,0.0214,-0.4816,-0.0049,0.7000,0.0000,0.0000,0.0000
79.629,Crosswind,5739.399,44.949,5739.205,44.949,2169.465,2169.476,180.742,2.131,8.484,7.213,11.515,0.0214,-0.4890,-0.0049,0.7000,0.0000,0.0000,0.0000
79.827,Crosswind,5758.424,47.501,5758.229,47.501,2169.841,2169.851,180.952,1.963,8.696,7.211,11.513,0.0212,-0.4939,-0.0049,0.7000,0.0000,0.0000,0.0000
80.026,Crosswind,5777.464,50.128,5777.270,50.128,2170.245,2170.255,181.203,1.767,8.948,7.221,11.515,0.0210,-0.4983,-0.0049,0.7000,0.0000,0.0000,0.0000
80.227,Crosswind,5796.519,52.832,5796.325,52.832,2170.581,2170.591,181.438,1.595,9.181,7.240,11.520,0.0206,-0.5006,-0.0049,0.7000,0.0000,0.0000,0.0000
80.421,Crosswind,5815.588,55.612,5815.394,55.612,2170.860,2170.870,181.655,1.450,9.396,7.266,11.527,0.0202,-0.5013,-0.0048,0.7000,0.0000,0.0000,0.0000
80.627,Crosswind,5834.671,58.468,5834.477,58.468,2171.135,2171.145,181.893,1.307,9.630,7.300,11.535,0.0198,-0.5010,-0.0048,0.7000,0.0000,0.0000,0.0000
80.826,Crosswind,5853.769,61.402,5853.575,61.402,2171.384,2171.394,182.133,1.184,9.863,7.337,11.545,0.0195,-0.5000,-0.0048,0.7000,0.0000,0.0000,0.0000
81.029,Crosswind,5872.880,64.413,5872.686,64.413,2171.628,2171.638,182.394,1.070,10.115,7.377,11.555,0.0191,-0.4985,-0.0048,0.7000,0.0000,0.0000,0.0000
81.225,Crosswind,5892.005,67.501,5891.811,67.501,2171.816,2171.826,182.616,0.988,10.326,7.408,11.562,0.0188,-0.4975,-0.0047,0.7000,0.0000,0.0000,0.0000
81.425,Crosswind,5911.143,70.668,5910.949,70.668,2172.005,2172.016,182.860,0.908,10.555,7.437,11.569,0.0186,-0.4968,-0.0047,0.7000,0.0000,0.0000,0.0000
81.623,Crosswind,5930.294,73.912,5930.100,73.912,2172.180,2172.190,183.105,0.834,10.783,7.459,11.575,0.0185,-0.4969,-0.0047,0.7000,0.0000,0.0000,0.0000
81.822,Crosswind,5949.459,77.235,5949.265,77.235,2172.339,2172.350,183.352,0.762,11.008,7.475,11.579,0.0184,-0.4977,-0.0047,0.7000,0.0000,0.0000,0.0000
82.023,Crosswind,5968.637,80.636,5968.443,80.636,2172.484,2172.495,183.601,0.687,11.233,7.486,11.582,0.0184,-0.4994,-0.0047,0.7000,0.0000,0.0000,0.0000
82.223,Crosswind,5987.827,84.116,5987.633,84.116,2172.614,2172.624,183.852,0.606,11.456,7.491,11.583,0.0184,-0.5017,-0.0047,0.7000,0.0000,0.0000,0.0000
82.428,Crosswind,6007.031,87.673,6006.836,87.673,2172.735,2172.745,184.125,0.510,11.698,7.495,11.583,0.0185,-0.5045,-0.0047,0.7000,0.0000,0.0000,0.0000
82.621,Crosswind,6026.247,91.309,6026.053,91.309,2172.820,2172.831,184.359,0.422,11.902,7.498,11.582,0.0186,-0.5071,-0.0047,0.7000,0.0000,0.0000,0.0000
82.828,Crosswind,6045.475,95.024,6045.281,95.024,2172.900,2172.910,184.637,0.311,12.144,7.504,11.581,0.0186,-0.5100,-0.0047,0.7000,0.0000,0.0000,0.0000
83.023,Crosswind,6064.717,98.816,6064.522,98.816,2172.948,2172.958,184.875,0.213,12.349,7.510,11.579,0.0187,-0.5121,-0.0047,0.7000,0.0000,0.0000,0.0000
83.220,Crosswind,6083.971,102.687,6083.777,102.687,2172.979,2172.990,185.135,0.105,12.574,7.521,11.578,0.0187,-0.5139,-0.0047,0.7000,0.0000,0.0000,0.0000
83.430,Crosswind,6103.237,106.637,6103.042,106.637,2172.990,2173.000,185.420,-0.011,12.818,7.537,11.577,0.0188,-0.5155,-0.0047,0.7000,0.0000,0.0000,0.0000
