time_s,leg,north_m,east_m,along_m,cross_m,agl_ft,altitude_ft,speed_kts,vertical_speed_fps,heading_deg,pitch_deg,roll_deg,aileron_cmd,elevator_cmd,rudder_cmd,throttle_cmd,flaps_cmd,gear_cmd,brake_cmd
0.411,Upwind,0.077,0.000,0.077,0.000,3.691,3.691,1.077,0.002,0.000,0.454,0.000,0.0000,0.0034,0.0000,0.0000,0.5000,1.0000,1.0000
0.605,Upwind,0.122,0.000,0.122,0.000,3.692,3.692,0.038,0.037,0.000,0.379,0.000,0.0000,0.0326,0.0000,0.0000,0.5000,1.0000,1.0000
0.790,Upwind,0.122,0.000,0.122,0.000,3.703,3.703,0.023,0.024,0.000,0.356,0.000,0.0000,0.0583,0.0000,0.0000,0.5000,1.0000,1.0000
1.012,Upwind,0.120,0.000,0.120,0.000,3.694,3.694,0.047,-0.077,0.000,0.444,0.000,0.0000,0.0660,0.0000,0.0000,0.5000,1.0000,1.0000
1.216,Upwind,0.120,0.000,0.120,0.000,3.685,3.685,0.001,-0.002,0.000,0.464,0.000,0.0000,0.0636,0.0000,0.0143,0.5000,1.0000,0.0000
1.406,Upwind,0.124,0.000,0.124,0.000,3.689,3.689,0.068,0.021,0.000,0.450,0.000,0.0000,0.0620,0.0000,0.1091,0.5000,1.0000,0.0000
1.602,Upwind,0.133,0.000,0.133,0.000,3.691,3.691,0.103,0.005,0.000,0.446,0.000,0.0000,0.0626,0.0000,0.2073,0.5000,1.0000,0.0000
1.793,Upwind,0.145,0.000,0.145,0.000,3.691,3.691,0.130,-0.003,0.000,0.448,0.000,0.0000,0.0630,0.0000,0.3029,0.5000,1.0000,0.0000
1.999,Upwind,0.161,0.000,0.161,0.000,3.691,3.691,0.177,-0.001,0.000,0.450,0.000,0.0000,0.0630,0.0000,0.4059,0.5000,1.0000,0.0000
2.199,Upwind,0.183,0.000,0.183,0.000,3.691,3.691,0.236,0.001,0.000,0.450,0.000,0.0000,0.0629,0.0000,0.5056,0.5000,1.0000,0.0000
2.405,Upwind,0.212,0.000,0.212,0.000,3.691,3.691,0.314,0.001,0.000,0.449,0.000,0.0000,0.0629,0.0000,0.6085,0.5000,1.0000,0.0000
2.591,Upwind,0.246,0.000,0.246,0.000,3.691,3.691,0.404,0.000,0.000,0.449,0.000,0.0000,0.0629,0.0000,0.7019,0.5000,1.0000,0.0000
2.790,Upwind,0.295,0.000,0.295,0.000,3.691,3.691,0.528,0.000,0.000,0.449,0.000,0.0000,0.0630,0.0000,0.8010,0.5000,1.0000,0.0000
3.004,Upwind,0.364,0.000,0.364,0.000,3.691,3.691,0.695,0.000,0.000,0.450,0.000,0.0000,0.0630,0.0000,0.9084,0.5000,1.0000,0.0000
3.206,Upwind,0.447,0.000,0.447,0.000,3.691,3.691,0.887,0.000,0.000,0.450,0.000,0.0000,0.0630,0.0000,1.0000,0.5000,1.0000,0.0000
3.404,Upwind,0.552,0.000,0.552,0.000,3.691,3.691,1.119,0.000,0.000,0.450,0.000,0.0000,0.0630,0.0000,1.0000,0.5000,1.0000,0.0000
3.597,Upwind,0.683,0.000,0.683,0.000,3.691,3.691,1.399,0.000,0.000,0.450,0.000,0.0000,0.0631,0.0000,1.0000,0.5000,1.0000,0.0000
3.806,Upwind,0.847,0.000,0.847,0.000,3.691,3.691,1.735,0.000,0.000,0.451,0.000,0.0000,0.0631,0.0000,1.0000,0.5000,1.0000,0.0000
4.002,Upwind,1.049,0.000,1.049,0.000,3.691,3.691,2.132,0.000,0.000,0.451,0.000,0.0000,0.0632,0.0000,1.0000,0.5000,1.0000,0.0000
4.193,Upwind,1.296,0.000,1.296,0.000,3.691,3.691,2.559,0.000,0.000,0.451,0.000,0.0000,0.0632,0.0000,1.0000,0.5000,1.0000,0.0000
4.407,Upwind,1.595,0.000,1.595,0.000,3.691,3.691,3.148,0.000,0.000,0.452,0.000,0.0000,0.0633,0.0000,1.0000,0.5000,1.0000,0.0000
4.611,Upwind,1.990,0.000,1.990,0.000,3.691,3.691,3.782,0.000,0.000,0.452,0.000,0.0000,0.0633,0.0000,1.0000,0.5000,1.0000,0.0000
4.797,Upwind,2.389,0.000,2.389,0.000,3.691,3.691,4.447,0.000,0.000,0.452,0.000,0.0000,0.0634,0.0000,1.0000,0.5000,1.0000,0.0000
4.992,Upwind,2.856,0.000,2.856,0.000,3.691,3.691,5.269,0.000,0.000,0.453,0.000,0.0000,0.0635,0.0000,1.0000,0.5000,1.0000,0.0000
5.201,Upwind,3.507,0.000,3.507,0.000,3.691,3.691,6.283,0.000,0.000,0.453,0.000,0.0000,0.0635,0.0000,1.0000,0.5000,1.0000,0.0000
5.414,Upwind,4.280,0.000,4.280,0.000,3.691,3.691,7.338,0.000,0.000,0.454,0.000,0.0000,0.0636,0.0000,1.0000,0.5000,1.0000,0.0000
5.607,Upwind,5.041,0.000,5.041,0.000,3.691,3.691,8.516,0.001,0.000,0.454,0.000,0.0000,0.0637,0.0000,1.0000,0.5000,1.0000,0.0000
5.800,Upwind,5.993,0.000,5.993,0.000,3.691,3.691,9.794,0.001,0.000,0.455,0.000,0.0000,0.0637,0.0000,1.0000,0.5000,1.0000,0.0000
6.004,Upwind,7.078,0.000,7.078,0.000,3.691,3.691,11.079,0.001,0.000,0.455,0.000,0.0000,0.0636,0.0000,1.0000,0.5000,1.0000,0.0000
6.212,Upwind,8.403,0.000,8.403,0.000,3.692,3.692,12.363,0.001,0.000,0.454,0.000,0.0000,0.0636,0.0000,1.0000,0.5000,1.0000,0.0000
6.396,Upwind,9.644,0.000,9.644,0.000,3.692,3.692,13.539,0.001,0.000,0.454,0.000,0.0000,0.0636,0.0000,1.0000,0.5000,1.0000,0.0000
6.609,Upwind,11.125,0.000,11.125,0.000,3.692,3.692,14.928,0.001,0.000,0.454,0.000,0.0000,0.0635,0.0000,1.0000,0.5000,1.0000,0.0000
6.790,Upwind,12.599,0.000,12.599,0.000,3.692,3.692,16.102,0.001,0.000,0.454,0.000,0.0000,0.0635,0.0000,1.0000,0.5000,1.0000,0.0000
6.999,Upwind,14.483,0.000,14.483,0.000,3.692,3.692,17.488,0.002,0.000,0.453,0.000,0.0000,0.0634,0.0000,1.0000,0.5000,1.0000,0.0000
7.204,Upwind,16.359,0.000,16.359,0.000,3.693,3.693,18.660,0.002,0.000,0.453,0.000,0.0000,0.0633,0.0000,1.0000,0.5000,1.0000,0.0000
7.405,Upwind,18.366,0.000,18.366,0.000,3.693,3.693,20.044,0.002,0.000,0.452,0.000,0.0000,0.0633,0.0000,1.0000,0.5000,1.0000,0.0000
7.600,Upwind,20.505,0.000,20.505,0.000,3.693,3.693,21.320,0.002,0.000,0.452,0.000,0.0000,0.0632,0.0000,1.0000,0.5000,1.0000,0.0000
7.806,Upwind,22.776,0.000,22.776,0.000,3.694,3.694,22.595,0.002,0.000,0.451,0.000,0.0000,0.0631,0.0000,1.0000,0.5000,1.0000,0.0000
8.010,Upwind,25.383,0.000,25.383,0.000,3.694,3.694,23.869,0.002,0.000,0.451,0.000,0.0000,0.0630,0.0000,1.0000,0.5000,1.0000,0.0000
8.209,Upwind,27.709,0.000,27.709,0.000,3.695,3.695,25.141,0.002,0.000,0.450,0.000,0.0000,0.0629,0.0000,1.0000,0.5000,1.0000,0.0000
8.416,Upwind,30.600,0.000,30.600,0.000,3.695,3.695,26.412,0.003,0.000,0.449,0.000,0.0000,0.0628,0.0000,1.0000,0.5000,1.0000,0.0000
8.593,Upwind,33.166,0.000,33.166,0.000,3.696,3.696,27.577,0.003,0.000,0.449,0.000,0.0000,0.0627,0.0000,1.0000,0.5000,1.0000,0.0000
8.798,Upwind,36.091,0.000,36.091,0.000,3.696,3.696,28.951,0.003,0.000,0.448,0.000,0.0000,0.0626,0.0000,1.0000,0.5000,1.0000,0.0000
9.006,Upwind,39.146,0.000,39.146,0.000,3.697,3.697,30.218,0.003,0.000,0.447,0.000,0.0000,0.0625,0.0000,1.0000,0.5000,1.0000,0.0000
9.204,Upwind,42.331,0.000,42.331,0.000,3.698,3.698,31.484,0.003,0.000,0.446,0.000,0.0000,0.0624,0.0000,1.0000,0.5000,1.0000,0.0000
9.397,Upwind,45.646,0.001,45.646,0.001,3.698,3.698,32.644,0.004,0.000,0.445,0.000,0.0000,0.0623,0.0000,1.0000,0.5000,1.0000,0.0000
9.602,Upwind,49.092,0.001,49.092,0.001,3.699,3.699,34.012,0.004,0.000,0.444,0.000,0.0000,0.0621,0.0000,1.0000,0.5000,1.0000,0.0000
9.807,Upwind,52.667,0.001,52.667,0.001,3.700,3.700,35.274,0.004,0.000,0.443,0.000,0.0000,0.0620,0.0000,1.0000,0.5000,1.0000,0.0000
10.007,Upwind,56.372,0.001,56.372,0.001,3.701,3.701,36.534,0.004,0.000,0.442,0.000,0.0000,0.0618,0.0000,1.0000,0.5000,1.0000,0.0000
10.204,Upwind,60.207,0.001,60.207,0.001,3.701,3.701,37.792,0.005,0.000,0.441,0.000,0.0000,0.0616,0.0000,1.0000,0.5000,1.0000,0.0000
10.390,Upwind,63.836,0.001,63.836,0.001,3.702,3.702,38.945,0.005,0.000,0.440,0.000,0.0000,0.0615,0.0000,1.0000,0.5000,1.0000,0.0000
10.596,Upwind,68.264,0.001,68.264,0.001,3.703,3.703,40.200,0.005,0.000,0.439,0.000,0.0000,0.0613,0.0000,1.0000,0.5000,1.0000,0.0000
10.799,Upwind,72.487,0.001,72.487,0.001,3.704,3.704,41.559,0.005,0.000,0.437,0.000,0.0000,0.0611,0.0000,1.0000,0.5000,1.0000,0.0000
11.003,Upwind,76.838,0.001,76.838,0.001,3.705,3.705,42.811,0.006,0.000,0.436,0.000,0.0000,0.0609,0.0000,1.0000,0.5000,1.0000,0.0000
11.202,Upwind,81.318,0.001,81.318,0.001,3.707,3.707,44.061,0.006,0.000,0.434,0.000,0.0000,0.0607,0.0000,1.0000,0.5000,1.0000,0.0000
11.392,Upwind,85.538,0.001,85.538,0.001,3.708,3.708,45.206,0.006,0.000,0.433,0.000,0.0000,0.0605,0.0000,1.0000,0.5000,1.0000,0.0000
11.590,Upwind,90.264,0.002,90.264,0.002,3.709,3.709,46.453,0.006,0.000,0.431,0.000,-0.0001,0.0602,0.0000,1.0000,0.5000,1.0000,0.0000
11.797,Upwind,95.529,0.002,95.529,0.002,3.710,3.710,47.802,0.007,0.000,0.430,0.000,-0.0001,0.0600,0.0000,1.0000,0.5000,1.0000,0.0000
12.004,Upwind,100.522,0.002,100.522,0.002,3.712,3.712,49.045,0.007,0.000,0.428,0.000,-0.0001,0.0597,0.0000,1.0000,0.5000,1.0000,0.0000
12.197,Upwind,105.643,0.002,105.643,0.002,3.713,3.713,50.183,0.007,0.001,0.426,0.000,-0.0001,0.0595,0.0000,1.0000,0.5000,1.0000,0.0000
12.408,Upwind,110.891,0.002,110.891,0.002,3.714,3.714,51.526,0.007,0.001,0.424,0.000,-0.0001,0.0592,0.0000,1.0000,0.5000,1.0000,0.0000
12.603,Upwind,116.267,0.002,116.267,0.002,3.716,3.716,52.763,0.008,0.001,0.422,0.000,-0.0001,0.0589,0.0000,1.0000,0.5000,1.0000,0.0000
12.809,Upwind,121.770,0.003,121.770,0.003,3.718,3.718,53.998,0.009,0.001,0.420,0.000,-0.0001,0.0586,0.0000,1.0000,0.5000,1.0000,0.0000
12.996,Upwind,127.400,0.003,127.400,0.003,3.719,3.719,55.231,0.009,0.001,0.418,0.000,-0.0001,0.0583,0.0000,1.0000,0.5000,1.0000,0.0000
13.206,Upwind,133.157,0.003,133.157,0.003,3.721,3.721,56.462,0.010,0.001,0.415,0.000,-0.0001,0.0579,0.0000,1.0000,0.5000,1.0000,0.0000
13.407,Upwind,139.040,0.003,139.040,0.003,3.723,3.723,57.690,0.010,0.001,0.413,0.000,-0.0001,0.0575,0.0000,1.0000,0.5000,1.0000,0.0000
13.590,Upwind,144.544,0.004,144.544,0.004,3.725,3.725,58.814,0.010,0.001,0.410,0.000,-0.0001,0.0572,0.0000,1.0000,0.5000,1.0000,0.0000
13.800,Upwind,151.185,0.004,151.185,0.004,3.727,3.727,60.140,0.011,0.001,0.408,0.000,-0.0001,0.0568,0.0000,1.0000,0.5000,1.0000,0.0000
14.003,Upwind,157.447,0.004,157.447,0.004,3.730,3.730,61.361,0.011,0.001,0.405,0.000,-0.0001,0.0564,0.0000,1.0000,0.5000,1.0000,0.0000
14.192,Upwind,163.296,0.005,163.296,0.005,3.732,3.732,62.478,0.012,0.001,0.402,0.000,-0.0002,0.0560,0.0000,1.0000,0.5000,1.0000,0.0000
14.395,Upwind,170.345,0.005,170.345,0.005,3.734,3.734,63.694,0.012,0.001,0.399,0.000,-0.0002,0.0556,0.0000,1.0000,0.5000,1.0000,0.0000
14.605,Upwind,176.982,0.005,176.982,0.005,3.736,3.737,65.009,0.011,0.001,0.396,0.000,-0.0002,0.0551,0.0000,1.0000,0.5000,1.0000,0.0000
14.797,Upwind,183.744,0.006,183.744,0.006,3.738,3.738,66.119,0.009,0.001,0.393,0.000,-0.0002,0.0548,0.0000,1.0000,0.5000,1.0000,0.0000
15.003,Upwind,190.630,0.006,190.630,0.006,3.740,3.740,67.429,0.009,0.002,0.391,0.000,-0.0002,0.0545,0.0000,1.0000,0.5000,1.0000,0.0000
15.191,Upwind,197.052,0.007,197.052,0.007,3.742,3.742,68.536,0.009,0.002,0.389,0.000,-0.0002,0.0542,0.0000,1.0000,0.5000,1.0000,0.0000
15.393,Upwind,204.775,0.007,204.775,0.007,3.744,3.744,69.740,0.009,0.002,0.387,0.000,-0.0002,0.0539,0.0000,1.0000,0.5000,1.0000,0.0000
15.599,Upwind,212.034,0.008,212.034,0.008,3.746,3.746,71.043,0.009,0.002,0.384,0.000,-0.0002,0.0535,0.0000,1.0000,0.5000,1.0000,0.0000
15.799,Upwind,219.416,0.008,219.416,0.008,3.747,3.747,72.143,0.010,0.002,0.382,0.000,-0.0003,0.0532,0.0000,1.0000,0.5000,1.0000,0.0000
15.990,Upwind,226.291,0.009,226.291,0.009,3.749,3.749,73.341,0.010,0.002,0.379,0.000,-0.0003,0.0528,0.0000,1.0000,0.5000,1.0000,0.0000
16.192,Upwind,233.909,0.009,233.909,0.009,3.751,3.751,74.537,0.010,0.002,0.377,0.000,-0.0003,0.0525,0.0000,1.0000,0.5000,1.0000,0.0000
16.406,Upwind,242.300,0.010,242.300,0.010,3.753,3.753,75.829,0.010,0.003,0.374,0.000,-0.0003,0.0521,0.0000,1.0000,0.5000,1.0000,0.0000
16.602,Upwind,250.174,0.011,250.174,0.011,3.755,3.755,77.020,0.010,0.003,0.371,0.000,-0.0003,0.0517,0.0000,1.0000,0.5000,1.0000,0.0000
16.809,Upwind,258.170,0.011,258.170,0.011,3.757,3.757,78.208,0.010,0.003,0.369,0.000,-0.0004,0.0514,0.0000,1.0000,0.5000,1.0000,0.0000
17.005,Upwind,266.289,0.012,266.289,0.012,3.759,3.759,79.394,0.010,0.003,0.366,0.000,-0.0004,0.0510,0.0000,1.0000,0.5000,1.0000,0.0000
17.205,Upwind,274.529,0.013,274.529,0.013,3.761,3.761,80.577,0.011,0.003,0.364,0.000,-0.0004,0.0506,0.0000,1.0000,0.5000,1.0000,0.0000
17.397,Upwind,282.891,0.014,282.891,0.014,3.763,3.763,81.660,0.011,0.003,0.361,0.000,-0.0004,0.0503,0.0000,1.0000,0.5000,1.0000,0.0000
17.603,Upwind,291.374,0.014,291.374,0.014,3.766,3.766,82.937,0.011,0.004,0.358,0.000,-0.0004,0.0499,0.0000,1.0000,0.5000,1.0000,0.0000
17.788,Upwind,299.256,0.015,299.256,0.015,3.768,3.768,84.015,0.011,0.004,0.356,0.000,-0.0005,0.0495,0.0000,1.0000,0.5000,1.0000,0.0000
17.995,Upwind,308.703,0.016,308.703,0.016,3.770,3.770,85.286,0.011,0.004,0.353,0.000,-0.0005,0.0491,0.0000,1.0000,0.5000,1.0000,0.0000
18.205,Upwind,317.549,0.017,317.549,0.017,3.772,3.772,86.457,0.011,0.004,0.350,0.000,-0.0005,0.0487,0.0000,1.0000,0.5000,1.0000,0.0000
18.394,Upwind,326.515,0.018,326.515,0.018,3.774,3.774,87.528,0.011,0.005,0.347,0.000,-0.0005,0.0483,0.0000,1.0000,0.5000,1.0000,0.0000
18.603,Upwind,335.601,0.019,335.601,0.019,3.777,3.777,88.791,0.011,0.005,0.344,0.000,-0.0006,0.0479,0.0000,1.0000,0.5000,1.0000,0.0000
18.792,Upwind,344.035,0.021,344.035,0.021,3.779,3.779,89.857,0.011,0.005,0.341,0.000,-0.0006,0.0475,0.0000,1.0000,0.5000,1.0000,0.0000
18.993,Upwind,354.132,0.022,354.132,0.022,3.781,3.781,91.018,0.012,0.005,0.339,0.000,-0.0006,0.0471,0.0000,1.0000,0.5000,1.0000,0.0000
19.191,Upwind,362.785,0.023,362.785,0.023,3.783,3.783,92.176,0.012,0.006,0.336,0.000,-0.0007,0.0467,0.0000,1.0000,0.5000,1.0000,0.0000
19.397,Upwind,373.140,0.025,373.140,0.025,3.786,3.786,93.332,0.012,0.006,0.333,0.000,-0.0007,0.0463,0.0000,1.0000,0.5000,1.0000,0.0000
19.593,Upwind,382.823,0.026,382.823,0.026,3.788,3.788,94.485,0.012,0.006,0.330,0.000,-0.0007,0.0458,0.0000,1.0000,0.5000,1.0000,0.0000
19.797,Upwind,392.624,0.027,392.624,0.027,3.790,3.790,95.635,0.012,0.006,0.327,0.000,-0.0008,0.0454,0.0000,1.0000,0.5000,1.0000,0.0000
20.020,Upwind,403.375,0.029,403.375,0.029,3.792,3.792,96.592,0.012,0.007,0.324,0.000,-0.0008,0.0451,0.0000,1.0000,0.5000,1.0000,0.0000
20.191,Upwind,411.739,0.031,411.739,0.031,3.795,3.795,97.928,0.012,0.007,0.320,0.000,-0.0008,0.0446,0.0000,1.0000,0.5000,1.0000,0.0000
20.395,Upwind,422.734,0.032,422.734,0.032,3.798,3.798,99.165,0.012,0.007,0.317,0.000,-0.0009,0.0441,0.0000,1.0000,0.5000,1.0000,0.0000
20.599,Upwind,433.006,0.034,433.006,0.034,3.800,3.800,100.304,0.012,0.008,0.314,0.000,-0.0009,0.0436,0.0000,1.0000,0.5000,1.0000,0.0000
20.797,Upwind,443.395,0.036,443.395,0.036,3.803,3.803,101.440,0.013,0.008,0.311,0.000,-0.0010,0.0432,0.0000,1.0000,0.5000,1.0000,0.0000
20.998,Upwind,453.901,0.038,453.901,0.038,3.805,3.805,102.574,0.013,0.008,0.308,0.000,-0.0010,0.0428,0.0000,1.0000,0.5000,1.0000,0.0000
21.192,Upwind,463.633,0.040,463.633,0.040,3.808,3.808,103.611,0.013,0.009,0.305,0.000,-0.0010,0.0423,0.0000,1.0000,0.5000,1.0000,0.0000
21.409,Upwind,475.261,0.042,475.261,0.042,3.810,3.810,104.833,0.013,0.009,0.301,0.000,-0.0011,0.0419,0.0000,1.0000,0.5000,1.0000,0.0000
21.606,Upwind,486.115,0.044,486.115,0.044,3.813,3.813,105.958,0.013,0.009,0.298,0.000,-0.0011,0.0414,0.0000,1.0000,0.5000,1.0000,0.0000
21.789,Upwind,496.167,0.047,496.167,0.047,3.815,3.815,106.987,0.013,0.010,0.295,0.000,-0.0012,0.0410,0.0000,1.0000,0.5000,1.0000,0.0000
21.990,Upwind,507.242,0.049,507.242,0.049,3.818,3.818,108.107,0.013,0.010,0.292,0.000,-0.0012,0.0405,0.0000,1.0000,0.5000,1.0000,0.0000
22.192,Upwind,518.433,0.051,518.433,0.051,3.820,3.820,109.224,0.013,0.011,0.288,0.000,-0.0013,0.0401,0.0000,1.0000,0.5000,1.0000,0.0000
22.393,Upwind,530.685,0.054,530.685,0.054,3.823,3.823,110.431,0.013,0.011,0.285,0.000,-0.0013,0.0396,0.0000,1.0000,0.5000,1.0000,0.0000
22.598,Upwind,542.115,0.057,542.115,0.057,3.826,3.826,111.542,0.013,0.011,0.282,0.000,-0.0014,0.0391,0.0000,1.0000,0.5000,1.0000,0.0000
22.795,Upwind,553.658,0.060,553.658,0.060,3.829,3.829,112.650,0.013,0.012,0.278,-0.001,-0.0014,0.0386,0.0000,1.0000,0.5000,1.0000,0.0000
22.992,Upwind,564.340,0.063,564.340,0.063,3.831,3.831,113.663,0.014,0.012,0.275,-0.001,-0.0015,0.0382,0.0000,1.0000,0.5000,1.0000,0.0000
23.198,Upwind,577.086,0.066,577.086,0.066,3.834,3.834,114.857,0.014,0.013,0.271,-0.001,-0.0015,0.0377,0.0000,1.0000,0.5000,1.0000,0.0000
23.397,Upwind,588.971,0.069,588.971,0.069,3.836,3.836,115.865,0.014,0.013,0.268,-0.001,-0.0016,0.0372,0.0000,1.0000,0.5000,1.0000,0.0000
23.599,Upwind,600.968,0.072,600.968,0.072,3.839,3.839,117.053,0.014,0.014,0.265,-0.001,-0.0017,0.0367,0.0000,1.0000,0.5000,1.0000,0.0000
23.794,Upwind,613.077,0.076,613.077,0.076,3.842,3.842,118.146,0.014,0.014,0.261,-0.001,-0.0017,0.0362,0.0000,1.0000,0.5000,1.0000,0.0000
23.993,Upwind,625.299,0.080,625.299,0.080,3.845,3.845,119.237,0.014,0.014,0.258,-0.001,-0.0018,0.0357,0.0000,1.0000,0.5000,1.0000,0.0000
24.196,Upwind,637.633,0.083,637.633,0.083,3.848,3.848,120.324,0.014,0.015,0.254,-0.001,-0.0018,0.0352,0.0000,1.0000,0.5000,1.0000,0.0000
24.390,Upwind,649.038,0.087,649.038,0.087,3.850,3.850,121.318,0.014,0.015,0.251,-0.001,-0.0019,0.0348,0.0000,1.0000,0.5000,1.0000,0.0000
24.596,Upwind,662.636,0.091,662.636,0.091,3.853,3.853,122.490,0.014,0.016,0.247,-0.001,-0.0020,0.0343,0.0000,1.0000,0.5000,1.0000,0.0000
24.800,Upwind,675.305,0.095,675.305,0.095,3.856,3.856,123.569,0.014,0.016,0.244,-0.001,-0.0020,0.0338,0.0000,1.0000,0.5000,1.0000,0.0000
24.992,Upwind,687.014,0.099,687.014,0.099,3.859,3.859,124.554,0.014,0.017,0.240,-0.001,-0.0021,0.0333,0.0000,1.0000,0.5000,1.0000,0.0000
25.195,Upwind,700.973,0.104,700.973,0.104,3.862,3.862,125.716,0.014,0.017,0.237,-0.001,-0.0022,0.0328,0.0000,1.0000,0.5000,1.0000,0.0000
25.389,Upwind,712.885,0.108,712.885,0.108,3.865,3.865,126.786,0.014,0.018,0.233,-0.001,-0.0022,0.0323,0.0000,1.0000,0.5000,1.0000,0.0000
25.601,Upwind,727.082,0.113,727.082,0.113,3.868,3.868,127.852,0.015,0.018,0.229,-0.001,-0.0023,0.0318,0.0000,1.0000,0.5000,1.0000,0.0000
25.792,Upwind,739.195,0.118,739.195,0.118,3.870,3.870,128.915,0.015,0.019,0.226,-0.001,-0.0024,0.0312,0.0000,1.0000,0.5000,1.0000,0.0000
25.991,Upwind,752.514,0.123,752.514,0.123,3.873,3.873,129.887,0.015,0.019,0.222,-0.002,-0.0025,0.0308,0.0000,1.0000,0.5000,1.0000,0.0000
26.192,Upwind,765.942,0.128,765.942,0.128,3.876,3.876,131.032,0.015,0.020,0.219,-0.002,-0.0025,0.0302,0.0000,1.0000,0.5000,1.0000,0.0000
26.394,Upwind,780.612,0.134,780.612,0.134,3.879,3.879,132.086,0.015,0.020,0.215,-0.002,-0.0026,0.0297,0.0000,1.0000,0.5000,1.0000,0.0000
26.604,Upwind,794.266,0.139,794.266,0.139,3.882,3.882,133.137,0.015,0.021,0.211,-0.002,-0.0027,0.0292,0.0000,1.0000,0.5000,1.0000,0.0000
26.792,Upwind,806.877,0.145,806.877,0.145,3.885,3.885,134.185,0.015,0.022,0.208,-0.002,-0.0028,0.0287,0.0000,1.0000,0.5000,1.0000,0.0000
27.001,Upwind,821.898,0.151,821.898,0.151,3.888,3.888,135.231,0.015,0.022,0.204,-0.002,-0.0028,0.0282,0.0000,1.0000,0.5000,1.0000,0.0000
27.190,Upwind,834.706,0.157,834.706,0.157,3.891,3.891,136.187,0.015,0.023,0.200,-0.002,-0.0029,0.0277,0.0000,1.0000,0.5000,1.0000,0.0000
27.391,Upwind,848.781,0.163,848.781,0.163,3.894,3.894,137.228,0.015,0.023,0.197,-0.002,-0.0030,0.0272,0.0000,1.0000,0.5000,1.0000,0.0000
27.589,Upwind,862.963,0.169,862.963,0.169,3.897,3.897,138.266,0.015,0.024,0.193,-0.002,-0.0031,0.0267,0.0000,1.0000,0.5000,1.0000,0.0000
27.797,Upwind,878.448,0.177,878.448,0.177,3.900,3.900,139.387,0.015,0.024,0.189,-0.002,-0.0032,0.0261,0.0000,1.0000,0.5000,1.0000,0.0000
27.997,Upwind,892.852,0.183,892.852,0.183,3.903,3.903,140.420,0.015,0.025,0.185,-0.003,-0.0033,0.0256,0.0000,1.0000,0.5000,1.0000,0.0000
28.193,Upwind,906.149,0.190,906.149,0.190,3.906,3.906,141.449,0.015,0.026,0.182,-0.003,-0.0033,0.0250,0.0000,1.0000,0.5000,1.0000,0.0000
28.404,Upwind,921.978,0.198,921.978,0.198,3.909,3.909,142.476,0.015,0.026,0.178,-0.003,-0.0034,0.0245,0.0000,1.0000,0.5000,1.0000,0.0000
28.601,Upwind,936.699,0.205,936.699,0.205,3.912,3.912,143.501,0.015,0.027,0.174,-0.003,-0.0035,0.0240,0.0000,1.0000,0.5000,1.0000,0.0000
28.795,Upwind,951.526,0.213,951.526,0.213,3.915,3.915,144.522,0.015,0.027,0.170,-0.003,-0.0036,0.0235,0.0000,1.0000,0.5000,1.0000,0.0000
29.008,Upwind,966.458,0.221,966.458,0.221,3.918,3.918,145.541,0.016,0.028,0.166,-0.003,-0.0037,0.0229,0.0000,1.0000,0.5000,1.0000,0.0000
29.199,Upwind,981.494,0.229,981.494,0.229,3.921,3.921,146.557,0.016,0.028,0.163,-0.003,-0.0038,0.0224,0.0000,1.0000,0.5000,1.0000,0.0000
29.395,Upwind,996.635,0.237,996.635,0.237,3.925,3.925,147.571,0.016,0.029,0.159,-0.003,-0.0039,0.0219,0.0000,1.0000,0.5000,1.0000,0.0000
29.601,Upwind,1011.880,0.246,1011.880,0.246,3.928,3.928,148.581,0.016,0.030,0.155,-0.004,-0.0040,0.0213,0.0000,1.0000,0.5000,1.0000,0.0000
29.794,Upwind,1027.228,0.254,1027.228,0.254,3.931,3.931,149.505,0.016,0.030,0.152,-0.004,-0.0041,0.0208,0.0000,1.0000,0.5000,1.0000,0.0000
29.999,Upwind,1042.680,0.263,1042.680,0.263,3.934,3.934,150.594,0.013,0.031,0.148,-0.004,-0.0042,-0.0372,0.0000,1.0000,0.5000,1.0000,0.0000
30.198,Upwind,1058.236,0.272,1058.236,0.272,3.935,3.935,151.594,0.001,0.031,0.156,-0.004,-0.0043,-0.1270,0.0000,1.0000,0.5000,1.0000,0.0000
30.390,Upwind,1072.585,0.281,1072.585,0.281,3.934,3.934,152.504,-0.008,0.032,0.173,-0.004,-0.0044,-0.2135,0.0000,1.0000,0.5000,1.0000,0.0000
30.594,Upwind,1089.653,0.291,1089.653,0.291,3.933,3.933,153.570,-0.005,0.033,0.193,-0.004,-0.0045,-0.3054,0.0000,1.0000,0.5000,1.0000,0.0000
30.795,Upwind,1105.513,0.301,1105.513,0.301,3.932,3.932,154.546,-0.002,0.033,0.209,-0.004,-0.0046,-0.3954,0.0000,1.0000,0.5000,1.0000,0.0000
30.993,Upwind,1121.473,0.311,1121.473,0.311,3.932,3.932,155.432,0.009,0.034,0.228,-0.005,-0.0047,-0.4848,0.0000,1.0000,0.5000,1.0000,0.0000
31.194,Upwind,1137.532,0.322,1137.532,0.322,3.937,3.937,156.470,0.039,0.035,0.296,-0.005,-0.0048,-0.5752,0.0000,1.0000,0.5000,1.0000,0.0000
31.393,Upwind,1153.688,0.332,1153.688,0.332,3.949,3.949,157.418,0.083,0.036,0.453,-0.005,-0.0049,-0.6500,0.0000,1.0000,0.5000,1.0000,0.0000
31.591,Upwind,1168.584,0.342,1168.584,0.342,3.970,3.970,158.280,0.142,0.036,0.707,-0.005,-0.0051,-0.6500,0.0000,1.0000,0.5000,1.0000,0.0000
31.798,Upwind,1186.293,0.354,1186.293,0.354,4.008,4.008,159.291,0.208,0.037,1.141,-0.005,-0.0052,-0.6500,0.0000,1.0000,0.5000,1.0000,0.0000
31.990,Upwind,1201.364,0.365,1201.364,0.365,4.050,4.050,160.139,0.256,0.038,1.612,-0.005,-0.0053,-0.6500,0.0000,1.0000,0.5000,1.0000,0.0000
32.201,Upwind,1219.279,0.377,1219.279,0.377,4.111,4.111,161.131,0.306,0.039,2.281,-0.006,-0.0054,-0.6500,0.0000,1.0000,0.5000,1.0000,0.0000
32.396,Upwind,1235.912,0.389,1235.912,0.389,4.176,4.176,162.034,0.346,0.039,2.998,-0.006,-0.0056,-0.6500,0.0000,1.0000,0.5000,1.0000,0.0000
32.588,Upwind,1251.241,0.400,1251.241,0.400,4.243,4.243,162.850,0.383,0.040,3.728,-0.006,-0.0056,-0.6500,0.0000,1.0000,0.5000,1.0000,0.0000
32.802,Upwind,1269.454,0.414,1269.454,0.414,4.360,4.360,163.791,0.802,0.041,4.663,-0.011,-0.0052,-0.6500,0.0000,1.0000,0.5000,1.0000,0.0000
32.989,Upwind,1284.946,0.425,1284.946,0.425,4.576,4.576,164.559,1.622,0.042,5.481,-0.019,-0.0047,-0.6500,0.0000,1.0000,0.5000,1.0000,0.0000
33.193,Upwind,1303.345,0.439,1303.345,0.439,5.077,5.077,165.424,3.081,0.042,6.444,-0.033,-0.0041,-0.6500,0.0000,1.0000,0.5000,1.0000,0.0000
33.398,Upwind,1320.410,0.452,1320.410,0.452,5.862,5.862,166.179,4.823,0.042,7.303,-0.047,-0.0035,-0.6500,0.0000,1.0000,0.5000,1.0000,0.0000
33.600,Upwind,1337.549,0.465,1337.549,0.465,7.026,7.026,166.886,6.861,0.042,8.117,-0.063,-0.0030,-0.6500,0.0000,1.0000,0.5000,1.0000,0.0000
33.794,Upwind,1354.754,0.477,1354.754,0.477,8.620,8.620,167.544,9.105,0.041,8.877,-0.078,-0.0024,-0.6500,0.0000,1.0000,0.5000,1.0000,0.0000
33.993,Upwind,1370.579,0.489,1370.579,0.489,10.676,10.676,168.151,11.479,0.040,9.582,-0.092,-0.0018,-0.6500,0.0000,1.0000,0.5000,1.0000,0.0000
34.190,Upwind,1387.895,0.501,1387.895,0.501,12.760,12.760,168.617,13.541,0.038,10.128,-0.103,-0.0014,-0.6500,0.0000,1.0000,0.5000,1.0000,0.0000
34.390,Upwind,1405.258,0.512,1405.258,0.512,15.991,15.991,169.171,16.286,0.036,10.786,-0.114,-0.0009,-0.6500,0.0000,1.0000,0.5000,1.0000,0.0000
34.592,Upwind,1422.663,0.523,1422.663,0.523,19.820,19.820,169.669,19.062,0.032,11.391,-0.124,-0.0004,-0.6198,0.0000,1.0000,0.5000,1.0000,0.0000
34.790,Upwind,1440.103,0.533,1440.103,0.533,23.529,23.529,170.049,21.400,0.029,11.858,-0.129,0.0000,-0.5900,0.0001,1.0000,0.5000,1.0000,0.0000
34.991,Upwind,1457.573,0.542,1457.573,0.542,28.061,28.061,170.424,23.914,0.024,12.311,-0.133,0.0004,-0.5599,0.0001,1.0000,0.5000,1.0000,0.0000
35.193,Upwind,1475.069,0.550,1475.069,0.550,33.531,33.532,170.789,26.564,0.019,12.731,-0.135,0.0008,-0.5297,0.0001,1.0000,0.5000,1.0000,0.0000
35.392,Upwind,1492.585,0.557,1492.585,0.557,39.082,39.082,171.091,28.925,0.015,13.050,-0.135,0.0011,-0.4997,0.0001,1.0000,0.5000,1.0000,0.0000
35.598,Upwind,1511.579,0.564,1511.579,0.564,45.095,45.095,171.363,31.189,0.010,13.302,-0.133,0.0014,-0.4689,0.0001,1.0000,0.5000,1.0000,0.0000
35.791,Upwind,1527.664,0.569,1527.664,0.569,50.995,50.995,171.589,33.161,0.006,13.476,-0.130,0.0016,-0.4400,0.0001,1.0000,0.5000,1.0000,0.0000
35.999,Upwind,1546.686,0.574,1546.686,0.574,58.420,58.420,171.834,35.344,0.001,13.614,-0.125,0.0018,-0.4088,0.0001,1.0000,0.5000,1.0000,0.0000
36.196,Upwind,1564.255,0.578,1564.255,0.578,65.677,65.677,172.041,37.200,359.998,13.679,-0.120,0.0018,-0.3792,0.0001,1.0000,0.5000,1.0000,0.0000
36.392,Upwind,1580.367,0.581,1580.367,0.581,73.289,73.290,172.234,38.900,359.994,13.688,-0.113,0.0019,-0.3497,0.0001,1.0000,0.5000,1.0000,0.0000
36.590,Upwind,1597.952,0.584,1597.952,0.584,80.552,80.553,172.404,40.306,359.992,13.650,-0.107,0.0018,-0.3201,0.0001,1.0000,0.5000,1.0000,0.0000
36.795,Upwind,1617.013,0.585,1617.013,0.585,89.448,89.448,172.600,41.775,359.990,13.551,-0.100,0.0017,-0.2894,0.0000,1.0000,0.5000,1.0000,0.0000
36.995,Upwind,1634.618,0.586,1634.618,0.586,97.923,97.923,172.777,42.943,359.989,13.411,-0.093,0.0016,-0.2594,0.0000,1.0000,0.5000,1.0000,0.0000
37.191,Upwind,1650.765,0.587,1650.765,0.587,105.881,105.882,172.940,43.849,359.988,13.244,-0.086,0.0014,-0.2300,0.0000,0.9991,0.5000,1.0000,0.0000
37.388,Upwind,1668.392,0.587,1668.392,0.587,114.735,114.736,173.114,44.660,359.988,13.023,-0.080,0.0012,-0.2384,0.0000,0.9966,0.5000,1.0000,0.0000
37.588,Upwind,1686.033,0.587,1686.033,0.587,123.731,123.731,173.283,45.262,359.988,12.778,-0.073,0.0010,-0.2914,0.0000,0.9942,0.5000,1.0000,0.0000
37.803,Upwind,1705.161,0.586,1705.161,0.586,133.588,133.589,173.461,45.695,359.989,12.545,-0.067,0.0007,-0.3371,0.0000,0.9917,0.5000,1.0000,0.0000
37.992,Upwind,1721.360,0.585,1721.360,0.585,142.754,142.755,173.620,45.948,359.989,12.398,-0.062,0.0005,-0.3625,0.0000,0.9895,0.5000,1.0000,0.0000
38.195,Upwind,1740.524,0.584,1740.524,0.584,151.962,151.963,173.774,46.124,359.990,12.334,-0.058,0.0003,-0.3677,0.0000,0.9873,0.5000,1.0000,0.0000
38.395,Upwind,1758.231,0.582,1758.231,0.582,161.203,161.203,173.922,46.282,359.991,12.351,-0.054,0.0001,-0.3573,0.0000,0.9852,0.5000,1.0000,0.0000
38.599,Upwind,1775.953,0.581,1775.953,0.581,170.477,170.478,174.062,46.470,359.992,12.430,-0.051,0.0000,-0.3351,0.0000,0.9833,0.5000,1.0000,0.0000
38.792,Upwind,1792.212,0.579,1792.212,0.579,179.016,179.017,174.182,46.691,359.992,12.537,-0.049,-0.0001,-0.3097,0.0000,0.9816,0.5000,1.0000,0.0000
38.999,Upwind,1811.440,0.577,1811.440,0.577,189.167,189.168,174.315,47.023,359.992,12.676,-0.047,-0.0002,-0.2796,0.0000,0.9797,0.5000,1.0000,0.0000
39.203,Upwind,1829.201,0.575,1829.201,0.575,198.607,198.608,174.427,47.388,359.993,12.791,-0.046,-0.0002,-0.2563,0.0000,0.9782,0.5000,1.0000,0.0000
39.398,Upwind,1846.971,0.573,1846.971,0.573,208.124,208.125,174.530,47.788,359.993,12.878,-0.045,-0.0003,-0.2408,0.0000,0.9767,0.5000,0.0000,0.0000
39.590,Upwind,1863.269,0.571,1863.269,0.571,216.920,216.921,174.620,48.164,359.993,12.924,-0.044,-0.0003,-0.2340,0.0000,0.9754,0.5000,0.0000,0.0000
39.795,Upwind,1882.539,0.569,1882.539,0.569,227.402,227.403,174.720,48.591,359.993,12.938,-0.044,-0.0002,-0.2343,0.0000,0.9740,0.5000,0.0000,0.0000
39.997,Upwind,1900.335,0.567,1900.335,0.567,237.157,237.158,174.809,48.949,359.993,12.920,-0.044,-0.0002,-0.2405,0.0000,0.9728,0.5000,0.0000,0.0000
40.190,Upwind,1916.655,0.565,1916.655,0.565,246.158,246.159,174.889,49.236,359.992,12.887,-0.044,-0.0002,-0.2489,0.0000,0.9717,0.5000,0.0000,0.0000
40.389,Upwind,1934.468,0.562,1934.468,0.562,256.032,256.033,174.973,49.499,359.992,12.844,-0.044,-0.0001,-0.2586,0.0000,0.9705,0.5000,0.0000,0.0000
40.601,Upwind,1953.774,0.559,1953.774,0.559,266.783,266.784,175.063,49.733,359.991,12.800,-0.044,-0.0001,-0.2672,0.0000,0.9692,0.5000,0.0000,0.0000
40.798,Upwind,1971.606,0.557,1971.606,0.557,276.748,276.749,175.144,49.911,359.991,12.772,-0.044,0.0000,-0.2721,0.0000,0.9681,0.5000,0.0000,0.0000
40.989,Upwind,1987.959,0.555,1987.959,0.555,285.911,285.913,175.218,50.053,359.990,12.759,-0.044,0.0001,-0.2735,0.0000,0.9671,0.5000,0.0000,0.0000
41.190,Upwind,2005.809,0.552,2005.809,0.552,296.773,296.775,175.303,50.209,359.990,12.761,-0.043,0.0001,-0.2717,0.0000,0.9659,0.5000,0.0000,0.0000
41.398,Upwind,2025.156,0.549,2025.156,0.549,306.829,306.830,175.380,50.351,359.989,12.775,-0.043,0.0002,-0.2675,0.0000,0.9648,0.5000,0.0000,0.0000
41.593,Upwind,2043.025,0.546,2043.025,0.546,316.072,316.074,175.449,50.485,359.989,12.796,-0.043,0.0002,-0.2626,0.0000,0.9638,0.5000,0.0000,0.0000
41.806,Upwind,2060.902,0.543,2060.902,0.543,327.029,327.030,175.529,50.652,359.988,12.822,-0.042,0.0002,-0.2568,0.0000,0.9627,0.5000,0.0000,0.0000
41.996,Upwind,2078.788,0.540,2078.788,0.540,337.175,337.177,175.601,50.814,359.988,12.845,-0.042,0.0002,-0.2522,0.0000,0.9617,0.5000,0.0000,0.0000
42.189,Upwind,2095.191,0.537,2095.191,0.537,346.505,346.506,175.665,50.964,359.988,12.861,-0.041,0.0003,-0.2492,0.0000,0.9608,0.5000,0.0000,0.0000
42.402,Upwind,2114.585,0.534,2114.585,0.534,357.566,357.568,175.739,51.141,359.987,12.873,-0.040,0.0002,-0.2474,0.0000,0.9598,0.5000,0.0000,0.0000
42.595,Upwind,2132.496,0.531,2132.496,0.531,367.810,367.812,175.806,51.298,359.987,12.876,-0.039,0.0002,-0.2473,0.0000,0.9588,0.5000,0.0000,0.0000
42.795,Upwind,2150.415,0.528,2150.415,0.528,378.084,378.086,175.871,51.445,359.987,12.874,-0.038,0.0002,-0.2483,0.0000,0.9579,0.5000,0.0000,0.0000
42.996,Upwind,2168.342,0.524,2168.342,0.524,388.387,388.389,175.936,51.581,359.987,12.867,-0.037,0.0002,-0.2499,0.0000,0.9570,0.5000,0.0000,0.0000
43.195,Upwind,2186.277,0.521,2186.277,0.521,398.716,398.718,176.001,51.705,359.987,12.860,-0.036,0.0002,-0.2517,0.0000,0.9561,0.5000,0.0000,0.0000
43.399,Upwind,2204.220,0.518,2204.220,0.518,409.068,409.070,176.064,51.817,359.987,12.852,-0.035,0.0002,-0.2532,0.0000,0.9552,0.5000,0.0000,0.0000
43.594,Upwind,2222.172,0.514,2222.172,0.514,419.442,419.444,176.127,51.921,359.987,12.847,-0.034,0.0001,-0.2541,0.0000,0.9543,0.5000,0.0000,0.0000
43.798,Upwind,2240.132,0.511,2240.132,0.511,429.836,429.838,176.190,52.017,359.987,12.844,-0.033,0.0001,-0.2545,0.0000,0.9534,0.5000,0.0000,0.0000
43.995,Upwind,2258.100,0.507,2258.100,0.507,440.249,440.251,176.252,52.110,359.987,12.844,-0.032,0.0001,-0.2542,0.0000,0.9526,0.5000,0.0000,0.0000
44.189,Upwind,2274.578,0.504,2274.578,0.504,449.810,449.812,176.308,52.192,359.987,12.846,-0.032,0.0001,-0.2536,0.0000,0.9518,0.5000,0.0000,0.0000
44.391,Upwind,2292.562,0.501,2292.562,0.501,461.128,461.131,176.374,52.289,359.987,12.850,-0.031,0.0001,-0.2527,0.0000,0.9508,0.5000,0.0000,0.0000
44.598,Upwind,2312.054,0.497,2312.054,0.497,471.595,471.597,176.432,52.377,359.987,12.854,-0.030,0.0001,-0.2516,0.0000,0.9500,0.5000,0.0000,0.0000
44.804,Upwind,2330.054,0.494,2330.054,0.494,482.079,482.081,176.486,52.464,359.988,12.859,-0.030,0.0000,-0.2506,0.0000,0.9493,0.5000,0.0000,0.0000
44.993,Upwind,2348.062,0.490,2348.062,0.490,492.580,492.583,176.538,52.551,359.988,12.864,-0.029,0.0000,-0.2496,0.0000,0.9485,0.5000,0.0000,0.0000
45.198,Upwind,2366.077,0.487,2366.077,0.487,503.099,503.101,176.587,52.636,359.988,12.868,-0.029,0.0000,-0.2488,0.0000,0.9479,0.5000,0.0000,0.0000
45.392,Upwind,2382.597,0.484,2382.597,0.484,513.634,513.637,176.634,52.719,359.988,12.871,-0.028,0.0000,-0.2481,0.0000,0.9472,0.5000,0.0000,0.0000
45.595,Upwind,2402.128,0.480,2402.128,0.480,524.186,524.189,176.678,52.800,359.988,12.874,-0.028,0.0000,-0.2476,0.0000,0.9466,0.5000,0.0000,0.0000
45.807,Upwind,2420.163,0.477,2420.163,0.477,534.754,534.757,176.720,52.878,359.988,12.876,-0.028,0.0000,-0.2472,0.0000,0.9460,0.5000,0.0000,0.0000
46.004,Upwind,2438.205,0.473,2438.205,0.473,545.337,545.340,176.759,52.953,359.988,12.877,-0.028,0.0000,-0.2469,0.0000,0.9454,0.5000,0.0000,0.0000
46.188,Upwind,2454.748,0.470,2454.748,0.470,555.052,555.054,176.793,53.020,359.988,12.878,-0.028,0.0001,-0.2467,0.0000,0.9450,0.5000,0.0000,0.0000
46.401,Upwind,2474.305,0.467,2474.305,0.467,566.547,566.550,176.831,53.095,359.988,12.880,-0.028,0.0001,-0.2463,0.0000,0.9444,0.5000,0.0000,0.0000
46.593,Upwind,2492.365,0.464,2492.365,0.464,577.173,577.176,176.865,53.161,359.988,12.881,-0.027,0.0000,-0.2460,0.0000,0.9440,0.5000,0.0000,0.0000
46.802,Upwind,2510.429,0.460,2510.429,0.460,587.812,587.814,176.896,53.225,359.988,12.883,-0.027,0.0001,-0.2457,0.0000,0.9435,0.5000,0.0000,0.0000
47.001,Upwind,2528.499,0.457,2528.499,0.457,598.463,598.466,176.926,53.287,359.988,12.885,-0.027,0.0001,-0.2452,0.0000,0.9431,0.5000,0.0000,0.0000
47.189,Upwind,2545.068,0.454,2545.068,0.454,608.237,608.240,176.952,53.342,359.989,12.886,-0.027,0.0000,-0.2448,0.0000,0.9428,0.5000,0.0000,0.0000
47.406,Upwind,2564.655,0.451,2564.655,0.451,619.801,619.804,176.980,53.404,359.989,12.889,-0.027,0.0000,-0.2443,0.0000,0.9423,0.5000,0.0000,0.0000
47.591,Upwind,2581.233,0.448,2581.233,0.448,629.597,629.600,177.003,53.455,359.989,12.891,-0.027,0.0000,-0.2439,0.0000,0.9420,0.5000,0.0000,0.0000
47.805,Upwind,2600.830,0.445,2600.830,0.445,641.185,641.188,177.028,53.514,359.989,12.893,-0.026,0.0000,-0.2434,0.0000,0.9417,0.5000,0.0000,0.0000
47.993,Upwind,2618.925,0.442,2618.925,0.442,651.893,651.896,177.050,53.566,359.989,12.895,-0.026,0.0001,-0.2430,0.0000,0.9414,0.5000,0.0000,0.0000
48.197,Upwind,2637.024,0.439,2637.024,0.439,662.611,662.614,177.070,53.617,359.989,12.896,-0.026,0.0001,-0.2427,0.0000,0.9411,0.5000,0.0000,0.0000
48.395,Upwind,2655.127,0.436,2655.127,0.436,673.340,673.343,177.089,53.666,359.989,12.898,-0.026,0.0000,-0.2424,0.0000,0.9408,0.5000,0.0000,0.0000
48.589,Upwind,2671.726,0.433,2671.726,0.433,683.182,683.185,177.106,53.709,359.989,12.899,-0.026,0.0000,-0.2421,0.0000,0.9406,0.5000,0.0000,0.0000
48.797,Upwind,2691.347,0.430,2691.347,0.430,694.824,694.828,177.124,53.757,359.989,12.900,-0.026,0.0000,-0.2418,0.0000,0.9403,0.5000,0.0000,0.0000
48.994,Upwind,2709.464,0.427,2709.464,0.427,705.580,705.583,177.139,53.800,359.990,12.901,-0.026,0.0000,-0.2416,0.0000,0.9401,0.5000,0.0000,0.0000
49.200,Upwind,2727.584,0.424,2727.584,0.424,716.344,716.348,177.154,53.842,359.990,12.902,-0.026,0.0000,-0.2414,0.0000,0.9399,0.5000,0.0000,0.0000
49.390,Upwind,2744.198,0.422,2744.198,0.422,727.117,727.120,177.167,53.881,359.990,12.903,-0.026,0.0000,-0.2412,0.0000,0.9397,0.5000,0.0000,0.0000
49.600,Upwind,2763.836,0.419,2763.836,0.419,737.897,737.900,177.180,53.919,359.990,12.904,-0.026,0.0000,-0.2409,0.0000,0.9396,0.5000,0.0000,0.0000
49.801,Upwind,2781.968,0.416,2781.968,0.416,748.684,748.688,177.191,53.955,359.990,12.906,-0.026,0.0000,-0.2407,0.0000,0.9394,0.5000,0.0000,0.0000
49.998,Upwind,2800.104,0.413,2800.104,0.413,759.479,759.482,177.202,53.990,359.990,12.907,-0.026,0.0000,-0.2405,0.0000,0.9392,0.5000,0.0000,0.0000
50.202,Upwind,2818.242,0.411,2818.242,0.411,770.280,770.284,177.212,54.024,359.990,12.908,-0.026,0.0000,-0.2402,0.0000,0.9391,0.5000,0.0000,0.0000
50.390,Upwind,2834.873,0.408,2834.873,0.408,780.187,780.191,177.220,54.054,359.990,12.909,-0.026,0.0000,-0.2401,0.0000,0.9390,0.5000,0.0000,0.0000
50.594,Upwind,2854.531,0.406,2854.531,0.406,791.902,791.906,177.229,54.087,359.991,12.910,-0.026,0.0000,-0.2398,0.0000,0.9389,0.5000,0.0000,0.0000
50.793,Upwind,2872.680,0.403,2872.680,0.403,802.723,802.727,177.236,54.117,359.991,12.910,-0.026,0.0000,-0.2396,0.0000,0.9388,0.5000,0.0000,0.0000
51.002,Upwind,2890.833,0.401,2890.833,0.401,813.549,813.553,177.243,54.146,359.991,12.911,-0.026,0.0000,-0.2395,0.0000,0.9387,0.5000,0.0000,0.0000
51.198,Upwind,2908.990,0.398,2908.990,0.398,824.381,824.385,177.249,54.173,359.991,12.912,-0.026,0.0000,-0.2393,0.0000,0.9386,0.5000,0.0000,0.0000
51.400,Upwind,2927.149,0.396,2927.149,0.396,835.218,835.222,177.254,54.200,359.991,12.913,-0.026,0.0000,-0.2392,0.0000,0.9385,0.5000,0.0000,0.0000
51.597,Upwind,2945.311,0.393,2945.311,0.393,846.061,846.065,177.259,54.225,359.991,12.913,-0.026,0.0000,-0.2390,0.0000,0.9384,0.5000,0.0000,0.0000
51.792,Upwind,2961.963,0.391,2961.963,0.391,856.908,856.912,177.263,54.249,359.991,12.914,-0.026,0.0000,-0.2389,0.0000,0.9384,0.5000,0.0000,0.0000
51.988,Upwind,2980.132,0.389,2980.132,0.389,866.856,866.860,177.266,54.270,359.991,12.914,-0.026,0.0000,-0.2388,0.0000,0.9383,0.5000,0.0000,0.0000
52.189,Upwind,2998.303,0.387,2998.303,0.387,877.712,877.716,177.270,54.292,359.992,12.915,-0.026,0.0000,-0.2387,0.0000,0.9383,0.5000,0.0000,0.0000
52.392,Upwind,3016.478,0.385,3016.478,0.385,889.478,889.482,177.272,54.315,359.992,12.915,-0.026,0.0000,-0.2386,0.0000,0.9383,0.5000,0.0000,0.0000
52.599,Upwind,3036.170,0.382,3036.170,0.382,900.343,900.347,177.275,54.335,359.992,12.916,-0.026,0.0000,-0.2385,0.0000,0.9382,0.5000,0.0000,0.0000
52.798,Upwind,3054.352,0.380,3054.352,0.380,911.212,911.216,177.276,54.355,359.992,12.916,-0.026,0.0000,-0.2383,0.0000,0.9382,0.5000,0.0000,0.0000
52.999,Upwind,3072.533,0.378,3072.533,0.378,922.084,922.089,177.277,54.373,359.992,12.917,-0.026,0.0001,-0.2383,0.0000,0.9382,0.5000,0.0000,0.0000
53.200,Upwind,3090.721,0.376,3090.721,0.376,932.961,932.965,177.278,54.391,359.992,12.917,-0.026,0.0000,-0.2382,0.0000,0.9382,0.5000,0.0000,0.0000
53.401,Upwind,3108.911,0.374,3108.911,0.374,943.841,943.845,177.279,54.408,359.992,12.918,-0.026,0.0000,-0.2381,0.0000,0.9382,0.5000,0.0000,0.0000
53.596,Upwind,3127.102,0.372,3127.102,0.372,954.724,954.729,177.279,54.425,359.992,12.918,-0.026,0.0000,-0.2380,0.0000,0.9382,0.5000,0.0000,0.0000
53.795,Upwind,3145.298,0.370,3145.298,0.370,965.611,965.615,177.279,54.440,359.992,12.918,-0.026,0.0000,-0.2379,0.0000,0.9382,0.5000,0.0000,0.0000
53.991,Upwind,3161.977,0.368,3161.977,0.368,975.593,975.597,177.278,54.454,359.993,12.919,-0.026,0.0000,-0.2379,0.0000,0.9382,0.5000,0.0000,0.0000
54.200,Upwind,3181.694,0.366,3181.694,0.366,987.393,987.397,177.277,54.470,359.993,12.919,-0.026,0.0000,-0.2378,0.0000,0.9382,0.5000,0.0000,0.0000
54.399,Upwind,3199.897,0.364,3199.897,0.364,998.288,998.293,177.276,54.484,359.993,12.919,-0.026,0.0000,-0.2377,0.0000,0.9382,0.5000,0.0000,0.0000
54.592,Upwind,3216.585,0.363,3216.585,0.363,1009.186,1009.191,177.274,54.497,359.993,12.920,-0.026,0.0000,-0.2377,0.0000,0.9382,0.5000,0.0000,0.0000
54.805,Upwind,3236.312,0.361,3236.312,0.361,1020.086,1020.091,177.272,54.509,359.993,12.920,-0.026,0.0000,-0.2376,0.0000,0.9383,0.5000,0.0000,0.0000
54.997,Upwind,3254.523,0.359,3254.523,0.359,1030.990,1030.994,177.270,54.521,359.993,12.920,-0.027,0.0000,-0.2376,0.0000,0.9383,0.5000,0.0000,0.0000
55.204,Upwind,3272.735,0.357,3272.735,0.357,1041.895,1041.900,177.268,54.533,359.993,12.920,-0.027,0.0000,-0.2376,0.0000,0.9383,0.5000,0.0000,0.0000
55.402,Upwind,3290.953,0.356,3290.953,0.356,1052.803,1052.808,177.265,54.544,359.993,12.920,-0.027,0.0000,-0.2375,0.0000,0.9384,0.5000,0.0000,0.0000
55.603,Upwind,3309.171,0.354,3309.171,0.354,1063.712,1063.718,177.262,54.555,359.994,12.920,-0.027,0.0000,-0.2375,0.0000,0.9384,0.5000,0.0000,0.0000
55.791,Upwind,3325.874,0.353,3325.874,0.353,1073.715,1073.720,177.259,54.564,359.994,12.921,-0.027,0.0000,-0.2375,0.0000,0.9384,0.5000,0.0000,0.0000
55.994,Upwind,3345.616,0.351,3345.616,0.351,1084.629,1084.634,177.256,54.574,359.994,12.921,-0.027,0.0000,-0.2374,0.0000,0.9385,0.5000,0.0000,0.0000
56.202,Upwind,3363.840,0.349,3363.840,0.349,1096.454,1096.459,177.252,54.584,359.994,12.921,-0.027,0.0000,-0.2374,0.0000,0.9385,0.5000,0.0000,0.0000
56.394,Upwind,3382.070,0.348,3382.070,0.348,1106.462,1106.467,177.249,54.592,359.994,12.921,-0.027,0.0000,-0.2374,0.0000,0.9386,0.5000,0.0000,0.0000
56.612,Upwind,3401.821,0.346,3401.821,0.346,1118.291,1118.296,177.245,54.601,359.994,12.921,-0.027,0.0000,-0.2374,0.0000,0.9386,0.5000,0.0000,0.0000
56.796,Upwind,3418.533,0.345,3418.533,0.345,1129.212,1129.217,177.241,54.609,359.994,12.921,-0.027,0.0000,-0.2374,0.0000,0.9387,0.5000,0.0000,0.0000
56.991,Upwind,3435.251,0.344,3435.251,0.344,1140.134,1140.140,177.236,54.617,359.994,12.921,-0.027,0.0000,-0.2374,0.0000,0.9388,0.5000,0.0000,0.0000
57.202,Upwind,3455.009,0.342,3455.009,0.342,1151.058,1151.064,177.232,54.624,359.994,12.921,-0.027,0.0000,-0.2373,0.0000,0.9388,0.5000,0.0000,0.0000
57.400,Upwind,3473.248,0.341,3473.248,0.341,1161.984,1161.990,177.227,54.632,359.994,12.921,-0.027,0.0000,-0.2373,0.0000,0.9389,0.5000,0.0000,0.0000
57.589,Upwind,3489.972,0.340,3489.972,0.340,1172.000,1172.006,177.223,54.638,359.995,12.921,-0.027,0.0000,-0.2373,0.0000,0.9389,0.5000,0.0000,0.0000
57.793,Upwind,3509.739,0.338,3509.739,0.338,1183.839,1183.845,177.218,54.645,359.995,12.921,-0.027,0.0000,-0.2374,0.0000,0.9390,0.5000,0.0000,0.0000
57.989,Upwind,3526.466,0.337,3526.466,0.337,1193.858,1193.864,177.214,54.651,359.995,12.921,-0.027,0.0000,-0.2374,0.0000,0.9391,0.5000,0.0000,0.0000
58.196,Upwind,3546.235,0.336,3546.235,0.336,1205.700,1205.705,177.208,54.657,359.995,12.921,-0.027,0.0000,-0.2373,0.0000,0.9392,0.5000,0.0000,0.0000
58.400,Upwind,3564.490,0.335,3564.490,0.335,1216.632,1216.637,177.203,54.663,359.995,12.921,-0.027,0.0000,-0.2373,0.0000,0.9392,0.5000,0.0000,0.0000
58.602,Upwind,3582.744,0.333,3582.744,0.333,1227.565,1227.570,177.198,54.668,359.995,12.921,-0.027,0.0000,-0.2374,0.0000,0.9393,0.5000,0.0000,0.0000
58.802,Upwind,3601.002,0.332,3601.002,0.332,1238.499,1238.505,177.192,54.674,359.995,12.921,-0.027,0.0000,-0.2374,0.0000,0.9394,0.5000,0.0000,0.0000
58.998,Upwind,3619.262,0.331,3619.262,0.331,1249.434,1249.440,177.187,54.679,359.995,12.921,-0.028,0.0000,-0.2373,0.0000,0.9395,0.5000,0.0000,0.0000
59.196,Upwind,3637.523,0.330,3637.523,0.330,1260.370,1260.376,177.181,54.684,359.995,12.921,-0.028,0.0000,-0.2374,0.0000,0.9395,0.5000,0.0000,0.0000
59.390,Upwind,3654.265,0.329,3654.265,0.329,1270.396,1270.402,177.176,54.688,359.995,12.921,-0.028,0.0000,-0.2374,0.0000,0.9396,0.5000,0.0000,0.0000
59.597,Upwind,3674.056,0.328,3674.056,0.328,1282.246,1282.252,177.170,54.693,359.996,12.921,-0.028,0.0000,-0.2374,0.0000,0.9397,0.5000,0.0000,0.0000
59.799,Upwind,3692.326,0.327,3692.326,0.327,1293.185,1293.191,177.164,54.698,359.996,12.921,-0.028,0.0000,-0.2374,0.0000,0.9398,0.5000,0.0000,0.0000
59.989,Upwind,3709.075,0.326,3709.075,0.326,1304.124,1304.131,177.158,54.702,359.996,12.921,-0.028,0.0000,-0.2374,0.0000,0.9399,0.5000,0.0000,0.0000
60.194,Upwind,3728.871,0.325,3728.871,0.325,1315.065,1315.071,177.152,54.706,359.996,12.921,-0.028,0.0000,-0.2374,0.0000,0.9399,0.5000,0.0000,0.0000
60.390,Upwind,3745.623,0.325,3745.623,0.325,1326.007,1326.013,177.146,54.710,359.996,12.921,-0.028,0.0000,-0.2375,0.0000,0.9400,0.5000,0.0000,0.0000
60.593,Upwind,3765.426,0.324,3765.426,0.324,1336.949,1336.955,177.140,54.713,359.996,12.921,-0.028,0.0000,-0.2375,0.0000,0.9401,0.5000,0.0000,0.0000
60.797,Upwind,3783.705,0.323,3783.705,0.323,1347.892,1347.898,177.134,54.717,359.996,12.921,-0.028,0.0000,-0.2375,0.0000,0.9402,0.5000,0.0000,0.0000
60.991,Upwind,3800.466,0.322,3800.466,0.322,1357.924,1357.930,177.128,54.720,359.996,12.920,-0.028,0.0000,-0.2375,0.0000,0.9403,0.5000,0.0000,0.0000
61.201,Upwind,3820.275,0.321,3820.275,0.321,1369.780,1369.786,177.122,54.723,359.996,12.920,-0.028,0.0000,-0.2376,0.0000,0.9404,0.5000,0.0000,0.0000
61.390,Upwind,3837.039,0.321,3837.039,0.321,1380.725,1380.732,177.115,54.727,359.996,12.920,-0.028,0.0000,-0.2376,0.0000,0.9405,0.5000,0.0000,0.0000
61.590,Upwind,3855.327,0.320,3855.327,0.320,1391.670,1391.677,177.109,54.730,359.996,12.920,-0.028,0.0000,-0.2376,0.0000,0.9405,0.5000,0.0000,0.0000
61.790,Upwind,3873.618,0.319,3873.618,0.319,1401.704,1401.711,177.103,54.732,359.996,12.920,-0.028,0.0000,-0.2376,0.0000,0.9406,0.5000,0.0000,0.0000
61.997,Upwind,3893.439,0.318,3893.439,0.318,1413.563,1413.570,177.096,54.735,359.997,12.920,-0.028,0.0000,-0.2377,0.0000,0.9407,0.5000,0.0000,0.0000
62.190,Upwind,3910.209,0.318,3910.209,0.318,1424.511,1424.517,177.090,54.738,359.997,12.920,-0.028,0.0000,-0.2377,0.0000,0.9408,0.5000,0.0000,0.0000
62.389,Upwind,3928.509,0.317,3928.509,0.317,1435.458,1435.465,177.083,54.741,359.997,12.920,-0.028,0.0000,-0.2377,0.0000,0.9409,0.5000,0.0000,0.0000
62.598,Upwind,3948.337,0.317,3948.337,0.317,1446.407,1446.414,177.077,54.743,359.997,12.920,-0.028,0.0000,-0.2377,0.0000,0.9410,0.5000,0.0000,0.0000
62.800,Upwind,3966.640,0.316,3966.640,0.316,1457.356,1457.363,177.070,54.746,359.997,12.919,-0.028,0.0000,-0.2378,0.0000,0.9411,0.5000,0.0000,0.0000
63.002,Upwind,3984.946,0.315,3984.946,0.315,1468.305,1468.312,177.063,54.748,359.997,12.919,-0.028,0.0000,-0.2378,0.0000,0.9412,0.5000,0.0000,0.0000
63.189,Upwind,4001.729,0.315,4001.729,0.315,1479.255,1479.262,177.057,54.750,359.997,12.919,-0.029,0.0000,-0.2378,0.0000,0.9413,0.5000,0.0000,0.0000
63.399,Upwind,4021.562,0.314,4021.562,0.314,1490.205,1490.212,177.050,54.752,359.997,12.919,-0.029,-0.0001,-0.2379,0.0000,0.9414,0.5000,0.0000,0.0000
63.594,Upwind,4039.877,0.314,4039.877,0.314,1501.155,1501.163,177.043,54.754,359.997,12.919,-0.029,0.0000,-0.2379,0.0000,0.9415,0.5000,0.0000,0.0000
63.795,Upwind,4058.189,0.314,4058.189,0.314,1512.106,1512.114,177.036,54.757,359.997,12.919,-0.029,0.0000,-0.2379,0.0000,0.9416,0.5000,0.0000,0.0000
63.991,Upwind,4074.981,0.313,4074.981,0.313,1523.058,1523.065,177.029,54.758,359.997,12.918,-0.029,0.0000,-0.2380,0.0000,0.9417,0.5000,0.0000,0.0000
64.189,Upwind,4093.300,0.313,4093.300,0.313,1533.097,1533.104,177.023,54.760,359.997,12.918,-0.029,0.0000,-0.2380,0.0000,0.9418,0.5000,0.0000,0.0000
64.397,Upwind,4113.148,0.312,4113.148,0.312,1544.962,1544.969,177.016,54.762,359.997,12.918,-0.029,0.0000,-0.2380,0.0000,0.9419,0.5000,0.0000,0.0000
64.588,Upwind,4129.946,0.312,4129.946,0.312,1555.002,1555.009,177.009,54.764,359.998,12.918,-0.029,0.0000,-0.2381,0.0000,0.9419,0.5000,0.0000,0.0000
64.796,Upwind,4149.797,0.312,4149.797,0.312,1566.867,1566.875,177.002,54.766,359.998,12.918,-0.030,-0.0001,-0.2381,0.0000,0.9421,0.5000,0.0000,0.0000
65.001,Upwind,4168.128,0.311,4168.128,0.311,1577.821,1577.828,176.995,54.767,359.998,12.918,-0.030,0.0000,-0.2381,0.0000,0.9422,0.5000,0.0000,0.0000
65.190,Upwind,4184.932,0.311,4184.932,0.311,1588.774,1588.782,176.988,54.769,359.998,12.918,-0.030,-0.0001,-0.2382,0.0000,0.9422,0.5000,0.0000,0.0000
65.391,Upwind,4203.262,0.311,4203.262,0.311,1599.728,1599.736,176.981,54.771,359.998,12.917,-0.030,0.0000,-0.2382,0.0000,0.9423,0.5000,0.0000,0.0000
65.593,Upwind,4223.126,0.310,4223.126,0.310,1610.682,1610.690,176.974,54.772,359.998,12.917,-0.030,0.0000,-0.2382,0.0000,0.9424,0.5000,0.0000,0.0000
65.800,Upwind,4241.462,0.310,4241.462,0.310,1621.637,1621.645,176.967,54.774,359.998,12.917,-0.030,0.0000,-0.2383,0.0000,0.9425,0.5000,0.0000,0.0000
66.001,Upwind,4259.803,0.310,4259.803,0.310,1632.592,1632.600,176.960,54.775,359.998,12.917,-0.030,0.0000,-0.2383,0.0000,0.9426,0.5000,0.0000,0.0000
66.201,Upwind,4278.146,0.310,4278.146,0.310,1643.547,1643.555,176.953,54.776,359.998,12.917,-0.030,0.0000,-0.2384,0.0000,0.9427,0.5000,0.0000,0.0000
66.401,Upwind,4296.488,0.309,4296.488,0.309,1654.502,1654.510,176.946,54.778,359.998,12.917,-0.030,0.0000,-0.2384,0.0000,0.9428,0.5000,0.0000,0.0000
66.591,Upwind,4313.307,0.309,4313.307,0.309,1665.458,1665.466,176.939,54.779,359.998,12.916,-0.030,0.0000,-0.2384,0.0000,0.9429,0.5000,0.0000,0.0000
66.791,Upwind,4331.653,0.309,4331.653,0.309,1676.414,1676.422,176.932,54.781,359.998,12.916,-0.030,-0.0001,-0.2385,0.0000,0.9430,0.5000,0.0000,0.0000
67.004,Upwind,4351.535,0.309,4351.535,0.309,1687.370,1687.378,176.924,54.782,359.998,12.916,-0.031,0.0000,-0.2385,0.0000,0.9431,0.5000,0.0000,0.0000
67.195,Upwind,4369.887,0.309,4369.887,0.309,1698.327,1698.335,176.917,54.783,359.998,12.916,-0.031,0.0000,-0.2386,0.0000,0.9432,0.5000,0.0000,0.0000
67.393,Upwind,4388.242,0.309,4388.242,0.309,1709.283,1709.291,176.910,54.784,359.998,12.916,-0.031,0.0000,-0.2386,0.0000,0.9433,0.5000,0.0000,0.0000
67.598,Upwind,4406.600,0.308,4406.600,0.308,1720.240,1720.248,176.903,54.785,359.998,12.915,-0.031,0.0000,-0.2386,0.0000,0.9434,0.5000,0.0000,0.0000
67.793,Upwind,4424.958,0.308,4424.958,0.308,1731.197,1731.206,176.896,54.787,359.998,12.915,-0.031,0.0000,-0.2387,0.0000,0.9435,0.5000,0.0000,0.0000
67.989,Upwind,4441.790,0.308,4441.790,0.308,1741.242,1741.250,176.889,54.788,359.998,12.915,-0.031,0.0000,-0.2387,0.0000,0.9436,0.5000,0.0000,0.0000
68.192,Upwind,4460.154,0.308,4460.154,0.308,1753.112,1753.121,176.881,54.789,359.998,12.915,-0.031,0.0000,-0.2388,0.0000,0.9437,0.5000,0.0000,0.0000
68.398,Upwind,4480.051,0.308,4480.051,0.308,1764.070,1764.079,176.874,54.790,359.998,12.915,-0.031,0.0000,-0.2388,0.0000,0.9438,0.5000,0.0000,0.0000
68.589,Upwind,4496.888,0.308,4496.888,0.308,1775.028,1775.037,176.867,54.791,359.998,12.915,-0.031,-0.0001,-0.2388,0.0000,0.9439,0.5000,0.0000,0.0000
68.795,Upwind,4516.792,0.308,4516.792,0.308,1785.986,1785.995,176.860,54.792,359.998,12.914,-0.031,0.0000,-0.2389,0.0000,0.9440,0.5000,0.0000,0.0000
69.001,Upwind,4535.165,0.308,4535.165,0.308,1796.945,1796.953,176.852,54.793,359.998,12.914,-0.031,0.0000,-0.2389,0.0000,0.9441,0.5000,0.0000,0.0000
69.195,Upwind,4553.538,0.308,4553.538,0.308,1807.903,1807.912,176.845,54.794,359.998,12.914,-0.031,0.0000,-0.2390,0.0000,0.9443,0.5000,0.0000,0.0000
69.403,Upwind,4571.918,0.308,4571.918,0.308,1818.862,1818.871,176.838,54.795,359.998,12.914,-0.031,0.0000,-0.2390,0.0000,0.9444,0.5000,0.0000,0.0000
69.590,Upwind,4588.764,0.308,4588.764,0.308,1829.821,1829.830,176.831,54.796,359.998,12.914,-0.031,0.0000,-0.2390,0.0000,0.9445,0.5000,0.0000,0.0000
69.797,Upwind,4608.680,0.307,4608.680,0.307,1840.780,1840.789,176.823,54.797,359.998,12.913,-0.031,0.0000,-0.2391,0.0000,0.9446,0.5000,0.0000,0.0000
69.992,Upwind,4625.532,0.307,4625.532,0.307,1851.740,1851.749,176.816,54.798,359.998,12.913,-0.031,0.0000,-0.2391,0.0000,0.9447,0.5000,0.0000,0.0000
70.190,Upwind,4643.917,0.307,4643.917,0.307,1862.699,1862.708,176.809,54.798,359.998,12.913,-0.032,0.0000,-0.2392,0.0000,0.9448,0.5000,0.0000,0.0000
70.396,Upwind,4663.839,0.307,4663.839,0.307,1873.659,1873.668,176.802,54.799,359.998,12.913,-0.032,0.0000,-0.2392,0.0000,0.9449,0.5000,0.0000,0.0000
70.589,Upwind,4680.698,0.307,4680.698,0.307,1884.619,1884.628,176.794,54.800,359.999,12.913,-0.032,0.0000,-0.2393,0.0000,0.9450,0.5000,0.0000,0.0000
70.796,Upwind,4700.623,0.307,4700.623,0.307,1895.579,1895.588,176.787,54.801,359.999,12.912,-0.032,0.0000,-0.2393,0.0000,0.9451,0.5000,0.0000,0.0000
71.002,Upwind,4719.017,0.307,4719.017,0.307,1906.539,1906.549,176.780,54.802,359.999,12.912,-0.032,0.0000,-0.2393,0.0000,0.9452,0.5000,0.0000,0.0000
71.191,Upwind,4735.882,0.307,4735.882,0.307,1917.500,1917.509,176.772,54.803,359.999,12.912,-0.032,-0.0001,-0.2394,0.0000,0.9453,0.5000,0.0000,0.0000
71.392,Upwind,4754.283,0.307,4754.283,0.307,1928.460,1928.470,176.765,54.803,359.999,12.912,-0.032,0.0000,-0.2394,0.0000,0.9454,0.5000,0.0000,0.0000
71.593,Upwind,4774.217,0.307,4774.217,0.307,1939.421,1939.430,176.758,54.804,359.999,12.912,-0.032,0.0000,-0.2395,0.0000,0.9455,0.5000,0.0000,0.0000
71.791,Upwind,4791.087,0.307,4791.087,0.307,1950.382,1950.391,176.750,54.805,359.999,12.911,-0.032,0.0000,-0.2395,0.0000,0.9456,0.5000,0.0000,0.0000
71.995,Upwind,4811.027,0.307,4811.027,0.307,1961.343,1961.352,176.743,54.806,359.999,12.911,-0.032,0.0000,-0.2396,0.0000,0.9457,0.5000,0.0000,0.0000
72.198,Upwind,4829.438,0.307,4829.438,0.307,1972.304,1972.314,176.735,54.806,359.999,12.911,-0.032,0.0000,-0.2396,0.0000,0.9458,0.5000,0.0000,0.0000
72.397,Upwind,4847.847,0.308,4847.847,0.308,1983.265,1983.275,176.728,54.807,359.999,12.911,-0.032,0.0000,-0.2396,0.0000,0.9459,0.5000,0.0000,0.0000
72.592,Upwind,4864.727,0.308,4864.727,0.308,1994.227,1994.237,176.721,54.808,359.999,12.911,-0.032,0.0000,-0.2397,0.0000,0.9460,0.5000,0.0000,0.0000
72.797,Crosswind,4884.676,0.308,4884.676,0.308,2005.188,2005.198,176.708,54.803,359.999,12.911,-0.026,0.4000,-0.2768,0.0000,0.9049,0.0000,0.0000,0.0000
72.993,Crosswind,4903.086,0.308,4903.086,0.308,2015.227,2015.237,176.571,54.680,359.996,12.925,0.267,0.4000,-0.3648,0.0001,0.8071,0.0000,0.0000,0.0000
73.190,Crosswind,4919.944,0.310,4919.944,0.310,2026.136,2026.146,176.247,54.384,359.992,13.003,1.011,0.4000,-0.4536,0.0001,0.7084,0.0000,0.0000,0.0000
73.389,Crosswind,4938.296,0.320,4938.296,0.320,2036.973,2036.983,175.789,53.985,359.992,13.190,2.097,0.4000,-0.5433,0.0000,0.7000,0.0000,0.0000,0.0000
73.592,Crosswind,4956.606,0.342,4956.606,0.342,2048.624,2048.634,175.279,53.567,0.013,13.557,3.567,0.4000,-0.6346,-0.0001,0.7000,0.0000,0.0000,0.0000
73.800,Crosswind,4976.391,0.390,4976.391,0.390,2059.306,2059.316,174.801,53.279,0.066,14.070,5.122,0.4000,-0.7279,-0.0005,0.7064,0.0000,0.0000,0.0000
73.991,Crosswind,4993.090,0.459,4993.090,0.459,2069.947,2069.957,174.322,53.165,0.172,14.764,6.816,0.4000,-0.8000,-0.0009,0.7177,0.0000,0.0000,0.0000
74.198,Crosswind,5012.771,0.585,5012.771,0.585,2080.590,2080.600,173.840,53.311,0.351,15.632,8.606,0.4000,-0.8000,-0.0016,0.7292,0.0000,0.0000,0.0000
74.398,Crosswind,5030.882,0.759,5030.882,0.759,2091.292,2091.302,173.352,53.771,0.616,16.619,10.458,0.4000,-0.8000,-0.0024,0.7410,0.0000,0.0000,0.0000
74.592,Crosswind,5047.436,0.979,5047.436,0.979,2102.119,2102.129,172.852,54.548,0.976,17.664,12.345,0.4000,-0.7738,-0.0034,0.7530,0.0000,0.0000,0.0000
74.798,Crosswind,5066.928,1.332,5066.928,1.332,2113.131,2113.141,172.338,55.618,1.434,18.704,14.242,0.4000,-0.7428,-0.0048,0.7652,0.0000,0.0000,0.0000
75.002,Crosswind,5084.848,1.764,5084.848,1.764,2124.383,2124.393,171.809,56.934,1.986,19.679,16.132,0.4000,-0.7122,-0.0063,0.7777,0.0000,0.0000,0.0000
75.196,Crosswind,5102.693,2.314,5102.693,2.314,2135.916,2135.927,171.265,58.424,2.625,20.542,17.999,0.3819,-0.6831,-0.0080,0.7903,0.0000,0.0000,0.0000
75.404,Crosswind,5120.460,2.998,5120.460,2.998,2147.758,2147.768,170.712,59.999,3.340,21.262,19.818,0.3167,-0.6520,-0.0098,0.8029,0.0000,0.0000,0.0000
75.591,Crosswind,5136.672,3.757,5136.672,3.757,2159.916,2159.926,170.156,61.576,4.117,21.818,21.517,0.2588,-0.6239,-0.0114,0.8152,0.0000,0.0000,0.0000
75.796,Crosswind,5155.738,4.828,5155.738,4.828,2172.383,2172.394,169.602,63.080,4.942,22.202,23.046,0.2114,-0.5931,-0.0133,0.8270,0.0000,0.0000,0.0000
75.992,Crosswind,5171.794,5.890,5171.794,5.890,2185.139,2185.150,169.058,64.450,5.795,22.416,24.379,0.1699,-0.5636,-0.0147,0.8382,0.0000,0.0000,0.0000
76.200,Crosswind,5190.677,7.340,5190.677,7.340,2198.151,2198.162,168.530,65.639,6.660,22.467,25.512,0.1377,-0.5324,-0.0161,0.8486,0.0000,0.0000,0.0000
76.396,Crosswind,5208.020,8.870,5208.020,8.870,2211.380,2211.391,168.023,66.610,7.519,22.371,26.456,0.1103,-0.5031,-0.0170,0.8582,0.0000,0.0000,0.0000
76.593,Crosswind,5223.848,10.436,5223.848,10.436,2224.779,2224.790,167.542,67.337,8.356,22.147,27.231,0.0872,-0.4736,-0.0176,0.8670,0.0000,0.0000,0.0000
76.797,Crosswind,5242.472,12.490,5242.472,12.490,2238.297,2238.308,167.092,67.804,9.156,21.814,27.861,0.0692,-0.4430,-0.0178,0.8750,0.0000,0.0000,0.0000
76.991,Crosswind,5258.166,14.398,5258.166,14.398,2251.882,2251.893,166.675,68.001,9.909,21.394,28.372,0.0533,-0.4139,-0.0177,0.8822,0.0000,0.0000,0.0000
77.197,Crosswind,5276.646,16.852,5276.646,16.852,2265.480,2265.490,166.294,67.925,10.607,20.903,28.787,0.0405,-0.3830,-0.0173,0.8886,0.0000,0.0000,0.0000
77.401,Crosswind,5293.642,19.307,5293.642,19.307,2279.034,2279.045,165.951,67.579,11.242,20.361,29.125,0.0293,-0.3524,-0.0167,0.8944,0.0000,0.0000,0.0000
77.594,Crosswind,5310.588,21.938,5310.588,21.938,2292.493,2292.504,165.647,66.968,11.813,19.779,29.403,0.0198,-0.3235,-0.0159,0.8994,0.0000,0.0000,0.0000
77.800,Crosswind,5327.490,24.742,5327.490,24.742,2305.805,2305.816,165.382,66.102,12.318,19.171,29.630,0.0119,-0.2925,-0.0151,0.9037,0.0000,0.0000,0.0000
77.995,Crosswind,5344.354,27.714,5344.354,27.714,2318.918,2318.929,165.155,64.988,12.760,18.546,29.815,0.0055,-0.3684,-0.0142,0.9073,0.0000,0.0000,0.0000
78.194,Crosswind,5361.188,30.848,5361.188,30.848,2331.783,2331.794,164.962,63.621,13.169,17.950,29.968,0.0004,-0.4576,-0.0133,0.9104,0.0000,0.0000,0.0000
78.396,Crosswind,5377.998,34.139,5377.998,34.139,2344.353,2344.364,164.801,62.050,13.582,17.441,30.101,-0.0037,-0.5486,-0.0125,0.9128,0.0000,0.0000,0.0000
78.595,Crosswind,5394.786,37.582,5394.786,37.582,2356.593,2356.605,164.667,60.342,14.031,17.061,30.219,-0.0069,-0.6382,-0.0119,0.9147,0.0000,0.0000,0.0000
78.790,Crosswind,5410.157,40.871,5410.157,40.871,2368.486,2368.497,164.557,58.577,14.543,16.841,30.325,-0.0094,-0.7260,-0.0114,0.9162,0.0000,0.0000,0.0000
78.995,Crosswind,5428.305,44.921,5428.305,44.921,2379.078,2379.089,164.473,56.982,15.085,16.796,30.413,-0.0105,-0.8000,-0.0110,0.9174,0.0000,0.0000,0.0000
79.194,Crosswind,5445.035,48.819,5445.035,48.819,2391.230,2391.242,164.387,55.231,15.827,16.937,30.505,-0.0116,-0.8000,-0.0108,0.9186,0.0000,0.0000,0.0000
79.395,Crosswind,5461.742,52.875,5461.742,52.875,2402.133,2402.144,164.319,53.833,16.596,17.217,30.573,-0.0117,-0.7699,-0.0107,0.9195,0.0000,0.0000,0.0000
79.589,Crosswind,5477.030,56.738,5477.030,56.738,2411.902,2411.913,164.261,52.774,17.349,17.551,30.615,-0.0109,-0.7408,-0.0107,0.9204,0.0000,0.0000,0.0000
79.797,Crosswind,5495.060,61.489,5495.060,61.489,2423.226,2423.237,164.192,51.805,18.271,17.985,30.634,-0.0090,-0.7097,-0.0109,0.9213,0.0000,0.0000,0.0000
79.996,Crosswind,5511.653,66.060,5511.653,66.060,2433.519,2433.530,164.126,51.166,19.130,18.378,30.619,-0.0062,-0.6797,-0.0111,0.9222,0.0000,0.0000,0.0000
80.198,Crosswind,5528.198,70.814,5528.198,70.814,2443.706,2443.718,164.056,50.738,19.973,18.726,30.572,-0.0026,-0.6494,-0.0113,0.9232,0.0000,0.0000,0.0000
80.391,Crosswind,5543.313,75.337,5543.313,75.337,2453.825,2453.837,163.983,50.477,20.787,19.003,30.494,0.0016,-0.6205,-0.0115,0.9242,0.0000,0.0000,0.0000
80.590,Crosswind,5559.744,80.452,5559.744,80.452,2463.904,2463.916,163.909,50.329,21.557,19.190,30.390,0.0064,-0.5907,-0.0117,0.9253,0.0000,0.0000,0.0000
80.799,Crosswind,5577.475,86.209,5577.475,86.209,2473.961,2473.973,163.838,50.242,22.276,19.278,30.265,0.0115,-0.5593,-0.0119,0.9263,0.0000,0.0000,0.0000
80.990,Crosswind,5592.413,91.253,5592.413,91.253,2483.165,2483.177,163.777,50.170,22.885,19.266,30.136,0.0162,-0.5306,-0.0120,0.9271,0.0000,0.0000,0.0000
81.196,Crosswind,5609.994,97.418,5609.994,97.418,2494.023,2494.035,163.716,50.040,23.540,19.139,29.974,0.0217,-0.4998,-0.0121,0.9279,0.0000,0.0000,0.0000
81.404,Crosswind,5626.154,103.301,5626.154,103.301,2504.012,2504.024,163.673,49.832,24.084,18.918,29.821,0.0266,-0.4685,-0.0121,0.9281,0.0000,0.0000,0.0000
81.595,Crosswind,5642.250,109.363,5642.250,109.363,2513.947,2513.959,163.646,49.501,24.572,18.605,29.670,0.0310,-0.4398,-0.0121,0.9281,0.0000,0.0000,0.0000
81.804,Crosswind,5658.283,115.601,5658.283,115.601,2523.801,2523.814,163.639,49.011,25.009,18.210,29.527,0.0351,-0.4973,-0.0121,0.9278,0.0000,0.0000,0.0000
81.991,Crosswind,5672.932,121.469,5672.932,121.469,2533.538,2533.550,163.647,48.322,25.419,17.775,29.400,0.0386,-0.5813,-0.0120,0.9273,0.0000,0.0000,0.0000
82.194,Crosswind,5690.183,128.581,5690.183,128.581,2543.118,2543.130,163.673,47.445,25.840,17.365,29.300,0.0409,-0.6730,-0.0120,0.9267,0.0000,0.0000,0.0000
82.399,Crosswind,5706.057,135.313,5706.057,135.313,2552.506,2552.518,163.713,46.424,26.304,17.033,29.235,0.0422,-0.7649,-0.0120,0.9260,0.0000,0.0000,0.0000
82.590,Crosswind,5720.565,141.621,5720.565,141.621,2561.681,2561.694,163.767,45.323,26.836,16.821,29.208,0.0423,-0.8000,-0.0119,0.9251,0.0000,0.0000,0.0000
82.795,Crosswind,5737.665,149.244,5737.665,149.244,2570.636,2570.649,163.833,44.234,27.441,16.738,29.215,0.0412,-0.8000,-0.0119,0.9243,0.0000,0.0000,0.0000
83.000,Crosswind,5753.396,156.444,5753.396,156.444,2579.380,2579.392,163.906,43.218,28.109,16.762,29.250,0.0394,-0.8000,-0.0119,0.9233,0.0000,0.0000,0.0000
83.188,Crosswind,5767.767,163.184,5767.767,163.184,2587.225,2587.237,163.977,42.383,28.764,16.857,29.298,0.0374,-0.8000,-0.0119,0.9224,0.0000,0.0000,0.0000
83.391,Crosswind,5783.395,170.691,5783.395,170.691,2596.314,2596.326,164.062,41.541,29.579,17.032,29.369,0.0348,-0.7900,-0.0120,0.9214,0.0000,0.0000,0.0000
83.592,Crosswind,5798.957,178.363,5798.957,178.363,2604.557,2604.570,164.140,40.922,30.355,17.229,29.439,0.0323,-0.7597,-0.0120,0.9205,0.0000,0.0000,0.0000
