time_s,leg,north_m,east_m,along_m,cross_m,agl_ft,altitude_ft,speed_kts,vertical_speed_fps,heading_deg,pitch_deg,roll_deg,aileron_cmd,elevator_cmd,rudder_cmd,throttle_cmd,flaps_cmd,gear_cmd,brake_cmd
1.911,Upwind,0.708,0.000,0.708,0.000,3.691,3.691,2.641,0.000,0.000,0.450,0.000,0.0000,0.0630,0.0000,0.0000,0.5000,1.0000,1.0000
2.088,Upwind,0.865,0.000,0.865,0.000,3.693,3.693,0.732,0.042,0.000,0.367,0.000,0.0000,0.0346,0.0000,0.0000,0.5000,1.0000,1.0000
2.293,Upwind,0.871,0.000,0.871,0.000,3.707,3.707,0.025,0.039,0.000,0.318,0.000,0.0000,0.0580,0.0000,0.0000,0.5000,1.0000,1.0000
2.500,Upwind,0.868,0.000,0.868,0.000,3.695,3.695,0.074,-0.124,0.000,0.455,0.000,0.0000,0.0719,0.0000,0.0000,0.5000,1.0000,1.0000
2.686,Upwind,0.868,0.000,0.868,0.000,3.679,3.679,0.012,-0.011,0.000,0.491,0.000,0.0000,0.0663,0.0000,0.0085,0.5000,1.0000,0.0000
2.894,Upwind,0.868,0.000,0.868,0.000,3.685,3.685,0.027,0.044,0.000,0.454,0.000,0.0000,0.0603,0.0000,0.1125,0.5000,1.0000,0.0000
3.092,Upwind,0.869,0.000,0.869,0.000,3.692,3.692,0.011,0.018,0.000,0.438,0.000,0.0000,0.0619,0.0000,0.2115,0.5000,1.0000,0.0000
3.292,Upwind,0.868,0.000,0.868,0.000,3.692,3.692,0.006,-0.009,0.000,0.447,0.000,0.0000,0.0634,0.0000,0.3113,0.5000,1.0000,0.0000
3.492,Upwind,0.868,0.000,0.868,0.000,3.690,3.690,0.003,-0.005,0.000,0.452,0.000,0.0000,0.0633,0.0000,0.4112,0.5000,1.0000,0.0000
3.694,Upwind,0.869,0.000,0.869,0.000,3.690,3.690,0.010,0.003,0.000,0.450,0.000,0.0000,0.0628,0.0000,0.5124,0.5000,1.0000,0.0000
3.897,Upwind,0.871,0.000,0.871,0.000,3.691,3.691,0.028,0.002,0.000,0.448,0.000,0.0000,0.0627,0.0000,0.6138,0.5000,1.0000,0.0000
4.095,Upwind,0.875,0.000,0.875,0.000,3.691,3.691,0.056,0.000,0.000,0.449,0.000,0.0000,0.0629,0.0000,0.7127,0.5000,1.0000,0.0000
4.303,Upwind,0.884,0.000,0.884,0.000,3.691,3.691,0.097,-0.001,0.000,0.449,0.000,0.0000,0.0629,0.0000,0.8169,0.5000,1.0000,0.0000
4.489,Upwind,0.897,0.000,0.897,0.000,3.691,3.691,0.154,0.000,0.000,0.449,0.000,0.0000,0.0629,0.0000,0.9098,0.5000,1.0000,0.0000
4.688,Upwind,0.917,0.000,0.917,0.000,3.691,3.691,0.229,0.000,0.000,0.449,0.000,0.0000,0.0629,0.0000,1.0000,0.5000,1.0000,0.0000
4.892,Upwind,0.946,0.000,0.946,0.000,3.691,3.691,0.325,0.000,0.000,0.449,0.000,0.0000,0.0629,0.0000,1.0000,0.5000,1.0000,0.0000
5.089,Upwind,0.987,0.000,0.987,0.000,3.691,3.691,0.446,0.000,0.000,0.449,0.000,0.0000,0.0629,0.0000,1.0000,0.5000,1.0000,0.0000
5.302,Upwind,1.047,0.000,1.047,0.000,3.691,3.691,0.597,0.000,0.000,0.450,0.000,0.0000,0.0630,0.0000,1.0000,0.5000,1.0000,0.0000
5.500,Upwind,1.114,0.000,1.114,0.000,3.691,3.691,0.783,0.000,0.000,0.450,0.000,0.0000,0.0630,0.0000,1.0000,0.5000,1.0000,0.0000
5.695,Upwind,1.207,0.000,1.207,0.000,3.691,3.691,1.009,0.000,0.000,0.450,0.000,0.0000,0.0630,0.0000,1.0000,0.5000,1.0000,0.0000
5.893,Upwind,1.327,0.000,1.327,0.000,3.691,3.691,1.281,0.000,0.000,0.450,0.000,0.0000,0.0631,0.0000,1.0000,0.5000,1.0000,0.0000
6.086,Upwind,1.478,0.000,1.478,0.000,3.691,3.691,1.578,0.000,0.000,0.450,0.000,0.0000,0.0631,0.0000,1.0000,0.5000,1.0000,0.0000
6.297,Upwind,1.666,0.000,1.666,0.000,3.691,3.691,1.995,0.000,0.000,0.451,0.000,0.0000,0.0631,0.0000,1.0000,0.5000,1.0000,0.0000
6.499,Upwind,1.898,0.000,1.898,0.000,3.691,3.691,2.452,0.000,0.000,0.451,0.000,0.0000,0.0632,0.0000,1.0000,0.5000,1.0000,0.0000
6.690,Upwind,2.182,0.000,2.182,0.000,3.691,3.691,2.986,0.000,0.000,0.452,0.000,0.0000,0.0633,0.0000,1.0000,0.5000,1.0000,0.0000
6.890,Upwind,2.526,0.000,2.526,0.000,3.691,3.691,3.607,0.000,0.000,0.452,0.000,0.0000,0.0633,0.0000,1.0000,0.5000,1.0000,0.0000
7.088,Upwind,2.939,0.000,2.939,0.000,3.691,3.691,4.320,0.000,0.000,0.452,0.000,0.0000,0.0634,0.0000,1.0000,0.5000,1.0000,0.0000
7.295,Upwind,3.431,0.000,3.431,0.000,3.691,3.691,5.135,0.000,0.000,0.453,0.000,0.0000,0.0634,0.0000,1.0000,0.5000,1.0000,0.0000
7.498,Upwind,4.014,0.000,4.014,0.000,3.691,3.691,6.058,0.000,0.000,0.453,0.000,0.0000,0.0635,0.0000,1.0000,0.5000,1.0000,0.0000
7.697,Upwind,4.699,0.000,4.699,0.000,3.691,3.691,7.095,0.000,0.000,0.454,0.000,0.0000,0.0636,0.0000,1.0000,0.5000,1.0000,0.0000
7.889,Upwind,5.497,0.000,5.497,0.000,3.691,3.691,8.153,0.001,0.000,0.454,0.000,0.0000,0.0637,0.0000,1.0000,0.5000,1.0000,0.0000
8.086,Upwind,6.422,0.000,6.422,0.000,3.691,3.691,9.416,0.001,0.000,0.455,0.000,0.0000,0.0637,0.0000,1.0000,0.5000,1.0000,0.0000
8.296,Upwind,7.479,0.000,7.479,0.000,3.691,3.691,10.809,0.001,0.000,0.455,0.000,0.0000,0.0636,0.0000,1.0000,0.5000,1.0000,0.0000
8.488,Upwind,8.668,0.000,8.668,0.000,3.691,3.692,12.093,0.001,0.000,0.454,0.000,0.0000,0.0636,0.0000,1.0000,0.5000,1.0000,0.0000
8.691,Upwind,9.990,0.000,9.990,0.000,3.692,3.692,13.376,0.001,0.000,0.454,0.000,0.0000,0.0635,0.0000,1.0000,0.5000,1.0000,0.0000
8.894,Upwind,11.443,0.000,11.443,0.000,3.692,3.692,14.658,0.001,0.000,0.454,0.000,0.0000,0.0635,0.0000,1.0000,0.5000,1.0000,0.0000
9.090,Upwind,13.028,0.000,13.028,0.000,3.692,3.692,15.939,0.001,0.000,0.453,0.000,0.0000,0.0634,0.0000,1.0000,0.5000,1.0000,0.0000
9.289,Upwind,14.745,0.000,14.745,0.000,3.692,3.693,17.219,0.002,0.000,0.453,0.000,0.0000,0.0634,0.0000,1.0000,0.5000,1.0000,0.0000
9.490,Upwind,16.593,0.000,16.593,0.000,3.693,3.693,18.497,0.002,0.000,0.453,0.000,0.0000,0.0633,0.0000,1.0000,0.5000,1.0000,0.0000
9.686,Upwind,18.573,0.000,18.573,0.000,3.693,3.693,19.775,0.002,0.000,0.452,0.000,0.0000,0.0633,0.0000,1.0000,0.5000,1.0000,0.0000
9.890,Upwind,20.684,0.000,20.684,0.000,3.694,3.694,21.051,0.002,0.000,0.452,0.000,0.0000,0.0632,0.0000,1.0000,0.5000,1.0000,0.0000
10.086,Upwind,22.927,0.000,22.927,0.000,3.694,3.694,22.326,0.002,0.000,0.451,0.000,0.0000,0.0631,0.0000,1.0000,0.5000,1.0000,0.0000
10.286,Upwind,25.301,0.000,25.301,0.000,3.694,3.694,23.600,0.002,0.000,0.451,0.000,0.0000,0.0630,0.0000,1.0000,0.5000,1.0000,0.0000
10.496,Upwind,27.805,0.000,27.805,0.000,3.695,3.695,24.873,0.003,0.000,0.450,0.000,0.0000,0.0629,0.0000,1.0000,0.5000,1.0000,0.0000
10.693,Upwind,30.441,0.000,30.441,0.000,3.695,3.695,26.144,0.003,0.000,0.449,0.000,0.0000,0.0628,0.0000,1.0000,0.5000,1.0000,0.0000
10.885,Upwind,33.207,0.000,33.207,0.000,3.696,3.696,27.414,0.003,0.000,0.448,0.000,0.0000,0.0627,0.0000,1.0000,0.5000,1.0000,0.0000
11.089,Upwind,36.104,0.000,36.104,0.000,3.696,3.697,28.683,0.003,0.000,0.448,0.000,0.0000,0.0626,0.0000,1.0000,0.5000,1.0000,0.0000
11.287,Upwind,39.131,0.000,39.131,0.000,3.697,3.697,29.950,0.003,0.000,0.447,0.000,0.0000,0.0625,0.0000,1.0000,0.5000,1.0000,0.0000
11.489,Upwind,42.289,0.000,42.289,0.000,3.698,3.698,31.216,0.004,0.000,0.446,0.000,0.0000,0.0623,0.0000,1.0000,0.5000,1.0000,0.0000
11.689,Upwind,45.577,0.001,45.577,0.001,3.699,3.699,32.481,0.004,0.000,0.445,0.000,0.0000,0.0622,0.0000,1.0000,0.5000,1.0000,0.0000
11.896,Upwind,48.995,0.001,48.995,0.001,3.699,3.699,33.744,0.004,0.000,0.444,0.000,0.0000,0.0620,0.0000,1.0000,0.5000,1.0000,0.0000
12.095,Upwind,52.543,0.001,52.543,0.001,3.700,3.700,35.006,0.004,0.000,0.443,0.000,0.0000,0.0619,0.0000,1.0000,0.5000,1.0000,0.0000
12.289,Upwind,56.220,0.001,56.220,0.001,3.701,3.701,36.266,0.005,0.000,0.442,0.000,0.0000,0.0617,0.0000,1.0000,0.5000,1.0000,0.0000
12.488,Upwind,60.027,0.001,60.027,0.001,3.702,3.702,37.524,0.005,0.000,0.441,0.000,0.0000,0.0616,0.0000,1.0000,0.5000,1.0000,0.0000
12.690,Upwind,63.964,0.001,63.964,0.001,3.703,3.703,38.781,0.005,0.000,0.439,0.000,0.0000,0.0614,0.0000,1.0000,0.5000,1.0000,0.0000
12.891,Upwind,68.029,0.001,68.029,0.001,3.704,3.704,40.037,0.005,0.000,0.438,0.000,0.0000,0.0612,0.0000,1.0000,0.5000,1.0000,0.0000
13.094,Upwind,72.224,0.001,72.224,0.001,3.705,3.705,41.290,0.006,0.000,0.437,0.000,0.0000,0.0610,0.0000,1.0000,0.5000,1.0000,0.0000
13.292,Upwind,76.548,0.001,76.548,0.001,3.706,3.706,42.542,0.006,0.000,0.435,0.000,0.0000,0.0608,0.0000,1.0000,0.5000,1.0000,0.0000
13.486,Upwind,81.000,0.001,81.000,0.001,3.707,3.707,43.793,0.006,0.000,0.434,0.000,0.0000,0.0606,0.0000,1.0000,0.5000,1.0000,0.0000
13.687,Upwind,85.581,0.001,85.581,0.001,3.708,3.708,45.041,0.006,0.000,0.432,0.000,0.0000,0.0603,0.0000,1.0000,0.5000,1.0000,0.0000
13.889,Upwind,90.290,0.002,90.290,0.002,3.710,3.710,46.288,0.007,0.000,0.430,0.000,0.0000,0.0601,0.0000,1.0000,0.5000,1.0000,0.0000
14.087,Upwind,95.128,0.002,95.128,0.002,3.711,3.711,47.532,0.007,0.000,0.429,0.000,0.0000,0.0598,0.0000,1.0000,0.5000,1.0000,0.0000
14.290,Upwind,100.093,0.002,100.093,0.002,3.713,3.713,48.775,0.008,0.000,0.427,0.000,0.0000,0.0595,0.0000,1.0000,0.5000,1.0000,0.0000
14.492,Upwind,105.186,0.002,105.186,0.002,3.714,3.714,50.016,0.008,0.001,0.425,0.000,0.0000,0.0592,0.0000,1.0000,0.5000,1.0000,0.0000
14.696,Upwind,110.407,0.002,110.407,0.002,3.716,3.716,51.254,0.009,0.001,0.422,0.000,0.0000,0.0589,0.0000,1.0000,0.5000,1.0000,0.0000
14.894,Upwind,115.755,0.002,115.755,0.002,3.718,3.718,52.491,0.009,0.001,0.420,0.000,0.0000,0.0586,0.0000,1.0000,0.5000,1.0000,0.0000
15.086,Upwind,121.230,0.003,121.230,0.003,3.719,3.719,53.725,0.009,0.001,0.418,0.000,0.0000,0.0583,0.0000,1.0000,0.5000,1.0000,0.0000
15.288,Upwind,126.832,0.003,126.832,0.003,3.721,3.721,54.957,0.010,0.001,0.416,0.000,0.0000,0.0579,0.0000,1.0000,0.5000,1.0000,0.0000
15.493,Upwind,132.560,0.003,132.560,0.003,3.723,3.723,56.187,0.010,0.001,0.413,0.000,0.0000,0.0576,0.0000,1.0000,0.5000,1.0000,0.0000
15.695,Upwind,138.415,0.003,138.415,0.003,3.725,3.725,57.414,0.011,0.001,0.410,0.000,0.0000,0.0572,0.0000,1.0000,0.5000,1.0000,0.0000
15.885,Upwind,144.396,0.004,144.396,0.004,3.727,3.727,58.639,0.011,0.001,0.408,0.000,0.0000,0.0568,0.0000,1.0000,0.5000,1.0000,0.0000
16.090,Upwind,150.503,0.004,150.503,0.004,3.729,3.729,59.861,0.010,0.001,0.405,0.000,0.0000,0.0564,0.0000,1.0000,0.5000,1.0000,0.0000
16.291,Upwind,156.736,0.004,156.736,0.004,3.731,3.731,60.980,0.009,0.001,0.403,0.000,0.0000,0.0562,0.0000,1.0000,0.5000,1.0000,0.0000
16.494,Upwind,163.094,0.005,163.094,0.005,3.733,3.733,62.300,0.008,0.001,0.400,0.000,-0.0001,0.0559,0.0000,1.0000,0.5000,1.0000,0.0000
16.697,Upwind,169.577,0.005,169.577,0.005,3.735,3.735,63.516,0.008,0.001,0.398,0.000,-0.0001,0.0555,0.0000,1.0000,0.5000,1.0000,0.0000
16.886,Upwind,176.185,0.005,176.185,0.005,3.736,3.736,64.730,0.009,0.001,0.396,0.000,-0.0001,0.0552,0.0000,1.0000,0.5000,1.0000,0.0000
17.087,Upwind,182.919,0.006,182.919,0.006,3.738,3.738,65.942,0.009,0.001,0.394,0.000,-0.0001,0.0549,0.0000,1.0000,0.5000,1.0000,0.0000
17.286,Upwind,189.776,0.006,189.776,0.006,3.740,3.740,67.152,0.009,0.002,0.392,0.000,-0.0001,0.0546,0.0000,1.0000,0.5000,1.0000,0.0000
17.490,Upwind,196.758,0.007,196.758,0.007,3.742,3.742,68.359,0.009,0.002,0.389,0.000,-0.0001,0.0543,0.0000,1.0000,0.5000,1.0000,0.0000
17.692,Upwind,203.864,0.007,203.864,0.007,3.743,3.743,69.564,0.009,0.002,0.387,0.000,-0.0001,0.0539,0.0000,1.0000,0.5000,1.0000,0.0000
17.893,Upwind,211.094,0.007,211.094,0.007,3.745,3.745,70.767,0.009,0.002,0.384,0.000,-0.0001,0.0536,0.0000,1.0000,0.5000,1.0000,0.0000
18.094,Upwind,218.448,0.008,218.448,0.008,3.747,3.747,71.967,0.010,0.002,0.382,0.000,-0.0001,0.0532,0.0000,1.0000,0.5000,1.0000,0.0000
18.296,Upwind,225.924,0.009,225.924,0.009,3.749,3.749,73.166,0.010,0.002,0.380,0.000,-0.0001,0.0529,0.0000,1.0000,0.5000,1.0000,0.0000
18.495,Upwind,233.525,0.009,233.525,0.009,3.751,3.751,74.362,0.010,0.002,0.377,0.000,-0.0001,0.0525,0.0000,1.0000,0.5000,1.0000,0.0000
18.691,Upwind,241.248,0.010,241.248,0.010,3.753,3.753,75.555,0.010,0.003,0.375,0.000,-0.0001,0.0522,0.0000,1.0000,0.5000,1.0000,0.0000
18.892,Upwind,249.093,0.010,249.093,0.010,3.755,3.755,76.746,0.010,0.003,0.372,0.000,-0.0001,0.0518,0.0000,1.0000,0.5000,1.0000,0.0000
19.093,Upwind,257.061,0.011,257.061,0.011,3.757,3.757,77.935,0.010,0.003,0.369,0.000,-0.0001,0.0515,0.0000,1.0000,0.5000,1.0000,0.0000
19.287,Upwind,265.152,0.012,265.152,0.012,3.759,3.759,79.122,0.010,0.003,0.367,0.000,-0.0001,0.0511,0.0000,1.0000,0.5000,1.0000,0.0000
19.486,Upwind,273.364,0.013,273.364,0.013,3.761,3.761,80.306,0.010,0.003,0.364,0.000,-0.0001,0.0507,0.0000,1.0000,0.5000,1.0000,0.0000
19.688,Upwind,281.698,0.013,281.698,0.013,3.763,3.763,81.487,0.011,0.003,0.361,0.000,-0.0001,0.0503,0.0000,1.0000,0.5000,1.0000,0.0000
19.888,Upwind,290.153,0.014,290.153,0.014,3.765,3.765,82.666,0.011,0.004,0.359,0.000,-0.0001,0.0500,0.0000,1.0000,0.5000,1.0000,0.0000
20.090,Upwind,298.729,0.015,298.729,0.015,3.767,3.767,83.843,0.011,0.004,0.356,0.000,-0.0001,0.0496,0.0000,1.0000,0.5000,1.0000,0.0000
20.293,Upwind,307.427,0.016,307.427,0.016,3.769,3.769,85.017,0.011,0.004,0.353,0.000,-0.0002,0.0492,0.0000,1.0000,0.5000,1.0000,0.0000
20.495,Upwind,316.245,0.017,316.245,0.017,3.772,3.772,86.188,0.011,0.004,0.350,0.000,-0.0002,0.0488,0.0000,1.0000,0.5000,1.0000,0.0000
20.699,Upwind,325.183,0.018,325.183,0.018,3.774,3.774,87.357,0.011,0.005,0.348,0.000,-0.0002,0.0484,0.0000,1.0000,0.5000,1.0000,0.0000
20.892,Upwind,334.242,0.019,334.242,0.019,3.776,3.776,88.524,0.011,0.005,0.345,0.000,-0.0002,0.0480,0.0000,1.0000,0.5000,1.0000,0.0000
21.097,Upwind,343.420,0.020,343.420,0.020,3.778,3.778,89.687,0.011,0.005,0.342,0.000,-0.0002,0.0476,0.0000,1.0000,0.5000,1.0000,0.0000
21.287,Upwind,352.718,0.022,352.718,0.022,3.781,3.781,90.849,0.012,0.005,0.339,0.000,-0.0002,0.0472,0.0000,1.0000,0.5000,1.0000,0.0000
21.486,Upwind,362.135,0.023,362.135,0.023,3.783,3.783,92.007,0.012,0.006,0.336,0.000,-0.0002,0.0467,0.0000,1.0000,0.5000,1.0000,0.0000
21.697,Upwind,371.672,0.024,371.672,0.024,3.785,3.785,93.163,0.012,0.006,0.333,0.000,-0.0002,0.0463,0.0000,1.0000,0.5000,1.0000,0.0000
21.888,Upwind,381.327,0.026,381.327,0.026,3.788,3.788,94.317,0.012,0.006,0.330,0.000,-0.0002,0.0459,0.0000,1.0000,0.5000,1.0000,0.0000
22.092,Upwind,391.101,0.027,391.101,0.027,3.790,3.790,95.467,0.012,0.006,0.327,0.000,-0.0002,0.0455,0.0000,1.0000,0.5000,1.0000,0.0000
22.295,Upwind,400.993,0.029,400.993,0.029,3.792,3.792,96.615,0.012,0.007,0.324,0.000,-0.0002,0.0451,0.0000,1.0000,0.5000,1.0000,0.0000
22.486,Upwind,411.002,0.030,411.002,0.030,3.795,3.795,97.760,0.012,0.007,0.321,0.000,-0.0003,0.0446,0.0000,1.0000,0.5000,1.0000,0.0000
22.696,Upwind,421.130,0.032,421.130,0.032,3.797,3.797,98.903,0.012,0.007,0.318,0.000,-0.0003,0.0442,0.0000,1.0000,0.5000,1.0000,0.0000
22.888,Upwind,431.375,0.034,431.375,0.034,3.800,3.800,100.043,0.012,0.008,0.315,0.000,-0.0003,0.0437,0.0000,1.0000,0.5000,1.0000,0.0000
23.092,Upwind,441.737,0.036,441.737,0.036,3.802,3.802,101.180,0.013,0.008,0.312,0.000,-0.0003,0.0433,0.0000,1.0000,0.5000,1.0000,0.0000
23.286,Upwind,452.216,0.038,452.216,0.038,3.805,3.805,102.314,0.013,0.008,0.308,0.000,-0.0003,0.0429,0.0000,1.0000,0.5000,1.0000,0.0000
23.486,Upwind,462.811,0.040,462.811,0.040,3.807,3.807,103.446,0.013,0.009,0.305,0.000,-0.0003,0.0424,0.0000,1.0000,0.5000,1.0000,0.0000
23.687,Upwind,473.523,0.042,473.523,0.042,3.810,3.810,104.574,0.013,0.009,0.302,0.000,-0.0003,0.0420,0.0000,1.0000,0.5000,1.0000,0.0000
23.888,Upwind,484.351,0.044,484.351,0.044,3.812,3.812,105.700,0.013,0.009,0.299,0.000,-0.0003,0.0415,0.0000,1.0000,0.5000,1.0000,0.0000
24.095,Upwind,495.294,0.046,495.294,0.046,3.815,3.815,106.823,0.013,0.010,0.296,0.000,-0.0004,0.0411,0.0000,1.0000,0.5000,1.0000,0.0000
24.285,Upwind,506.353,0.049,506.353,0.049,3.817,3.817,107.944,0.013,0.010,0.292,0.000,-0.0004,0.0406,0.0000,1.0000,0.5000,1.0000,0.0000
24.494,Upwind,517.527,0.051,517.527,0.051,3.820,3.820,109.061,0.013,0.011,0.289,0.000,-0.0004,0.0401,0.0000,1.0000,0.5000,1.0000,0.0000
24.692,Upwind,528.815,0.054,528.815,0.054,3.823,3.823,110.176,0.013,0.011,0.286,0.000,-0.0004,0.0397,0.0000,1.0000,0.5000,1.0000,0.0000
24.893,Upwind,540.218,0.057,540.218,0.057,3.825,3.825,111.287,0.013,0.011,0.282,0.000,-0.0004,0.0392,0.0000,1.0000,0.5000,1.0000,0.0000
25.087,Upwind,551.736,0.060,551.736,0.060,3.828,3.828,112.396,0.013,0.012,0.279,0.000,-0.0004,0.0387,0.0000,1.0000,0.5000,1.0000,0.0000
25.291,Upwind,563.367,0.063,563.367,0.063,3.831,3.831,113.502,0.014,0.012,0.276,0.000,-0.0005,0.0382,0.0000,1.0000,0.5000,1.0000,0.0000
25.494,Upwind,575.112,0.066,575.112,0.066,3.833,3.833,114.605,0.014,0.013,0.272,0.000,-0.0005,0.0378,0.0000,1.0000,0.5000,1.0000,0.0000
25.695,Upwind,586.970,0.069,586.970,0.069,3.836,3.836,115.705,0.014,0.013,0.269,0.000,-0.0005,0.0373,0.0000,1.0000,0.5000,1.0000,0.0000
25.886,Upwind,598.941,0.072,598.941,0.072,3.839,3.839,116.802,0.014,0.014,0.265,0.000,-0.0005,0.0368,0.0000,1.0000,0.5000,1.0000,0.0000
26.092,Upwind,611.025,0.076,611.025,0.076,3.842,3.842,117.896,0.014,0.014,0.262,0.000,-0.0005,0.0363,0.0000,1.0000,0.5000,1.0000,0.0000
26.289,Upwind,623.221,0.079,623.221,0.079,3.844,3.844,118.987,0.014,0.015,0.258,0.000,-0.0005,0.0358,0.0000,1.0000,0.5000,1.0000,0.0000
26.496,Upwind,635.530,0.083,635.530,0.083,3.847,3.847,120.075,0.014,0.015,0.255,0.000,-0.0006,0.0353,0.0000,1.0000,0.5000,1.0000,0.0000
26.688,Upwind,647.950,0.087,647.950,0.087,3.850,3.850,121.160,0.014,0.016,0.251,0.000,-0.0006,0.0349,0.0000,1.0000,0.5000,1.0000,0.0000
26.891,Upwind,660.481,0.091,660.481,0.091,3.853,3.853,122.243,0.014,0.016,0.248,0.000,-0.0006,0.0344,0.0000,1.0000,0.5000,1.0000,0.0000
27.091,Upwind,673.124,0.095,673.124,0.095,3.855,3.856,123.322,0.014,0.017,0.244,0.000,-0.0006,0.0339,0.0000,1.0000,0.5000,1.0000,0.0000
27.291,Upwind,685.878,0.099,685.878,0.099,3.858,3.858,124.398,0.014,0.017,0.241,0.000,-0.0006,0.0334,0.0000,1.0000,0.5000,1.0000,0.0000
27.490,Upwind,698.742,0.104,698.742,0.104,3.861,3.861,125.471,0.014,0.018,0.237,0.000,-0.0007,0.0329,0.0000,1.0000,0.5000,1.0000,0.0000
27.693,Upwind,711.717,0.108,711.717,0.108,3.864,3.864,126.541,0.014,0.018,0.234,0.000,-0.0007,0.0324,0.0000,1.0000,0.5000,1.0000,0.0000
27.892,Upwind,724.801,0.113,724.801,0.113,3.867,3.867,127.608,0.014,0.019,0.230,0.000,-0.0007,0.0319,0.0000,1.0000,0.5000,1.0000,0.0000
28.090,Upwind,737.995,0.118,737.995,0.118,3.870,3.870,128.672,0.015,0.019,0.227,0.000,-0.0007,0.0314,0.0000,1.0000,0.5000,1.0000,0.0000
28.294,Upwind,751.298,0.123,751.298,0.123,3.873,3.873,129.732,0.015,0.020,0.223,0.000,-0.0008,0.0309,0.0000,1.0000,0.5000,1.0000,0.0000
28.486,Upwind,764.710,0.129,764.710,0.129,3.876,3.876,130.790,0.015,0.020,0.219,0.000,-0.0008,0.0303,0.0000,1.0000,0.5000,1.0000,0.0000
28.688,Upwind,778.231,0.134,778.231,0.134,3.879,3.879,131.845,0.015,0.021,0.216,0.000,-0.0008,0.0298,0.0000,1.0000,0.5000,1.0000,0.0000
28.891,Upwind,791.860,0.140,791.860,0.140,3.881,3.881,132.896,0.015,0.021,0.212,0.000,-0.0008,0.0293,0.0000,1.0000,0.5000,1.0000,0.0000
29.093,Upwind,805.597,0.146,805.597,0.146,3.884,3.884,133.945,0.015,0.022,0.208,0.000,-0.0008,0.0288,0.0000,1.0000,0.5000,1.0000,0.0000
29.296,Upwind,819.442,0.152,819.442,0.152,3.887,3.887,134.992,0.015,0.023,0.205,-0.001,-0.0009,0.0283,0.0000,1.0000,0.5000,1.0000,0.0000
29.496,Upwind,833.395,0.158,833.395,0.158,3.890,3.890,136.035,0.015,0.023,0.201,-0.001,-0.0009,0.0278,0.0000,1.0000,0.5000,1.0000,0.0000
29.688,Upwind,847.455,0.164,847.455,0.164,3.893,3.893,137.076,0.015,0.024,0.197,-0.001,-0.0009,0.0273,0.0000,1.0000,0.5000,1.0000,0.0000
29.889,Upwind,861.621,0.171,861.621,0.171,3.896,3.896,138.115,0.015,0.024,0.194,-0.001,-0.0009,0.0267,0.0000,1.0000,0.5000,1.0000,0.0000
30.090,Upwind,875.895,0.178,875.895,0.178,3.899,3.899,139.150,0.015,0.025,0.190,-0.001,-0.0010,0.0262,0.0000,1.0000,0.5000,1.0000,0.0000
30.293,Upwind,890.274,0.184,890.274,0.184,3.902,3.902,140.183,0.015,0.026,0.186,-0.001,-0.0010,0.0257,0.0000,1.0000,0.5000,1.0000,0.0000
30.494,Upwind,904.760,0.192,904.760,0.192,3.905,3.905,141.214,0.015,0.026,0.182,-0.001,-0.0010,0.0252,0.0000,1.0000,0.5000,1.0000,0.0000
30.697,Upwind,919.352,0.199,919.352,0.199,3.908,3.908,142.241,0.015,0.027,0.179,-0.001,-0.0011,0.0246,0.0000,1.0000,0.5000,1.0000,0.0000
30.894,Upwind,934.049,0.207,934.049,0.207,3.911,3.912,143.266,0.015,0.027,0.175,-0.001,-0.0011,0.0241,0.0000,1.0000,0.5000,1.0000,0.0000
31.090,Upwind,948.852,0.215,948.852,0.215,3.915,3.915,144.289,0.015,0.028,0.171,-0.001,-0.0011,0.0236,0.0000,1.0000,0.5000,1.0000,0.0000
31.289,Upwind,963.760,0.223,963.760,0.223,3.918,3.918,145.308,0.015,0.029,0.167,-0.001,-0.0011,0.0231,0.0000,1.0000,0.5000,1.0000,0.0000
31.495,Upwind,978.772,0.231,978.772,0.231,3.921,3.921,146.325,0.016,0.029,0.164,-0.001,-0.0012,0.0225,0.0000,1.0000,0.5000,1.0000,0.0000
31.691,Upwind,993.889,0.239,993.889,0.239,3.924,3.924,147.339,0.016,0.030,0.160,-0.001,-0.0012,0.0220,0.0000,1.0000,0.5000,1.0000,0.0000
31.891,Upwind,1009.110,0.248,1009.110,0.248,3.927,3.927,148.350,0.016,0.031,0.156,-0.001,-0.0012,0.0215,0.0000,1.0000,0.5000,1.0000,0.0000
32.092,Upwind,1024.435,0.257,1024.435,0.257,3.930,3.930,149.359,0.016,0.031,0.152,-0.001,-0.0013,0.0209,0.0000,1.0000,0.5000,1.0000,0.0000
32.290,Upwind,1039.863,0.266,1039.863,0.266,3.932,3.933,150.358,-0.022,0.032,0.152,-0.001,-0.0013,-0.6500,0.0000,1.0000,0.5000,1.0000,0.0000
32.488,Upwind,1055.392,0.276,1055.392,0.276,3.917,3.917,151.327,-0.058,0.033,0.282,-0.001,-0.0013,-0.6500,0.0000,1.0000,0.5000,1.0000,0.0000
32.691,Upwind,1071.021,0.285,1071.021,0.285,3.925,3.925,152.289,0.127,0.033,0.505,-0.001,-0.0014,-0.6500,0.0000,1.0000,0.5000,1.0000,0.0000
32.888,Upwind,1086.748,0.295,1086.748,0.295,3.957,3.957,153.246,0.176,0.034,0.813,-0.001,-0.0014,-0.6500,0.0000,1.0000,0.5000,1.0000,0.0000
33.089,Upwind,1102.573,0.305,1102.573,0.305,3.995,3.995,154.196,0.200,0.035,1.206,-0.001,-0.0014,-0.6500,0.0000,1.0000,0.5000,1.0000,0.0000
33.286,Upwind,1118.495,0.316,1118.495,0.316,4.038,4.038,155.139,0.232,0.036,1.680,-0.001,-0.0015,-0.6500,0.0000,1.0000,0.5000,1.0000,0.0000
33.486,Upwind,1134.514,0.327,1134.514,0.327,4.088,4.088,156.074,0.266,0.037,2.231,-0.001,-0.0015,-0.6500,0.0000,1.0000,0.5000,1.0000,0.0000
33.692,Upwind,1150.629,0.338,1150.629,0.338,4.144,4.144,156.998,0.297,0.038,2.854,-0.002,-0.0015,-0.6500,0.0000,1.0000,0.5000,1.0000,0.0000
33.889,Upwind,1166.838,0.349,1166.838,0.349,4.206,4.206,157.910,0.325,0.038,3.543,-0.002,-0.0016,-0.6500,0.0000,1.0000,0.5000,1.0000,0.0000
34.096,Upwind,1183.140,0.360,1183.140,0.360,4.274,4.274,158.809,0.355,0.039,4.292,-0.002,-0.0016,-0.6500,0.0000,1.0000,0.5000,1.0000,0.0000
34.293,Upwind,1199.534,0.372,1199.534,0.372,4.370,4.370,159.688,0.694,0.040,5.086,-0.003,-0.0015,-0.6500,0.0000,1.0000,0.5000,1.0000,0.0000
34.496,Upwind,1216.016,0.385,1216.016,0.385,4.581,4.581,160.538,1.486,0.041,5.894,-0.005,-0.0014,-0.6500,0.0000,1.0000,0.5000,1.0000,0.0000
34.694,Upwind,1232.583,0.397,1232.583,0.397,4.991,4.991,161.353,2.678,0.042,6.689,-0.009,-0.0012,-0.6500,0.0000,1.0000,0.5000,1.0000,0.0000
34.886,Upwind,1249.232,0.410,1249.232,0.410,5.675,5.675,162.130,4.205,0.042,7.452,-0.013,-0.0010,-0.6500,0.0000,1.0000,0.5000,1.0000,0.0000
35.087,Upwind,1265.956,0.423,1265.956,0.423,6.691,6.691,162.865,5.992,0.043,8.170,-0.018,-0.0009,-0.6500,0.0000,1.0000,0.5000,1.0000,0.0000
35.287,Upwind,1282.751,0.436,1282.751,0.436,8.084,8.084,163.556,7.962,0.043,8.837,-0.022,-0.0008,-0.6500,0.0000,1.0000,0.5000,1.0000,0.0000
35.491,Upwind,1299.611,0.449,1299.611,0.449,9.883,9.883,164.202,10.043,0.043,9.453,-0.027,-0.0006,-0.6500,0.0000,1.0000,0.5000,1.0000,0.0000
35.694,Upwind,1316.530,0.462,1316.530,0.462,12.107,12.107,164.801,12.207,0.043,10.020,-0.031,-0.0005,-0.6500,0.0000,1.0000,0.5000,1.0000,0.0000
35.890,Upwind,1333.503,0.475,1333.503,0.475,14.769,14.769,165.355,14.425,0.043,10.543,-0.034,-0.0004,-0.6500,0.0000,1.0000,0.5000,1.0000,0.0000
36.092,Upwind,1350.525,0.489,1350.525,0.489,17.878,17.878,165.867,16.663,0.043,11.030,-0.037,-0.0003,-0.6089,0.0000,1.0000,0.5000,1.0000,0.0000
36.290,Upwind,1367.589,0.502,1367.589,0.502,21.436,21.436,166.340,18.917,0.042,11.468,-0.040,-0.0003,-0.5195,0.0000,1.0000,0.5000,1.0000,0.0000
36.487,Upwind,1384.691,0.515,1384.691,0.515,25.442,25.442,166.779,21.139,0.042,11.817,-0.042,-0.0002,-0.4530,0.0000,1.0000,0.5000,1.0000,0.0000
36.699,Upwind,1401.828,0.528,1401.828,0.528,29.886,29.886,167.187,23.281,0.041,12.054,-0.043,-0.0002,-0.4122,0.0000,1.0000,0.5000,1.0000,0.0000
36.895,Upwind,1418.996,0.541,1418.996,0.541,34.745,34.745,167.570,25.279,0.040,12.178,-0.045,-0.0001,-0.3950,0.0000,1.0000,0.5000,1.0000,0.0000
37.086,Upwind,1436.194,0.554,1436.194,0.554,39.987,39.987,167.932,27.105,0.040,12.206,-0.046,-0.0001,-0.3961,0.0000,1.0000,0.5000,1.0000,0.0000
37.297,Upwind,1453.419,0.567,1453.419,0.567,45.574,45.574,168.276,28.733,0.039,12.170,-0.047,-0.0001,-0.4085,0.0000,1.0000,0.5000,1.0000,0.0000
37.489,Upwind,1470.670,0.580,1470.670,0.580,51.467,51.467,168.607,30.164,0.038,12.101,-0.047,-0.0001,-0.4248,0.0000,1.0000,0.5000,1.0000,0.0000
37.690,Upwind,1487.948,0.593,1487.948,0.593,57.627,57.627,168.926,31.410,0.038,12.032,-0.048,0.0000,-0.4387,0.0000,1.0000,0.5000,1.0000,0.0000
37.893,Upwind,1505.253,0.605,1505.253,0.605,64.020,64.020,169.235,32.500,0.037,11.985,-0.048,0.0000,-0.4459,0.0000,1.0000,0.5000,1.0000,0.0000
38.086,Upwind,1522.583,0.618,1522.583,0.618,70.619,70.620,169.535,33.477,0.037,11.974,-0.049,0.0000,-0.4444,0.0000,1.0000,0.5000,1.0000,0.0000
38.289,Upwind,1539.939,0.630,1539.939,0.630,77.406,77.406,169.827,34.378,0.036,12.003,-0.049,0.0000,-0.4344,0.0000,1.0000,0.5000,1.0000,0.0000
38.491,Upwind,1557.321,0.642,1557.321,0.642,84.367,84.368,170.111,35.231,0.036,12.066,-0.049,0.0000,-0.4178,0.0000,1.0000,0.5000,1.0000,0.0000
38.691,Upwind,1574.726,0.654,1574.726,0.654,91.497,91.497,170.387,36.063,0.035,12.153,-0.050,0.0000,-0.3973,0.0000,1.0000,0.5000,1.0000,0.0000
38.895,Upwind,1592.155,0.666,1592.155,0.666,98.792,98.792,170.654,36.885,0.035,12.249,-0.050,0.0000,-0.3759,0.0000,1.0000,0.5000,1.0000,0.0000
39.089,Upwind,1609.607,0.678,1609.607,0.678,106.251,106.251,170.911,37.700,0.034,12.343,-0.050,0.0000,-0.3562,0.0000,1.0000,0.5000,1.0000,0.0000
39.288,Upwind,1627.080,0.689,1627.080,0.689,113.872,113.872,171.160,38.510,0.034,12.424,-0.050,0.0000,-0.3401,0.0000,1.0000,0.5000,1.0000,0.0000
39.492,Upwind,1644.575,0.701,1644.575,0.701,121.653,121.654,171.401,39.302,0.034,12.485,-0.050,0.0000,-0.3286,0.0000,1.0000,0.5000,1.0000,0.0000
39.691,Upwind,1662.089,0.712,1662.089,0.712,129.591,129.591,171.633,40.067,0.033,12.526,-0.051,0.0000,-0.3215,0.0000,1.0000,0.5000,1.0000,0.0000
39.893,Upwind,1679.622,0.724,1679.622,0.724,137.677,137.678,171.859,40.794,0.033,12.548,-0.051,0.0000,-0.3181,0.0000,1.0000,0.5000,1.0000,0.0000
40.094,Upwind,1697.175,0.735,1697.175,0.735,145.905,145.906,172.077,41.476,0.033,12.557,-0.051,0.0000,-0.3172,0.0000,1.0000,0.5000,1.0000,0.0000
40.292,Upwind,1714.747,0.746,1714.747,0.746,154.265,154.265,172.291,42.111,0.033,12.558,-0.051,0.0000,-0.3174,0.0000,1.0000,0.5000,0.0000,0.0000
40.494,Upwind,1732.337,0.756,1732.337,0.756,162.746,162.747,172.500,42.700,0.032,12.557,-0.051,0.0000,-0.3175,0.0000,1.0000,0.5000,0.0000,0.0000
40.687,Upwind,1749.946,0.767,1749.946,0.767,171.342,171.343,172.708,43.250,0.032,12.559,-0.051,-0.0001,-0.3167,0.0000,1.0000,0.5000,0.0000,0.0000
40.890,Upwind,1767.574,0.778,1767.574,0.778,180.044,180.045,172.913,43.766,0.032,12.566,-0.050,-0.0001,-0.3146,0.0000,0.9994,0.5000,0.0000,0.0000
41.088,Upwind,1785.221,0.788,1785.221,0.788,188.846,188.847,173.112,44.253,0.032,12.579,-0.050,-0.0001,-0.3111,0.0000,0.9966,0.5000,0.0000,0.0000
41.286,Upwind,1802.886,0.799,1802.886,0.799,196.999,197.000,173.286,44.680,0.031,12.596,-0.050,-0.0001,-0.3069,0.0000,0.9941,0.5000,0.0000,0.0000
41.495,Upwind,1820.568,0.809,1820.568,0.809,206.732,206.733,173.483,45.164,0.031,12.620,-0.051,-0.0001,-0.3014,0.0000,0.9914,0.5000,0.0000,0.0000
41.694,Upwind,1838.267,0.819,1838.267,0.819,215.808,215.809,173.657,45.594,0.030,12.644,-0.051,-0.0001,-0.2960,0.0000,0.9889,0.5000,0.0000,0.0000
41.889,Upwind,1855.982,0.829,1855.982,0.829,224.969,224.970,173.823,46.010,0.030,12.667,-0.051,0.0000,-0.2911,0.0000,0.9866,0.5000,0.0000,0.0000
42.090,Upwind,1873.712,0.839,1873.712,0.839,234.211,234.212,173.982,46.411,0.030,12.688,-0.051,-0.0001,-0.2868,0.0000,0.9844,0.5000,0.0000,0.0000
42.290,Upwind,1891.457,0.849,1891.457,0.849,243.532,243.533,174.135,46.796,0.029,12.705,-0.051,-0.0001,-0.2834,0.0000,0.9823,0.5000,0.0000,0.0000
42.495,Upwind,1909.217,0.858,1909.217,0.858,252.928,252.929,174.281,47.164,0.029,12.719,-0.051,-0.0001,-0.2809,0.0000,0.9802,0.5000,0.0000,0.0000
42.685,Upwind,1926.990,0.868,1926.990,0.868,262.396,262.397,174.421,47.514,0.028,12.728,-0.051,-0.0001,-0.2790,0.0000,0.9782,0.5000,0.0000,0.0000
42.889,Upwind,1944.777,0.877,1944.777,0.877,271.932,271.933,174.556,47.845,0.028,12.735,-0.051,-0.0001,-0.2778,0.0000,0.9764,0.5000,0.0000,0.0000
43.089,Upwind,1962.576,0.887,1962.576,0.887,281.533,281.534,174.686,48.157,0.027,12.740,-0.051,-0.0001,-0.2768,0.0000,0.9745,0.5000,0.0000,0.0000
43.289,Upwind,1980.389,0.896,1980.389,0.896,290.386,290.388,174.801,48.428,0.027,12.744,-0.051,-0.0001,-0.2760,0.0000,0.9729,0.5000,0.0000,0.0000
43.486,Upwind,1998.214,0.905,1998.214,0.905,300.912,300.914,174.933,48.730,0.027,12.749,-0.051,0.0000,-0.2749,0.0000,0.9711,0.5000,0.0000,0.0000
43.687,Upwind,2016.052,0.914,2016.052,0.914,310.684,310.686,175.050,48.993,0.026,12.753,-0.051,0.0000,-0.2737,0.0000,0.9694,0.5000,0.0000,0.0000
43.888,Upwind,2033.901,0.922,2033.901,0.922,320.508,320.510,175.164,49.242,0.026,12.759,-0.051,0.0000,-0.2724,0.0000,0.9678,0.5000,0.0000,0.0000
44.094,Upwind,2051.763,0.931,2051.763,0.931,330.381,330.382,175.274,49.481,0.025,12.766,-0.051,-0.0001,-0.2709,0.0000,0.9663,0.5000,0.0000,0.0000
44.295,Upwind,2069.635,0.940,2069.635,0.940,340.300,340.301,175.380,49.708,0.025,12.773,-0.051,-0.0001,-0.2694,0.0000,0.9648,0.5000,0.0000,0.0000
44.490,Upwind,2087.520,0.948,2087.520,0.948,350.263,350.265,175.484,49.927,0.025,12.780,-0.051,0.0000,-0.2679,0.0000,0.9634,0.5000,0.0000,0.0000
44.692,Upwind,2105.415,0.956,2105.415,0.956,360.270,360.272,175.584,50.137,0.024,12.786,-0.051,0.0000,-0.2664,0.0000,0.9620,0.5000,0.0000,0.0000
44.897,Upwind,2123.321,0.964,2123.321,0.964,370.317,370.319,175.682,50.339,0.024,12.792,-0.051,0.0000,-0.2652,0.0000,0.9606,0.5000,0.0000,0.0000
45.086,Upwind,2141.238,0.972,2141.238,0.972,380.405,380.406,175.777,50.532,0.024,12.797,-0.051,0.0000,-0.2641,0.0000,0.9593,0.5000,0.0000,0.0000
45.298,Upwind,2159.165,0.980,2159.165,0.980,390.530,390.532,175.870,50.718,0.023,12.802,-0.051,-0.0001,-0.2633,0.0000,0.9580,0.5000,0.0000,0.0000
45.486,Upwind,2177.102,0.988,2177.102,0.988,400.691,400.693,175.958,50.895,0.023,12.805,-0.051,-0.0001,-0.2626,0.0000,0.9567,0.5000,0.0000,0.0000
45.694,Upwind,2195.050,0.996,2195.050,0.996,410.887,410.889,176.042,51.063,0.022,12.809,-0.051,-0.0001,-0.2618,0.0000,0.9556,0.5000,0.0000,0.0000
45.893,Upwind,2213.007,1.003,2213.007,1.003,421.116,421.118,176.121,51.223,0.022,12.812,-0.051,0.0000,-0.2609,0.0000,0.9544,0.5000,0.0000,0.0000
46.087,Upwind,2230.973,1.011,2230.973,1.011,431.376,431.378,176.197,51.377,0.022,12.816,-0.051,0.0000,-0.2600,0.0000,0.9534,0.5000,0.0000,0.0000
46.287,Upwind,2248.948,1.018,2248.948,1.018,441.666,441.668,176.268,51.524,0.021,12.821,-0.051,0.0000,-0.2589,0.0000,0.9524,0.5000,0.0000,0.0000
46.493,Upwind,2266.931,1.025,2266.931,1.025,451.985,451.987,176.335,51.665,0.021,12.826,-0.051,-0.0001,-0.2577,0.0000,0.9514,0.5000,0.0000,0.0000
46.686,Upwind,2284.923,1.032,2284.923,1.032,462.331,462.333,176.399,51.801,0.021,12.832,-0.051,-0.0001,-0.2564,0.0000,0.9505,0.5000,0.0000,0.0000
46.895,Upwind,2302.922,1.039,2302.922,1.039,472.705,472.707,176.460,51.932,0.020,12.838,-0.051,-0.0001,-0.2552,0.0000,0.9497,0.5000,0.0000,0.0000
47.090,Upwind,2320.929,1.046,2320.929,1.046,483.104,483.106,176.517,52.059,0.020,12.843,-0.051,0.0000,-0.2541,0.0000,0.9489,0.5000,0.0000,0.0000
47.302,Upwind,2338.943,1.053,2338.943,1.053,493.528,493.530,176.570,52.181,0.019,12.848,-0.051,-0.0001,-0.2531,0.0000,0.9482,0.5000,0.0000,0.0000
47.493,Upwind,2356.964,1.059,2356.964,1.059,503.976,503.978,176.621,52.298,0.019,12.852,-0.051,-0.0001,-0.2521,0.0000,0.9474,0.5000,0.0000,0.0000
47.687,Upwind,2374.991,1.066,2374.991,1.066,514.446,514.449,176.669,52.410,0.019,12.856,-0.051,0.0000,-0.2513,0.0000,0.9468,0.5000,0.0000,0.0000
47.897,Upwind,2393.026,1.072,2393.026,1.072,524.939,524.942,176.714,52.518,0.018,12.860,-0.051,0.0000,-0.2506,0.0000,0.9461,0.5000,0.0000,0.0000
48.093,Upwind,2411.066,1.078,2411.066,1.078,535.453,535.456,176.757,52.621,0.018,12.863,-0.051,-0.0001,-0.2500,0.0000,0.9455,0.5000,0.0000,0.0000
48.287,Upwind,2429.113,1.084,2429.113,1.084,545.987,545.990,176.797,52.719,0.017,12.865,-0.051,0.0000,-0.2494,0.0000,0.9450,0.5000,0.0000,0.0000
48.489,Upwind,2447.165,1.090,2447.165,1.090,556.540,556.543,176.835,52.812,0.017,12.868,-0.051,-0.0001,-0.2488,0.0000,0.9444,0.5000,0.0000,0.0000
48.687,Upwind,2465.223,1.096,2465.223,1.096,567.112,567.114,176.871,52.901,0.017,12.871,-0.051,0.0000,-0.2482,0.0000,0.9439,0.5000,0.0000,0.0000
48.895,Upwind,2483.287,1.102,2483.287,1.102,577.700,577.703,176.904,52.987,0.016,12.873,-0.051,-0.0001,-0.2476,0.0000,0.9435,0.5000,0.0000,0.0000
49.089,Upwind,2501.356,1.107,2501.356,1.107,588.306,588.309,176.936,53.068,0.016,12.876,-0.051,0.0000,-0.2470,0.0000,0.9430,0.5000,0.0000,0.0000
49.291,Upwind,2519.430,1.113,2519.430,1.113,598.927,598.930,176.965,53.146,0.016,12.879,-0.051,0.0000,-0.2464,0.0000,0.9426,0.5000,0.0000,0.0000
49.486,Upwind,2537.509,1.118,2537.509,1.118,609.564,609.567,176.993,53.221,0.015,12.881,-0.050,0.0000,-0.2459,0.0000,0.9422,0.5000,0.0000,0.0000
49.697,Upwind,2555.593,1.123,2555.593,1.123,620.215,620.218,177.019,53.292,0.015,12.884,-0.050,0.0000,-0.2453,0.0000,0.9419,0.5000,0.0000,0.0000
49.894,Upwind,2573.681,1.128,2573.681,1.128,630.880,630.884,177.043,53.360,0.014,12.886,-0.050,0.0000,-0.2448,0.0000,0.9415,0.5000,0.0000,0.0000
50.090,Upwind,2591.775,1.133,2591.775,1.133,641.559,641.562,177.066,53.426,0.014,12.889,-0.050,0.0000,-0.2443,0.0000,0.9412,0.5000,0.0000,0.0000
50.297,Upwind,2609.872,1.138,2609.872,1.138,652.250,652.254,177.087,53.488,0.014,12.891,-0.050,0.0000,-0.2439,0.0000,0.9409,0.5000,0.0000,0.0000
50.495,Upwind,2627.974,1.143,2627.974,1.143,662.954,662.957,177.107,53.548,0.013,12.893,-0.050,0.0000,-0.2435,0.0000,0.9406,0.5000,0.0000,0.0000
50.695,Upwind,2646.081,1.148,2646.081,1.148,673.669,673.673,177.126,53.605,0.013,12.894,-0.050,-0.0001,-0.2431,0.0000,0.9404,0.5000,0.0000,0.0000
50.885,Upwind,2662.682,1.152,2662.682,1.152,684.396,684.399,177.143,53.659,0.013,12.896,-0.050,0.0000,-0.2427,0.0000,0.9401,0.5000,0.0000,0.0000
51.086,Upwind,2682.306,1.157,2682.306,1.157,695.133,695.136,177.159,53.711,0.012,12.898,-0.050,0.0000,-0.2424,0.0000,0.9399,0.5000,0.0000,0.0000
51.292,Upwind,2700.424,1.161,2700.424,1.161,705.880,705.883,177.174,53.761,0.012,12.899,-0.050,-0.0001,-0.2421,0.0000,0.9397,0.5000,0.0000,0.0000
51.487,Upwind,2718.546,1.165,2718.546,1.165,716.637,716.640,177.187,53.808,0.012,12.901,-0.049,0.0000,-0.2418,0.0000,0.9395,0.5000,0.0000,0.0000
51.687,Upwind,2736.672,1.169,2736.672,1.169,727.403,727.406,177.200,53.853,0.011,12.902,-0.049,-0.0001,-0.2415,0.0000,0.9393,0.5000,0.0000,0.0000
51.888,Upwind,2754.802,1.173,2754.802,1.173,738.178,738.181,177.212,53.896,0.011,12.903,-0.049,0.0000,-0.2412,0.0000,0.9392,0.5000,0.0000,0.0000
52.097,Upwind,2772.935,1.177,2772.935,1.177,748.961,748.965,177.222,53.937,0.011,12.905,-0.049,0.0000,-0.2409,0.0000,0.9390,0.5000,0.0000,0.0000
52.294,Upwind,2791.072,1.181,2791.072,1.181,759.752,759.756,177.232,53.976,0.010,12.906,-0.049,0.0000,-0.2406,0.0000,0.9389,0.5000,0.0000,0.0000
52.491,Upwind,2809.213,1.185,2809.213,1.185,770.551,770.555,177.241,54.013,0.010,12.907,-0.049,0.0000,-0.2404,0.0000,0.9388,0.5000,0.0000,0.0000
52.695,Upwind,2827.356,1.188,2827.356,1.188,781.357,781.361,177.249,54.049,0.010,12.908,-0.049,0.0000,-0.2402,0.0000,0.9386,0.5000,0.0000,0.0000
52.888,Upwind,2845.503,1.192,2845.503,1.192,792.171,792.174,177.257,54.083,0.009,12.909,-0.049,0.0000,-0.2399,0.0000,0.9385,0.5000,0.0000,0.0000
53.085,Upwind,2863.654,1.195,2863.654,1.195,802.991,802.994,177.263,54.116,0.009,12.910,-0.049,0.0000,-0.2397,0.0000,0.9384,0.5000,0.0000,0.0000
53.286,Upwind,2881.807,1.198,2881.807,1.198,813.817,813.821,177.269,54.147,0.009,12.911,-0.048,0.0000,-0.2395,0.0000,0.9384,0.5000,0.0000,0.0000
53.490,Upwind,2899.964,1.202,2899.964,1.202,824.649,824.653,177.274,54.176,0.008,12.912,-0.048,0.0000,-0.2394,0.0000,0.9383,0.5000,0.0000,0.0000
53.697,Upwind,2918.124,1.205,2918.124,1.205,835.487,835.491,177.279,54.204,0.008,12.913,-0.048,0.0000,-0.2392,0.0000,0.9382,0.5000,0.0000,0.0000
53.896,Upwind,2936.287,1.207,2936.287,1.207,846.330,846.335,177.283,54.231,0.008,12.913,-0.048,0.0000,-0.2390,0.0000,0.9382,0.5000,0.0000,0.0000
54.086,Upwind,2954.452,1.210,2954.452,1.210,857.179,857.183,177.286,54.257,0.007,12.914,-0.048,0.0000,-0.2389,0.0000,0.9381,0.5000,0.0000,0.0000
54.292,Upwind,2972.621,1.213,2972.621,1.213,868.033,868.037,177.289,54.281,0.007,12.915,-0.048,0.0000,-0.2387,0.0000,0.9381,0.5000,0.0000,0.0000
54.495,Upwind,2990.793,1.216,2990.793,1.216,878.891,878.896,177.292,54.304,0.007,12.915,-0.048,0.0000,-0.2386,0.0000,0.9380,0.5000,0.0000,0.0000
54.686,Upwind,3008.968,1.218,3008.968,1.218,889.755,889.759,177.294,54.327,0.006,12.916,-0.047,0.0000,-0.2385,0.0000,0.9380,0.5000,0.0000,0.0000
54.891,Upwind,3027.145,1.221,3027.145,1.221,900.622,900.626,177.295,54.348,0.006,12.916,-0.047,0.0000,-0.2384,0.0000,0.9380,0.5000,0.0000,0.0000
55.085,Upwind,3045.326,1.223,3045.326,1.223,911.494,911.498,177.296,54.368,0.006,12.917,-0.047,0.0000,-0.2383,0.0000,0.9380,0.5000,0.0000,0.0000
55.293,Upwind,3063.509,1.225,3063.509,1.225,922.369,922.373,177.297,54.387,0.005,12.917,-0.047,0.0000,-0.2382,0.0000,0.9380,0.5000,0.0000,0.0000
55.493,Upwind,3081.695,1.227,3081.695,1.227,933.248,933.253,177.297,54.406,0.005,12.918,-0.047,0.0000,-0.2381,0.0000,0.9380,0.5000,0.0000,0.0000
55.691,Upwind,3099.883,1.230,3099.883,1.230,944.131,944.136,177.297,54.423,0.005,12.918,-0.047,0.0000,-0.2380,0.0000,0.9380,0.5000,0.0000,0.0000
55.892,Upwind,3118.075,1.232,3118.075,1.232,955.017,955.022,177.296,54.440,0.005,12.919,-0.047,0.0000,-0.2379,0.0000,0.9380,0.5000,0.0000,0.0000
56.090,Upwind,3136.269,1.233,3136.269,1.233,965.907,965.912,177.295,54.456,0.004,12.919,-0.046,0.0000,-0.2378,0.0000,0.9380,0.5000,0.0000,0.0000
56.292,Upwind,3154.466,1.235,3154.466,1.235,976.800,976.804,177.294,54.471,0.004,12.919,-0.046,0.0000,-0.2378,0.0000,0.9380,0.5000,0.0000,0.0000
56.496,Upwind,3172.665,1.237,3172.665,1.237,987.695,987.700,177.293,54.486,0.004,12.920,-0.046,0.0000,-0.2377,0.0000,0.9380,0.5000,0.0000,0.0000
56.695,Upwind,3190.867,1.239,3190.867,1.239,998.594,998.599,177.291,54.500,0.003,12.920,-0.046,0.0000,-0.2376,0.0000,0.9381,0.5000,0.0000,0.0000
56.894,Upwind,3209.071,1.240,3209.071,1.240,1009.495,1009.500,177.289,54.513,0.003,12.920,-0.046,0.0000,-0.2376,0.0000,0.9381,0.5000,0.0000,0.0000
57.090,Upwind,3227.278,1.242,3227.278,1.242,1020.399,1020.404,177.286,54.525,0.003,12.920,-0.046,0.0000,-0.2375,0.0000,0.9381,0.5000,0.0000,0.0000
57.296,Upwind,3245.488,1.243,3245.488,1.243,1031.305,1031.310,177.284,54.537,0.003,12.921,-0.046,0.0000,-0.2375,0.0000,0.9382,0.5000,0.0000,0.0000
57.486,Upwind,3263.700,1.244,3263.700,1.244,1042.214,1042.219,177.281,54.549,0.002,12.921,-0.046,0.0000,-0.2374,0.0000,0.9382,0.5000,0.0000,0.0000
57.688,Upwind,3281.915,1.245,3281.915,1.245,1053.125,1053.130,177.278,54.560,0.002,12.921,-0.045,0.0000,-0.2374,0.0000,0.9382,0.5000,0.0000,0.0000
57.886,Upwind,3300.132,1.246,3300.132,1.246,1064.038,1064.043,177.274,54.570,0.002,12.921,-0.045,0.0000,-0.2374,0.0000,0.9383,0.5000,0.0000,0.0000
58.093,Upwind,3318.352,1.247,3318.352,1.247,1074.953,1074.958,177.271,54.580,0.002,12.921,-0.045,0.0000,-0.2373,0.0000,0.9383,0.5000,0.0000,0.0000
58.288,Upwind,3336.574,1.248,3336.574,1.248,1085.870,1085.875,177.267,54.590,0.001,12.921,-0.045,0.0000,-0.2373,0.0000,0.9384,0.5000,0.0000,0.0000
58.494,Upwind,3354.798,1.249,3354.798,1.249,1096.788,1096.794,177.263,54.599,0.001,12.921,-0.045,0.0000,-0.2373,0.0000,0.9384,0.5000,0.0000,0.0000
58.691,Upwind,3373.025,1.250,3373.025,1.250,1107.709,1107.714,177.259,54.608,0.001,12.922,-0.045,0.0000,-0.2373,0.0000,0.9385,0.5000,0.0000,0.0000
58.886,Upwind,3391.254,1.251,3391.254,1.251,1118.631,1118.637,177.255,54.616,0.001,12.922,-0.045,0.0000,-0.2373,0.0000,0.9386,0.5000,0.0000,0.0000
59.095,Upwind,3409.486,1.251,3409.486,1.251,1129.555,1129.561,177.251,54.624,0.000,12.922,-0.045,0.0000,-0.2372,0.0000,0.9386,0.5000,0.0000,0.0000
59.286,Upwind,3427.720,1.252,3427.720,1.252,1140.481,1140.486,177.246,54.632,0.000,12.922,-0.044,0.0000,-0.2372,0.0000,0.9387,0.5000,0.0000,0.0000
59.487,Upwind,3445.957,1.252,3445.957,1.252,1151.408,1151.413,177.241,54.639,360.000,12.922,-0.044,0.0000,-0.2372,0.0000,0.9387,0.5000,0.0000,0.0000
59.689,Upwind,3464.196,1.253,3464.196,1.253,1162.336,1162.342,177.237,54.646,360.000,12.922,-0.044,0.0000,-0.2372,0.0000,0.9388,0.5000,0.0000,0.0000
59.888,Upwind,3482.437,1.253,3482.437,1.253,1173.266,1173.272,177.232,54.652,359.999,12.922,-0.044,0.0000,-0.2373,0.0000,0.9389,0.5000,0.0000,0.0000
60.096,Upwind,3500.681,1.253,3500.681,1.253,1184.197,1184.203,177.226,54.658,359.999,12.922,-0.044,0.0000,-0.2372,0.0000,0.9389,0.5000,0.0000,0.0000
60.291,Upwind,3518.927,1.253,3518.927,1.253,1195.129,1195.135,177.221,54.664,359.999,12.922,-0.044,0.0000,-0.2372,0.0000,0.9390,0.5000,0.0000,0.0000
60.489,Upwind,3537.175,1.254,3537.175,1.254,1206.063,1206.068,177.216,54.670,359.999,12.922,-0.044,0.0000,-0.2373,0.0000,0.9391,0.5000,0.0000,0.0000
60.689,Upwind,3555.426,1.254,3555.426,1.254,1216.997,1217.003,177.211,54.676,359.998,12.922,-0.044,0.0000,-0.2372,0.0000,0.9392,0.5000,0.0000,0.0000
60.893,Upwind,3573.679,1.254,3573.679,1.254,1227.933,1227.939,177.205,54.681,359.998,12.922,-0.043,0.0000,-0.2373,0.0000,0.9392,0.5000,0.0000,0.0000
61.097,Upwind,3591.934,1.253,3591.934,1.253,1238.869,1238.875,177.200,54.686,359.998,12.922,-0.043,0.0000,-0.2373,0.0000,0.9393,0.5000,0.0000,0.0000
61.297,Upwind,3610.191,1.253,3610.191,1.253,1249.807,1249.813,177.194,54.691,359.998,12.922,-0.043,0.0000,-0.2373,0.0000,0.9394,0.5000,0.0000,0.0000
61.490,Upwind,3628.451,1.253,3628.451,1.253,1260.746,1260.752,177.188,54.695,359.998,12.922,-0.043,0.0000,-0.2372,0.0000,0.9395,0.5000,0.0000,0.0000
61.693,Upwind,3646.714,1.253,3646.714,1.253,1271.685,1271.691,177.182,54.700,359.997,12.922,-0.043,0.0000,-0.2373,0.0000,0.9396,0.5000,0.0000,0.0000
61.887,Upwind,3664.978,1.252,3664.978,1.252,1282.626,1282.632,177.176,54.704,359.997,12.922,-0.043,0.0000,-0.2373,0.0000,0.9396,0.5000,0.0000,0.0000
62.096,Upwind,3683.245,1.252,3683.245,1.252,1293.567,1293.573,177.170,54.709,359.997,12.922,-0.043,0.0000,-0.2373,0.0000,0.9397,0.5000,0.0000,0.0000
62.293,Upwind,3701.514,1.251,3701.514,1.251,1304.509,1304.515,177.164,54.713,359.997,12.922,-0.043,0.0000,-0.2373,0.0000,0.9398,0.5000,0.0000,0.0000
62.495,Upwind,3719.785,1.251,3719.785,1.251,1315.452,1315.458,177.158,54.716,359.997,12.921,-0.043,0.0000,-0.2373,0.0000,0.9399,0.5000,0.0000,0.0000
62.690,Upwind,3738.059,1.250,3738.059,1.250,1326.395,1326.402,177.152,54.720,359.996,12.921,-0.042,0.0000,-0.2373,0.0000,0.9400,0.5000,0.0000,0.0000
62.894,Upwind,3756.335,1.249,3756.335,1.249,1337.340,1337.346,177.146,54.724,359.996,12.921,-0.042,0.0000,-0.2374,0.0000,0.9401,0.5000,0.0000,0.0000
63.096,Upwind,3774.613,1.248,3774.613,1.248,1348.285,1348.291,177.139,54.727,359.996,12.921,-0.042,0.0000,-0.2374,0.0000,0.9402,0.5000,0.0000,0.0000
63.295,Upwind,3792.893,1.248,3792.893,1.248,1360.143,1360.149,177.132,54.730,359.996,12.921,-0.042,0.0000,-0.2375,0.0000,0.9403,0.5000,0.0000,0.0000
63.493,Upwind,3811.176,1.247,3811.176,1.247,1370.177,1370.183,177.127,54.733,359.996,12.921,-0.042,0.0000,-0.2375,0.0000,0.9403,0.5000,0.0000,0.0000
63.694,Upwind,3829.461,1.246,3829.461,1.246,1381.124,1381.130,177.120,54.736,359.995,12.921,-0.042,0.0000,-0.2375,0.0000,0.9404,0.5000,0.0000,0.0000
63.894,Upwind,3847.748,1.245,3847.748,1.245,1392.071,1392.078,177.114,54.739,359.995,12.920,-0.042,0.0000,-0.2375,0.0000,0.9405,0.5000,0.0000,0.0000
64.086,Upwind,3866.038,1.244,3866.038,1.244,1403.019,1403.026,177.107,54.741,359.995,12.920,-0.042,0.0000,-0.2376,0.0000,0.9406,0.5000,0.0000,0.0000
64.298,Upwind,3884.329,1.242,3884.329,1.242,1413.967,1413.974,177.100,54.744,359.995,12.920,-0.042,0.0000,-0.2376,0.0000,0.9407,0.5000,0.0000,0.0000
64.489,Upwind,3902.623,1.241,3902.623,1.241,1424.916,1424.923,177.094,54.747,359.995,12.920,-0.042,0.0000,-0.2376,0.0000,0.9408,0.5000,0.0000,0.0000
64.686,Upwind,3920.919,1.240,3920.919,1.240,1435.866,1435.873,177.087,54.749,359.994,12.920,-0.042,0.0000,-0.2376,0.0000,0.9409,0.5000,0.0000,0.0000
64.885,Upwind,3939.218,1.239,3939.218,1.239,1446.816,1446.823,177.080,54.751,359.994,12.920,-0.041,0.0000,-0.2376,0.0000,0.9410,0.5000,0.0000,0.0000
65.091,Upwind,3957.518,1.237,3957.518,1.237,1457.766,1457.773,177.074,54.754,359.994,12.920,-0.041,0.0000,-0.2377,0.0000,0.9411,0.5000,0.0000,0.0000
65.286,Upwind,3975.821,1.236,3975.821,1.236,1468.717,1468.724,177.067,54.756,359.994,12.920,-0.041,0.0000,-0.2377,0.0000,0.9412,0.5000,0.0000,0.0000
65.489,Upwind,3994.126,1.234,3994.126,1.234,1479.669,1479.676,177.060,54.758,359.994,12.919,-0.041,0.0001,-0.2378,0.0000,0.9413,0.5000,0.0000,0.0000
65.692,Upwind,4012.434,1.233,4012.434,1.233,1490.620,1490.628,177.053,54.760,359.994,12.919,-0.041,0.0000,-0.2378,0.0000,0.9414,0.5000,0.0000,0.0000
65.892,Upwind,4030.743,1.231,4030.743,1.231,1501.573,1501.580,177.046,54.762,359.993,12.919,-0.041,0.0001,-0.2378,0.0000,0.9415,0.5000,0.0000,0.0000
66.092,Upwind,4049.055,1.229,4049.055,1.229,1512.525,1512.532,177.039,54.764,359.993,12.919,-0.041,0.0000,-0.2379,0.0000,0.9416,0.5000,0.0000,0.0000
66.302,Upwind,4067.369,1.228,4067.369,1.228,1523.478,1523.485,177.033,54.766,359.993,12.919,-0.040,0.0000,-0.2379,0.0000,0.9417,0.5000,0.0000,0.0000
66.496,Upwind,4085.685,1.226,4085.685,1.226,1534.431,1534.439,177.026,54.767,359.993,12.919,-0.040,0.0000,-0.2379,0.0000,0.9417,0.5000,0.0000,0.0000
66.686,Upwind,4104.004,1.224,4104.004,1.224,1545.385,1545.392,177.019,54.769,359.993,12.918,-0.040,0.0000,-0.2380,0.0000,0.9418,0.5000,0.0000,0.0000
66.893,Upwind,4122.324,1.222,4122.324,1.222,1556.339,1556.346,177.012,54.771,359.993,12.918,-0.040,0.0000,-0.2380,0.0000,0.9419,0.5000,0.0000,0.0000
67.098,Upwind,4140.647,1.220,4140.647,1.220,1567.293,1567.301,177.005,54.772,359.992,12.918,-0.040,0.0000,-0.2380,0.0000,0.9420,0.5000,0.0000,0.0000
67.292,Upwind,4158.972,1.218,4158.972,1.218,1578.248,1578.255,176.998,54.774,359.992,12.918,-0.039,0.0000,-0.2381,0.0000,0.9421,0.5000,0.0000,0.0000
67.500,Upwind,4177.300,1.216,4177.300,1.216,1589.202,1589.210,176.991,54.775,359.992,12.918,-0.039,0.0000,-0.2381,0.0000,0.9422,0.5000,0.0000,0.0000
67.695,Upwind,4195.629,1.214,4195.629,1.214,1600.158,1600.165,176.983,54.777,359.992,12.918,-0.039,0.0000,-0.2381,0.0000,0.9423,0.5000,0.0000,0.0000
67.891,Upwind,4213.961,1.212,4213.961,1.212,1611.113,1611.121,176.976,54.778,359.992,12.918,-0.039,0.0000,-0.2382,0.0000,0.9424,0.5000,0.0000,0.0000
68.087,Upwind,4232.295,1.210,4232.295,1.210,1622.069,1622.077,176.969,54.780,359.992,12.917,-0.039,0.0001,-0.2382,0.0000,0.9425,0.5000,0.0000,0.0000
68.292,Upwind,4250.631,1.208,4250.631,1.208,1633.025,1633.033,176.962,54.781,359.992,12.917,-0.039,0.0000,-0.2383,0.0000,0.9426,0.5000,0.0000,0.0000
68.497,Upwind,4268.970,1.206,4268.970,1.206,1643.981,1643.989,176.955,54.782,359.992,12.917,-0.038,0.0000,-0.2383,0.0000,0.9427,0.5000,0.0000,0.0000
68.688,Upwind,4287.310,1.204,4287.310,1.204,1654.938,1654.946,176.948,54.784,359.991,12.917,-0.038,0.0001,-0.2383,0.0000,0.9428,0.5000,0.0000,0.0000
68.890,Upwind,4305.653,1.201,4305.653,1.201,1665.895,1665.903,176.941,54.785,359.991,12.917,-0.038,0.0001,-0.2384,0.0000,0.9429,0.5000,0.0000,0.0000
69.091,Upwind,4323.998,1.199,4323.998,1.199,1676.852,1676.860,176.933,54.786,359.991,12.916,-0.038,0.0001,-0.2384,0.0000,0.9430,0.5000,0.0000,0.0000
69.286,Upwind,4342.346,1.197,4342.346,1.197,1687.809,1687.817,176.926,54.787,359.991,12.916,-0.038,0.0000,-0.2385,0.0000,0.9431,0.5000,0.0000,0.0000
69.496,Upwind,4360.695,1.194,4360.695,1.194,1698.766,1698.774,176.919,54.788,359.991,12.916,-0.038,0.0000,-0.2385,0.0000,0.9432,0.5000,0.0000,0.0000
69.695,Upwind,4379.047,1.192,4379.047,1.192,1709.724,1709.732,176.912,54.789,359.991,12.916,-0.037,0.0000,-0.2385,0.0000,0.9433,0.5000,0.0000,0.0000
69.888,Upwind,4397.401,1.189,4397.401,1.189,1720.682,1720.690,176.905,54.790,359.991,12.916,-0.037,0.0000,-0.2386,0.0000,0.9434,0.5000,0.0000,0.0000
70.095,Upwind,4415.757,1.187,4415.757,1.187,1731.640,1731.648,176.897,54.791,359.991,12.916,-0.037,0.0000,-0.2386,0.0000,0.9435,0.5000,0.0000,0.0000
70.300,Upwind,4434.115,1.184,4434.115,1.184,1742.598,1742.607,176.890,54.793,359.991,12.915,-0.037,0.0000,-0.2387,0.0000,0.9436,0.5000,0.0000,0.0000
70.487,Upwind,4452.475,1.182,4452.475,1.182,1753.557,1753.565,176.883,54.794,359.991,12.915,-0.037,0.0000,-0.2387,0.0000,0.9437,0.5000,0.0000,0.0000
70.688,Upwind,4470.838,1.179,4470.838,1.179,1764.516,1764.524,176.876,54.795,359.990,12.915,-0.037,0.0001,-0.2387,0.0000,0.9438,0.5000,0.0000,0.0000
70.886,Upwind,4489.203,1.177,4489.203,1.177,1775.475,1775.483,176.868,54.795,359.990,12.915,-0.036,0.0000,-0.2388,0.0000,0.9439,0.5000,0.0000,0.0000
71.085,Upwind,4506.040,1.174,4506.040,1.174,1786.434,1786.442,176.861,54.796,359.990,12.915,-0.036,0.0000,-0.2388,0.0000,0.9440,0.5000,0.0000,0.0000
71.286,Upwind,4525.940,1.171,4525.940,1.171,1797.393,1797.402,176.854,54.797,359.990,12.914,-0.036,0.0001,-0.2389,0.0000,0.9441,0.5000,0.0000,0.0000
71.498,Upwind,4544.311,1.169,4544.311,1.169,1809.266,1809.275,176.846,54.798,359.990,12.914,-0.036,0.0000,-0.2389,0.0000,0.9443,0.5000,0.0000,0.0000
71.686,Upwind,4562.685,1.166,4562.685,1.166,1819.312,1819.321,176.839,54.799,359.990,12.914,-0.036,0.0000,-0.2390,0.0000,0.9443,0.5000,0.0000,0.0000
71.886,Upwind,4581.061,1.163,4581.061,1.163,1830.272,1830.281,176.832,54.800,359.990,12.914,-0.036,0.0000,-0.2390,0.0000,0.9444,0.5000,0.0000,0.0000
72.094,Upwind,4599.439,1.161,4599.439,1.161,1841.232,1841.241,176.824,54.801,359.990,12.914,-0.036,0.0000,-0.2390,0.0000,0.9446,0.5000,0.0000,0.0000
72.290,Upwind,4617.820,1.158,4617.820,1.158,1852.192,1852.201,176.817,54.802,359.990,12.913,-0.035,0.0000,-0.2391,0.0000,0.9447,0.5000,0.0000,0.0000
72.495,Upwind,4636.202,1.155,4636.202,1.155,1863.153,1863.162,176.810,54.802,359.990,12.913,-0.035,0.0000,-0.2391,0.0000,0.9448,0.5000,0.0000,0.0000
72.686,Upwind,4654.587,1.152,4654.587,1.152,1874.113,1874.122,176.802,54.803,359.990,12.913,-0.035,0.0000,-0.2392,0.0000,0.9449,0.5000,0.0000,0.0000
72.888,Upwind,4672.974,1.150,4672.974,1.150,1885.074,1885.083,176.795,54.804,359.990,12.913,-0.035,0.0000,-0.2392,0.0000,0.9450,0.5000,0.0000,0.0000
73.085,Upwind,4689.831,1.147,4689.831,1.147,1896.035,1896.044,176.788,54.805,359.990,12.913,-0.035,0.0001,-0.2392,0.0000,0.9451,0.5000,0.0000,0.0000
73.294,Upwind,4709.755,1.144,4709.755,1.144,1906.996,1907.005,176.780,54.806,359.990,12.912,-0.035,0.0000,-0.2393,0.0000,0.9452,0.5000,0.0000,0.0000
73.486,Upwind,4728.148,1.141,4728.148,1.141,1917.957,1917.966,176.773,54.806,359.990,12.912,-0.035,0.0000,-0.2393,0.0000,0.9453,0.5000,0.0000,0.0000
73.685,Upwind,4745.011,1.139,4745.011,1.139,1928.918,1928.927,176.766,54.807,359.990,12.912,-0.034,0.0000,-0.2394,0.0000,0.9454,0.5000,0.0000,0.0000
73.891,Upwind,4764.942,1.136,4764.942,1.136,1939.880,1939.889,176.758,54.808,359.990,12.912,-0.034,0.0000,-0.2394,0.0000,0.9455,0.5000,0.0000,0.0000
74.096,Upwind,4783.342,1.133,4783.342,1.133,1950.841,1950.851,176.751,54.808,359.990,12.912,-0.034,0.0000,-0.2395,0.0000,0.9456,0.5000,0.0000,0.0000
74.289,Upwind,4801.745,1.130,4801.745,1.130,1961.803,1961.812,176.744,54.809,359.990,12.912,-0.034,0.0000,-0.2395,0.0000,0.9457,0.5000,0.0000,0.0000
74.493,Upwind,4820.149,1.127,4820.149,1.127,1972.765,1972.774,176.736,54.810,359.989,12.911,-0.034,0.0000,-0.2395,0.0000,0.9458,0.5000,0.0000,0.0000
74.689,Upwind,4838.556,1.124,4838.556,1.124,1983.727,1983.736,176.729,54.811,359.989,12.911,-0.034,0.0000,-0.2396,0.0000,0.9459,0.5000,0.0000,0.0000
74.887,Upwind,4856.965,1.121,4856.965,1.121,1994.689,1994.698,176.721,54.811,359.989,12.911,-0.034,0.0000,-0.2396,0.0000,0.9460,0.5000,0.0000,0.0000
75.085,Crosswind,4875.376,1.118,4875.376,1.118,2005.651,2005.661,176.704,54.805,359.989,12.911,-0.019,0.4000,-0.2397,0.0000,0.8997,0.0000,0.0000,0.0000
75.296,Crosswind,4893.781,1.116,4893.781,1.116,2016.602,2016.611,176.537,54.676,359.986,12.909,0.362,0.4000,-0.2402,0.0001,0.7943,0.0000,0.0000,0.0000
75.497,Crosswind,4912.162,1.116,4912.162,1.116,2027.511,2027.521,176.192,54.390,359.981,12.904,1.169,0.4000,-0.2418,0.0001,0.7000,0.0000,0.0000,0.0000
75.688,Crosswind,4930.506,1.124,4930.506,1.124,2038.348,2038.358,175.748,53.971,359.978,12.894,2.304,0.4000,-0.2447,0.0000,0.7000,0.0000,0.0000,0.0000
75.899,Crosswind,4948.809,1.146,4948.809,1.146,2049.093,2049.103,175.310,53.464,359.983,12.879,3.685,0.4000,-0.2483,-0.0003,0.7000,0.0000,0.0000,0.0000
76.095,Crosswind,4967.076,1.190,4967.076,1.190,2059.728,2059.738,174.884,52.871,0.003,12.860,5.250,0.4000,-0.2525,-0.0007,0.7056,0.0000,0.0000,0.0000
76.292,Crosswind,4985.308,1.263,4985.308,1.263,2070.236,2070.246,174.483,52.198,0.045,12.839,6.945,0.4000,-0.2569,-0.0013,0.7158,0.0000,0.0000,0.0000
76.490,Crosswind,5003.508,1.375,5003.508,1.375,2080.602,2080.612,174.108,51.449,0.115,12.816,8.730,0.4000,-0.2615,-0.0020,0.7258,0.0000,0.0000,0.0000
76.688,Crosswind,5021.681,1.533,5021.681,1.533,2090.811,2090.821,173.762,50.626,0.222,12.790,10.574,0.4000,-0.2665,-0.0028,0.7355,0.0000,0.0000,0.0000
76.890,Crosswind,5039.830,1.748,5039.830,1.748,2100.848,2100.858,173.445,49.728,0.370,12.761,12.450,0.3892,-0.2721,-0.0038,0.7450,0.0000,0.0000,0.0000
77.094,Crosswind,5057.957,2.027,5057.957,2.027,2110.697,2110.707,173.156,48.758,0.565,12.725,14.326,0.3177,-0.2788,-0.0049,0.7540,0.0000,0.0000,0.0000
77.291,Crosswind,5076.067,2.380,5076.067,2.380,2120.348,2120.358,172.895,47.736,0.812,12.683,16.119,0.2546,-0.2870,-0.0060,0.7625,0.0000,0.0000,0.0000
77.488,Crosswind,5094.162,2.815,5094.162,2.815,2129.789,2129.799,172.661,46.669,1.114,12.630,17.759,0.2007,-0.2970,-0.0072,0.7701,0.0000,0.0000,0.0000
77.685,Crosswind,5112.243,3.340,5112.243,3.340,2139.013,2139.023,172.452,45.563,1.471,12.568,19.207,0.1563,-0.3091,-0.0083,0.7769,0.0000,0.0000,0.0000
77.892,Crosswind,5130.314,3.963,5130.314,3.963,2148.012,2148.022,172.269,44.426,1.881,12.497,20.441,0.1207,-0.3230,-0.0094,0.7827,0.0000,0.0000,0.0000
78.094,Crosswind,5148.375,4.690,5148.375,4.690,2156.781,2156.792,172.110,43.267,2.343,12.418,21.464,0.0929,-0.3384,-0.0104,0.7877,0.0000,0.0000,0.0000
78.291,Crosswind,5166.429,5.527,5166.429,5.527,2165.318,2165.328,171.973,42.098,2.852,12.335,22.288,0.0719,-0.3547,-0.0112,0.7918,0.0000,0.0000,0.0000
78.492,Crosswind,5184.476,6.478,5184.476,6.478,2173.621,2173.631,171.858,40.931,3.401,12.252,22.934,0.0565,-0.3710,-0.0119,0.7951,0.0000,0.0000,0.0000
78.687,Crosswind,5202.517,7.550,5202.517,7.550,2181.691,2181.702,171.762,39.776,3.983,12.171,23.427,0.0454,-0.3867,-0.0124,0.7978,0.0000,0.0000,0.0000
78.889,Crosswind,5220.552,8.745,5220.552,8.745,2189.533,2189.543,171.685,38.645,4.591,12.097,23.796,0.0375,-0.4012,-0.0127,0.7999,0.0000,0.0000,0.0000
79.095,Crosswind,5238.583,10.068,5238.583,10.068,2197.151,2197.162,171.624,37.547,5.216,12.032,24.066,0.0318,-0.4140,-0.0128,0.8014,0.0000,0.0000,0.0000
79.290,Crosswind,5256.608,11.523,5256.608,11.523,2204.554,2204.565,171.579,36.488,5.849,11.977,24.263,0.0277,-0.4249,-0.0128,0.8026,0.0000,0.0000,0.0000
79.496,Crosswind,5274.627,13.113,5274.627,13.113,2211.749,2211.760,171.548,35.472,6.483,11.931,24.406,0.0245,-0.4340,-0.0126,0.8034,0.0000,0.0000,0.0000
79.693,Crosswind,5292.640,14.842,5292.640,14.842,2218.746,2218.757,171.530,34.503,7.111,11.895,24.511,0.0220,-0.4415,-0.0123,0.8039,0.0000,0.0000,0.0000
79.888,Crosswind,5310.647,16.711,5310.647,16.711,2225.553,2225.564,171.524,33.579,7.726,11.867,24.591,0.0197,-0.4478,-0.0120,0.8042,0.0000,0.0000,0.0000
80.095,Crosswind,5328.646,18.723,5328.646,18.723,2232.180,2232.191,171.529,32.699,8.325,11.844,24.655,0.0178,-0.4532,-0.0116,0.8043,0.0000,0.0000,0.0000
80.297,Crosswind,5346.637,20.881,5346.637,20.881,2238.636,2238.647,171.543,31.866,8.903,11.824,24.706,0.0161,-0.4583,-0.0112,0.8043,0.0000,0.0000,0.0000
80.489,Crosswind,5364.619,23.186,5364.619,23.186,2244.930,2244.940,171.566,31.077,9.460,11.804,24.747,0.0147,-0.4634,-0.0107,0.8041,0.0000,0.0000,0.0000
80.693,Crosswind,5382.590,25.640,5382.590,25.640,2251.069,2251.080,171.596,30.324,9.996,11.784,24.779,0.0138,-0.4688,-0.0104,0.8037,0.0000,0.0000,0.0000
80.887,Crosswind,5400.550,28.244,5400.550,28.244,2257.061,2257.072,171.634,29.601,10.513,11.761,24.801,0.0133,-0.4746,-0.0100,0.8033,0.0000,0.0000,0.0000
81.096,Crosswind,5418.499,30.998,5418.499,30.998,2262.911,2262.922,171.679,28.902,11.012,11.736,24.813,0.0133,-0.4809,-0.0098,0.8027,0.0000,0.0000,0.0000
81.293,Crosswind,5436.434,33.904,5436.434,33.904,2268.623,2268.634,171.731,28.221,11.499,11.709,24.812,0.0140,-0.4876,-0.0096,0.8019,0.0000,0.0000,0.0000
81.492,Crosswind,5454.356,36.960,5454.356,36.960,2274.200,2274.211,171.789,27.556,11.975,11.679,24.799,0.0152,-0.4946,-0.0094,0.8011,0.0000,0.0000,0.0000
81.703,Crosswind,5473.755,40.442,5473.755,40.442,2279.646,2279.657,171.854,26.902,12.446,11.648,24.773,0.0170,-0.5017,-0.0094,0.8001,0.0000,0.0000,0.0000
81.887,Crosswind,5490.156,43.526,5490.156,43.526,2284.962,2284.973,171.924,26.261,12.915,11.617,24.735,0.0191,-0.5087,-0.0094,0.7990,0.0000,0.0000,0.0000
82.094,Crosswind,5508.032,47.034,5508.032,47.034,2290.151,2290.162,172.000,25.630,13.385,11.585,24.686,0.0216,-0.5155,-0.0094,0.7978,0.0000,0.0000,0.0000
82.300,Crosswind,5525.891,50.693,5525.891,50.693,2295.215,2295.226,172.082,25.011,13.858,11.554,24.630,0.0243,-0.5220,-0.0095,0.7965,0.0000,0.0000,0.0000
82.499,Crosswind,5543.733,54.500,5543.733,54.500,2300.156,2300.167,172.168,24.405,14.336,11.525,24.568,0.0270,-0.5282,-0.0096,0.7952,0.0000,0.0000,0.0000
82.694,Crosswind,5561.557,58.457,5561.557,58.457,2304.978,2304.989,172.260,23.813,14.820,11.497,24.504,0.0297,-0.5341,-0.0097,0.7937,0.0000,0.0000,0.0000
82.888,Crosswind,5579.361,62.563,5579.361,62.563,2309.682,2309.693,172.356,23.235,15.310,11.470,24.440,0.0322,-0.5395,-0.0099,0.7922,0.0000,0.0000,0.0000
83.091,Crosswind,5597.145,66.817,5597.145,66.817,2314.273,2314.284,172.456,22.673,15.807,11.445,24.379,0.0344,-0.5447,-0.0100,0.7906,0.0000,0.0000,0.0000
83.291,Crosswind,5614.908,71.220,5614.908,71.220,2318.753,2318.764,172.560,22.127,16.310,11.422,24.324,0.0363,-0.5496,-0.0101,0.7890,0.0000,0.0000,0.0000
83.498,Crosswind,5632.650,75.771,5632.650,75.771,2323.125,2323.136,172.669,21.597,16.817,11.400,24.276,0.0377,-0.5543,-0.0101,0.7874,0.0000,0.0000,0.0000
83.687,Crosswind,5650.368,80.471,5650.368,80.471,2327.393,2327.404,172.780,21.083,17.327,11.378,24.237,0.0388,-0.5588,-0.0102,0.7857,0.0000,0.0000,0.0000
83.895,Crosswind,5668.062,85.319,5668.062,85.319,2331.559,2331.570,172.896,20.584,17.840,11.358,24.207,0.0394,-0.5632,-0.0102,0.7840,0.0000,0.0000,0.0000
84.094,Crosswind,5685.730,90.317,5685.730,90.317,2335.627,2335.638,173.015,20.098,18.353,11.338,24.186,0.0396,-0.5675,-0.0102,0.7823,0.0000,0.0000,0.0000
84.297,Crosswind,5703.373,95.463,5703.373,95.463,2339.599,2339.611,173.136,19.631,18.867,11.319,24.175,0.0395,-0.5718,-0.0102,0.7806,0.0000,0.0000,0.0000
84.497,Crosswind,5720.988,100.758,5720.988,100.758,2343.480,2343.492,173.260,19.182,19.381,11.300,24.172,0.0392,-0.5760,-0.0102,0.7788,0.0000,0.0000,0.0000
84.696,Crosswind,5738.574,106.203,5738.574,106.203,2347.273,2347.284,173.386,18.748,19.893,11.281,24.175,0.0387,-0.5801,-0.0101,0.7771,0.0000,0.0000,0.0000
84.886,Crosswind,5754.668,111.326,5754.668,111.326,2350.981,2350.992,173.514,18.329,20.403,11.263,24.184,0.0380,-0.5841,-0.0101,0.7753,0.0000,0.0000,0.0000
85.096,Crosswind,5773.654,117.544,5773.654,117.544,2354.605,2354.617,173.644,17.922,20.911,11.245,24.197,0.0373,-0.5880,-0.0101,0.7735,0.0000,0.0000,0.0000
85.289,Crosswind,5791.145,123.439,5791.145,123.439,2358.150,2358.161,173.776,17.526,21.418,11.228,24.213,0.0365,-0.5918,-0.0100,0.7717,0.0000,0.0000,0.0000
85.488,Crosswind,5808.603,129.485,5808.603,129.485,2361.617,2361.628,173.909,17.141,21.923,11.212,24.229,0.0358,-0.5954,-0.0100,0.7699,0.0000,0.0000,0.0000
