time_s,leg,north_m,east_m,along_m,cross_m,agl_ft,altitude_ft,speed_kts,vertical_speed_fps,heading_deg,pitch_deg,roll_deg,aileron_cmd,elevator_cmd,rudder_cmd,throttle_cmd,flaps_cmd,gear_cmd,brake_cmd
1.947,Upwind,0.731,0.000,0.731,0.000,3.691,3.691,2.641,0.000,0.000,0.450,0.000,0.0000,0.0630,0.0000,0.0126,0.5000,1.0000,0.0000
2.141,Upwind,0.990,0.000,0.990,0.000,3.691,3.691,2.809,0.000,0.000,0.450,0.000,0.0000,0.0629,0.0000,0.1094,0.5000,1.0000,0.0000
2.334,Upwind,1.285,0.000,1.285,0.000,3.691,3.691,2.894,0.000,0.000,0.449,0.000,0.0000,0.0628,0.0000,0.2058,0.5000,1.0000,0.0000
2.538,Upwind,1.586,0.000,1.586,0.000,3.691,3.691,2.941,0.000,0.000,0.449,0.000,0.0000,0.0628,0.0000,0.3081,0.5000,1.0000,0.0000
2.731,Upwind,1.892,0.000,1.892,0.000,3.691,3.691,3.000,0.000,0.000,0.449,0.000,0.0000,0.0629,0.0000,0.4045,0.5000,1.0000,0.0000
2.923,Upwind,2.178,0.000,2.178,0.000,3.691,3.691,3.071,0.000,0.000,0.449,0.000,0.0000,0.0629,0.0000,0.5003,0.5000,1.0000,0.0000
3.125,Upwind,2.500,0.000,2.500,0.000,3.691,3.691,3.177,0.000,0.000,0.449,0.000,0.0000,0.0629,0.0000,0.6014,0.5000,1.0000,0.0000
3.325,Upwind,2.833,0.000,2.833,0.000,3.691,3.691,3.303,0.000,0.000,0.449,0.000,0.0000,0.0629,0.0000,0.7016,0.5000,1.0000,0.0000
3.529,Upwind,3.210,0.000,3.210,0.000,3.691,3.691,3.458,0.000,0.000,0.450,0.000,0.0000,0.0630,0.0000,0.8037,0.5000,1.0000,0.0000
3.728,Upwind,3.577,0.000,3.577,0.000,3.691,3.691,3.649,0.000,0.000,0.450,0.000,0.0000,0.0630,0.0000,0.9030,0.5000,1.0000,0.0000
3.930,Upwind,3.966,0.000,3.966,0.000,3.691,3.691,3.880,0.000,0.000,0.450,0.000,0.0000,0.0630,0.0000,1.0000,0.5000,1.0000,0.0000
4.123,Upwind,4.346,0.000,4.346,0.000,3.691,3.691,4.134,0.000,0.000,0.450,0.000,0.0000,0.0630,0.0000,1.0000,0.5000,1.0000,0.0000
4.325,Upwind,4.791,0.000,4.791,0.000,3.691,3.691,4.493,0.000,0.000,0.450,0.000,0.0000,0.0631,0.0000,1.0000,0.5000,1.0000,0.0000
4.523,Upwind,5.273,0.000,5.273,0.000,3.691,3.691,4.890,0.000,0.000,0.451,0.000,0.0000,0.0631,0.0000,1.0000,0.5000,1.0000,0.0000
4.729,Upwind,5.845,0.000,5.845,0.000,3.691,3.691,5.356,0.000,0.000,0.451,0.000,0.0000,0.0632,0.0000,1.0000,0.5000,1.0000,0.0000
4.927,Upwind,6.378,0.000,6.378,0.000,3.691,3.691,5.901,0.000,0.000,0.451,0.000,0.0000,0.0632,0.0000,1.0000,0.5000,1.0000,0.0000
5.132,Upwind,7.073,0.000,7.073,0.000,3.691,3.691,6.533,0.000,0.000,0.452,0.000,0.0000,0.0633,0.0000,1.0000,0.5000,1.0000,0.0000
5.335,Upwind,7.788,0.000,7.788,0.000,3.691,3.691,7.260,0.000,0.000,0.452,0.000,0.0000,0.0634,0.0000,1.0000,0.5000,1.0000,0.0000
5.524,Upwind,8.514,0.000,8.514,0.000,3.691,3.691,8.088,0.000,0.000,0.453,0.000,0.0000,0.0634,0.0000,1.0000,0.5000,1.0000,0.0000
5.725,Upwind,9.394,0.000,9.394,0.000,3.691,3.691,9.025,0.000,0.000,0.453,0.000,0.0000,0.0635,0.0000,1.0000,0.5000,1.0000,0.0000
5.924,Upwind,10.375,0.000,10.375,0.000,3.691,3.691,10.077,0.001,0.000,0.454,0.000,0.0000,0.0636,0.0000,1.0000,0.5000,1.0000,0.0000
6.123,Upwind,11.472,0.000,11.472,0.000,3.691,3.691,11.149,0.001,0.000,0.454,0.000,0.0000,0.0636,0.0000,1.0000,0.5000,1.0000,0.0000
6.332,Upwind,12.803,0.000,12.803,0.000,3.691,3.692,12.527,0.001,0.000,0.455,0.000,0.0000,0.0636,0.0000,1.0000,0.5000,1.0000,0.0000
6.528,Upwind,14.168,0.000,14.168,0.000,3.692,3.692,13.703,0.001,0.000,0.454,0.000,0.0000,0.0636,0.0000,1.0000,0.5000,1.0000,0.0000
6.731,Upwind,15.666,0.000,15.666,0.000,3.692,3.692,15.091,0.001,0.000,0.454,0.000,0.0000,0.0635,0.0000,1.0000,0.5000,1.0000,0.0000
6.931,Upwind,17.296,0.000,17.296,0.000,3.692,3.692,16.372,0.001,0.000,0.454,0.000,0.0000,0.0635,0.0000,1.0000,0.5000,1.0000,0.0000
7.124,Upwind,18.906,0.000,18.906,0.000,3.692,3.692,17.652,0.001,0.000,0.453,0.000,0.0000,0.0634,0.0000,1.0000,0.5000,1.0000,0.0000
7.326,Upwind,20.788,0.000,20.788,0.000,3.693,3.693,18.930,0.002,0.000,0.453,0.000,0.0000,0.0634,0.0000,1.0000,0.5000,1.0000,0.0000
7.525,Upwind,22.801,0.000,22.801,0.000,3.693,3.693,20.207,0.002,0.000,0.452,0.000,0.0000,0.0633,0.0000,1.0000,0.5000,1.0000,0.0000
7.726,Upwind,24.946,0.000,24.946,0.000,3.693,3.693,21.483,0.002,0.000,0.452,0.000,0.0000,0.0632,0.0000,1.0000,0.5000,1.0000,0.0000
7.930,Upwind,27.418,0.000,27.418,0.000,3.694,3.694,22.758,0.002,0.000,0.452,0.000,0.0000,0.0632,0.0000,1.0000,0.5000,1.0000,0.0000
8.135,Upwind,29.836,0.000,29.836,0.000,3.694,3.694,24.032,0.002,0.000,0.451,0.000,0.0000,0.0631,0.0000,1.0000,0.5000,1.0000,0.0000
8.327,Upwind,32.167,0.000,32.167,0.000,3.694,3.694,25.305,0.002,0.000,0.450,0.000,0.0000,0.0630,0.0000,1.0000,0.5000,1.0000,0.0000
8.525,Upwind,34.837,0.000,34.837,0.000,3.695,3.695,26.576,0.002,0.000,0.450,0.000,0.0000,0.0629,0.0000,1.0000,0.5000,1.0000,0.0000
8.737,Upwind,37.876,0.000,37.876,0.000,3.695,3.695,27.846,0.003,0.000,0.449,0.000,0.0000,0.0628,0.0000,1.0000,0.5000,1.0000,0.0000
8.923,Upwind,40.567,0.000,40.567,0.000,3.696,3.696,29.009,0.003,0.000,0.449,0.000,0.0000,0.0627,0.0000,1.0000,0.5000,1.0000,0.0000
9.124,Upwind,43.628,0.000,43.628,0.000,3.696,3.696,30.382,0.003,0.000,0.448,0.000,0.0000,0.0626,0.0000,1.0000,0.5000,1.0000,0.0000
9.332,Upwind,47.091,0.000,47.091,0.000,3.697,3.697,31.648,0.003,0.000,0.447,0.000,0.0000,0.0625,0.0000,1.0000,0.5000,1.0000,0.0000
9.533,Upwind,50.423,0.001,50.423,0.001,3.698,3.698,32.913,0.003,0.000,0.446,0.000,0.0000,0.0624,0.0000,1.0000,0.5000,1.0000,0.0000
9.731,Upwind,53.886,0.001,53.886,0.001,3.698,3.698,34.176,0.003,0.000,0.445,0.000,0.0000,0.0622,0.0000,1.0000,0.5000,1.0000,0.0000
9.932,Upwind,57.478,0.001,57.478,0.001,3.699,3.699,35.438,0.004,0.000,0.444,0.000,0.0000,0.0621,0.0000,1.0000,0.5000,1.0000,0.0000
10.126,Upwind,60.885,0.001,60.885,0.001,3.700,3.700,36.699,0.004,0.000,0.443,0.000,0.0000,0.0620,0.0000,1.0000,0.5000,1.0000,0.0000
10.326,Upwind,64.726,0.001,64.726,0.001,3.701,3.701,37.958,0.004,0.000,0.442,0.000,0.0000,0.0618,0.0000,1.0000,0.5000,1.0000,0.0000
10.531,Upwind,69.033,0.001,69.033,0.001,3.701,3.701,39.215,0.004,0.000,0.441,0.000,0.0000,0.0617,0.0000,1.0000,0.5000,1.0000,0.0000
10.733,Upwind,73.143,0.001,73.143,0.001,3.702,3.702,40.471,0.004,0.000,0.440,0.000,0.0000,0.0615,0.0000,1.0000,0.5000,1.0000,0.0000
10.928,Upwind,77.382,0.001,77.382,0.001,3.703,3.703,41.726,0.005,0.000,0.439,0.000,0.0000,0.0613,0.0000,1.0000,0.5000,1.0000,0.0000
11.129,Upwind,81.751,0.001,81.751,0.001,3.704,3.704,42.978,0.005,0.000,0.438,0.000,0.0000,0.0611,0.0000,1.0000,0.5000,1.0000,0.0000
11.326,Upwind,85.869,0.001,85.869,0.001,3.705,3.705,44.230,0.005,0.000,0.436,0.000,0.0000,0.0609,0.0000,1.0000,0.5000,1.0000,0.0000
11.526,Upwind,90.484,0.002,90.484,0.002,3.706,3.706,45.479,0.006,0.000,0.435,0.000,0.0000,0.0607,0.0000,1.0000,0.5000,1.0000,0.0000
11.725,Upwind,95.228,0.002,95.228,0.002,3.707,3.707,46.727,0.006,0.000,0.433,0.000,0.0000,0.0605,0.0000,1.0000,0.5000,1.0000,0.0000
11.923,Upwind,100.100,0.002,100.100,0.002,3.708,3.708,47.973,0.006,0.000,0.432,0.000,0.0000,0.0603,0.0000,1.0000,0.5000,1.0000,0.0000
12.125,Upwind,105.100,0.002,105.100,0.002,3.710,3.710,49.217,0.006,0.000,0.430,0.000,0.0000,0.0601,0.0000,1.0000,0.5000,1.0000,0.0000
12.327,Upwind,110.228,0.002,110.228,0.002,3.711,3.711,50.459,0.007,0.001,0.429,0.000,0.0000,0.0598,0.0000,1.0000,0.5000,1.0000,0.0000
12.528,Upwind,115.927,0.002,115.927,0.002,3.712,3.712,51.699,0.007,0.001,0.427,0.000,0.0000,0.0596,0.0000,1.0000,0.5000,1.0000,0.0000
12.726,Upwind,120.867,0.003,120.867,0.003,3.714,3.714,52.938,0.007,0.001,0.425,0.000,0.0000,0.0593,0.0000,1.0000,0.5000,1.0000,0.0000
12.928,Upwind,126.842,0.003,126.842,0.003,3.715,3.715,54.174,0.007,0.001,0.423,0.000,0.0000,0.0590,0.0000,1.0000,0.5000,1.0000,0.0000
13.130,Upwind,132.490,0.003,132.490,0.003,3.717,3.717,55.409,0.008,0.001,0.421,0.000,0.0000,0.0588,0.0000,1.0000,0.5000,1.0000,0.0000
13.328,Upwind,138.266,0.003,138.266,0.003,3.718,3.718,56.641,0.008,0.001,0.419,0.000,0.0000,0.0585,0.0000,1.0000,0.5000,1.0000,0.0000
13.534,Upwind,144.168,0.003,144.168,0.003,3.720,3.720,57.872,0.008,0.001,0.417,0.000,0.0000,0.0582,0.0000,1.0000,0.5000,1.0000,0.0000
13.731,Upwind,150.196,0.004,150.196,0.004,3.722,3.722,59.100,0.009,0.001,0.415,0.000,0.0000,0.0579,0.0000,1.0000,0.5000,1.0000,0.0000
13.932,Upwind,156.351,0.004,156.351,0.004,3.723,3.723,60.326,0.009,0.001,0.413,0.000,0.0000,0.0575,0.0000,1.0000,0.5000,1.0000,0.0000
14.132,Upwind,162.631,0.004,162.631,0.004,3.725,3.725,61.550,0.010,0.001,0.410,0.000,-0.0001,0.0572,0.0000,1.0000,0.5000,1.0000,0.0000
14.331,Upwind,169.038,0.005,169.038,0.005,3.727,3.727,62.772,0.011,0.001,0.408,0.000,-0.0001,0.0568,0.0000,1.0000,0.5000,1.0000,0.0000
14.529,Upwind,175.570,0.005,175.570,0.005,3.729,3.729,63.990,0.011,0.001,0.405,0.000,-0.0001,0.0564,0.0000,1.0000,0.5000,1.0000,0.0000
14.735,Upwind,182.227,0.005,182.227,0.005,3.732,3.732,65.207,0.012,0.001,0.402,0.000,-0.0001,0.0560,0.0000,1.0000,0.5000,1.0000,0.0000
14.931,Upwind,189.009,0.006,189.009,0.006,3.734,3.734,66.421,0.012,0.002,0.399,0.000,-0.0001,0.0555,0.0000,1.0000,0.5000,1.0000,0.0000
15.124,Upwind,195.336,0.006,195.336,0.006,3.736,3.736,67.632,0.012,0.002,0.396,0.000,-0.0001,0.0551,0.0000,1.0000,0.5000,1.0000,0.0000
15.335,Upwind,202.948,0.007,202.948,0.007,3.739,3.739,68.841,0.013,0.002,0.393,0.000,-0.0001,0.0546,0.0000,1.0000,0.5000,1.0000,0.0000
15.533,Upwind,210.103,0.007,210.103,0.007,3.741,3.742,70.046,0.013,0.002,0.389,0.000,-0.0001,0.0542,0.0000,1.0000,0.5000,1.0000,0.0000
15.732,Upwind,217.383,0.008,217.383,0.008,3.744,3.744,71.249,0.014,0.002,0.386,0.000,-0.0001,0.0537,0.0000,1.0000,0.5000,1.0000,0.0000
15.926,Upwind,224.164,0.008,224.164,0.008,3.747,3.747,72.449,0.014,0.002,0.382,0.000,-0.0001,0.0532,0.0000,1.0000,0.5000,1.0000,0.0000
16.130,Upwind,232.312,0.009,232.312,0.009,3.750,3.750,73.647,0.012,0.002,0.379,0.000,-0.0001,0.0527,0.0000,1.0000,0.5000,1.0000,0.0000
16.326,Upwind,239.320,0.009,239.320,0.009,3.752,3.752,74.841,0.010,0.002,0.376,0.000,-0.0001,0.0524,0.0000,1.0000,0.5000,1.0000,0.0000
16.523,Upwind,247.082,0.010,247.082,0.010,3.754,3.754,76.034,0.010,0.003,0.373,0.000,-0.0001,0.0520,0.0000,1.0000,0.5000,1.0000,0.0000
16.731,Upwind,255.629,0.011,255.629,0.011,3.756,3.756,77.224,0.010,0.003,0.371,0.000,-0.0001,0.0517,0.0000,1.0000,0.5000,1.0000,0.0000
16.934,Upwind,263.646,0.011,263.646,0.011,3.758,3.758,78.412,0.010,0.003,0.368,0.000,-0.0001,0.0513,0.0000,1.0000,0.5000,1.0000,0.0000
17.132,Upwind,271.785,0.012,271.785,0.012,3.760,3.760,79.597,0.010,0.003,0.366,0.000,-0.0001,0.0509,0.0000,1.0000,0.5000,1.0000,0.0000
17.327,Upwind,279.353,0.013,279.353,0.013,3.762,3.762,80.780,0.011,0.003,0.363,0.000,-0.0001,0.0506,0.0000,1.0000,0.5000,1.0000,0.0000
17.523,Upwind,287.726,0.014,287.726,0.014,3.764,3.764,81.961,0.011,0.004,0.360,0.000,-0.0001,0.0502,0.0000,1.0000,0.5000,1.0000,0.0000
17.726,Upwind,296.220,0.014,296.220,0.014,3.766,3.766,83.139,0.011,0.004,0.358,0.000,-0.0001,0.0498,0.0000,1.0000,0.5000,1.0000,0.0000
17.928,Upwind,305.558,0.015,305.558,0.015,3.768,3.768,84.314,0.011,0.004,0.355,0.000,-0.0002,0.0494,0.0000,1.0000,0.5000,1.0000,0.0000
18.130,Upwind,314.304,0.016,314.304,0.016,3.770,3.770,85.487,0.011,0.004,0.352,0.000,-0.0002,0.0490,0.0000,1.0000,0.5000,1.0000,0.0000
18.331,Upwind,323.170,0.017,323.170,0.017,3.773,3.773,86.658,0.011,0.004,0.349,0.000,-0.0002,0.0486,0.0000,1.0000,0.5000,1.0000,0.0000
18.530,Upwind,332.157,0.019,332.157,0.019,3.775,3.775,87.826,0.011,0.005,0.346,0.000,-0.0002,0.0482,0.0000,1.0000,0.5000,1.0000,0.0000
18.732,Upwind,341.264,0.020,341.264,0.020,3.777,3.777,88.991,0.011,0.005,0.344,0.000,-0.0002,0.0478,0.0000,1.0000,0.5000,1.0000,0.0000
18.927,Upwind,349.717,0.021,349.717,0.021,3.779,3.779,90.154,0.011,0.005,0.341,0.000,-0.0002,0.0474,0.0000,1.0000,0.5000,1.0000,0.0000
19.131,Upwind,359.836,0.022,359.836,0.022,3.782,3.782,91.314,0.012,0.005,0.338,0.000,-0.0002,0.0470,0.0000,1.0000,0.5000,1.0000,0.0000
19.325,Upwind,368.508,0.023,368.508,0.023,3.784,3.784,92.471,0.012,0.006,0.335,0.000,-0.0002,0.0466,0.0000,1.0000,0.5000,1.0000,0.0000
19.526,Upwind,378.082,0.025,378.082,0.025,3.786,3.786,93.626,0.012,0.006,0.332,0.000,-0.0002,0.0462,0.0000,1.0000,0.5000,1.0000,0.0000
19.731,Upwind,388.588,0.026,388.588,0.026,3.789,3.789,94.778,0.012,0.006,0.329,0.000,-0.0002,0.0457,0.0000,1.0000,0.5000,1.0000,0.0000
19.925,Upwind,397.586,0.028,397.586,0.028,3.791,3.791,95.928,0.012,0.006,0.326,0.000,-0.0002,0.0453,0.0000,1.0000,0.5000,1.0000,0.0000
20.126,Upwind,407.515,0.029,407.515,0.029,3.793,3.793,97.075,0.012,0.007,0.323,0.000,-0.0003,0.0449,0.0000,1.0000,0.5000,1.0000,0.0000
20.325,Upwind,417.563,0.031,417.563,0.031,3.796,3.796,98.219,0.012,0.007,0.320,0.000,-0.0003,0.0444,0.0000,1.0000,0.5000,1.0000,0.0000
20.536,Upwind,428.580,0.033,428.580,0.033,3.798,3.798,99.360,0.012,0.007,0.317,0.000,-0.0003,0.0440,0.0000,1.0000,0.5000,1.0000,0.0000
20.727,Upwind,438.010,0.034,438.010,0.034,3.801,3.801,100.499,0.012,0.008,0.313,0.000,-0.0003,0.0436,0.0000,1.0000,0.5000,1.0000,0.0000
20.928,Upwind,449.281,0.036,449.281,0.036,3.803,3.803,101.635,0.013,0.008,0.310,0.000,-0.0003,0.0431,0.0000,1.0000,0.5000,1.0000,0.0000
21.126,Upwind,458.925,0.038,458.925,0.038,3.806,3.806,102.768,0.013,0.008,0.307,0.000,-0.0003,0.0427,0.0000,1.0000,0.5000,1.0000,0.0000
21.324,Upwind,469.557,0.040,469.557,0.040,3.808,3.808,103.898,0.013,0.009,0.304,0.000,-0.0003,0.0422,0.0000,1.0000,0.5000,1.0000,0.0000
21.524,Upwind,480.306,0.042,480.306,0.042,3.811,3.811,105.026,0.013,0.009,0.301,0.000,-0.0003,0.0418,0.0000,1.0000,0.5000,1.0000,0.0000
21.733,Upwind,492.081,0.045,492.081,0.045,3.813,3.813,106.151,0.013,0.010,0.297,0.000,-0.0004,0.0413,0.0000,1.0000,0.5000,1.0000,0.0000
21.925,Upwind,502.150,0.047,502.150,0.047,3.816,3.816,107.272,0.013,0.010,0.294,0.000,-0.0004,0.0409,0.0000,1.0000,0.5000,1.0000,0.0000
22.123,Upwind,513.245,0.050,513.245,0.050,3.819,3.819,108.392,0.013,0.010,0.291,0.000,-0.0004,0.0404,0.0000,1.0000,0.5000,1.0000,0.0000
22.324,Upwind,524.456,0.052,524.456,0.052,3.821,3.821,109.508,0.013,0.011,0.288,0.000,-0.0004,0.0399,0.0000,1.0000,0.5000,1.0000,0.0000
22.533,Upwind,536.729,0.055,536.729,0.055,3.824,3.824,110.621,0.013,0.011,0.284,0.000,-0.0004,0.0395,0.0000,1.0000,0.5000,1.0000,0.0000
22.725,Upwind,547.220,0.058,547.220,0.058,3.826,3.826,111.731,0.013,0.012,0.281,0.000,-0.0004,0.0390,0.0000,1.0000,0.5000,1.0000,0.0000
22.931,Upwind,559.741,0.061,559.741,0.061,3.829,3.829,112.839,0.013,0.012,0.278,0.000,-0.0004,0.0385,0.0000,1.0000,0.5000,1.0000,0.0000
23.136,Upwind,571.418,0.064,571.418,0.064,3.832,3.832,113.944,0.014,0.012,0.274,0.000,-0.0005,0.0381,0.0000,1.0000,0.5000,1.0000,0.0000
23.330,Upwind,583.208,0.067,583.208,0.067,3.834,3.834,115.045,0.014,0.013,0.271,0.000,-0.0005,0.0376,0.0000,1.0000,0.5000,1.0000,0.0000
23.526,Upwind,594.115,0.070,594.115,0.070,3.837,3.837,116.053,0.014,0.013,0.268,0.000,-0.0005,0.0371,0.0000,1.0000,0.5000,1.0000,0.0000
23.729,Upwind,607.128,0.073,607.128,0.073,3.840,3.840,117.240,0.014,0.014,0.264,0.000,-0.0005,0.0366,0.0000,1.0000,0.5000,1.0000,0.0000
23.927,Upwind,618.242,0.077,618.242,0.077,3.843,3.843,118.333,0.014,0.014,0.261,0.000,-0.0005,0.0361,0.0000,1.0000,0.5000,1.0000,0.0000
24.127,Upwind,630.474,0.080,630.474,0.080,3.845,3.845,119.423,0.014,0.015,0.257,0.000,-0.0006,0.0356,0.0000,1.0000,0.5000,1.0000,0.0000
24.325,Upwind,642.818,0.084,642.818,0.084,3.848,3.848,120.510,0.014,0.015,0.254,0.000,-0.0006,0.0352,0.0000,1.0000,0.5000,1.0000,0.0000
24.522,Upwind,655.273,0.088,655.273,0.088,3.851,3.851,121.593,0.014,0.016,0.250,0.000,-0.0006,0.0347,0.0000,1.0000,0.5000,1.0000,0.0000
24.729,Upwind,668.892,0.092,668.892,0.092,3.854,3.854,122.674,0.014,0.016,0.247,0.000,-0.0006,0.0342,0.0000,1.0000,0.5000,1.0000,0.0000
24.929,Upwind,681.579,0.097,681.579,0.097,3.857,3.857,123.752,0.014,0.017,0.243,0.000,-0.0006,0.0337,0.0000,1.0000,0.5000,1.0000,0.0000
25.123,Upwind,693.306,0.101,693.306,0.101,3.860,3.860,124.827,0.014,0.017,0.239,0.000,-0.0007,0.0332,0.0000,1.0000,0.5000,1.0000,0.0000
25.328,Upwind,707.285,0.106,707.285,0.106,3.862,3.862,125.899,0.014,0.018,0.236,0.000,-0.0007,0.0327,0.0000,1.0000,0.5000,1.0000,0.0000
25.533,Upwind,720.304,0.110,720.304,0.110,3.865,3.865,126.968,0.014,0.018,0.232,0.000,-0.0007,0.0322,0.0000,1.0000,0.5000,1.0000,0.0000
25.728,Upwind,733.432,0.115,733.432,0.115,3.868,3.868,128.033,0.015,0.019,0.229,0.000,-0.0007,0.0317,0.0000,1.0000,0.5000,1.0000,0.0000
25.925,Upwind,745.562,0.120,745.562,0.120,3.871,3.871,129.096,0.015,0.019,0.225,0.000,-0.0007,0.0312,0.0000,1.0000,0.5000,1.0000,0.0000
26.128,Upwind,760.016,0.125,760.016,0.125,3.874,3.874,130.155,0.015,0.020,0.222,0.000,-0.0008,0.0307,0.0000,1.0000,0.5000,1.0000,0.0000
26.327,Upwind,772.347,0.130,772.347,0.130,3.877,3.877,131.212,0.015,0.021,0.218,0.000,-0.0008,0.0301,0.0000,1.0000,0.5000,1.0000,0.0000
26.532,Upwind,787.036,0.136,787.036,0.136,3.880,3.880,132.265,0.015,0.021,0.214,0.000,-0.0008,0.0296,0.0000,1.0000,0.5000,1.0000,0.0000
26.723,Upwind,799.565,0.141,799.565,0.141,3.882,3.882,133.228,0.015,0.022,0.211,0.000,-0.0008,0.0292,0.0000,1.0000,0.5000,1.0000,0.0000
26.928,Upwind,814.489,0.148,814.489,0.148,3.886,3.886,134.363,0.015,0.022,0.207,0.000,-0.0009,0.0286,0.0000,1.0000,0.5000,1.0000,0.0000
27.132,Upwind,828.377,0.154,828.377,0.154,3.889,3.889,135.409,0.015,0.023,0.203,-0.001,-0.0009,0.0281,0.0000,1.0000,0.5000,1.0000,0.0000
27.327,Upwind,841.202,0.160,841.202,0.160,3.892,3.892,136.451,0.015,0.023,0.200,-0.001,-0.0009,0.0276,0.0000,1.0000,0.5000,1.0000,0.0000
27.528,Upwind,856.475,0.167,856.475,0.167,3.895,3.895,137.491,0.015,0.024,0.196,-0.001,-0.0009,0.0271,0.0000,1.0000,0.5000,1.0000,0.0000
27.723,Upwind,869.496,0.173,869.496,0.173,3.898,3.898,138.528,0.015,0.025,0.192,-0.001,-0.0010,0.0265,0.0000,1.0000,0.5000,1.0000,0.0000
27.924,Upwind,883.803,0.180,883.803,0.180,3.901,3.901,139.563,0.015,0.025,0.188,-0.001,-0.0010,0.0260,0.0000,1.0000,0.5000,1.0000,0.0000
28.133,Upwind,899.422,0.187,899.422,0.187,3.904,3.904,140.595,0.015,0.026,0.185,-0.001,-0.0010,0.0255,0.0000,1.0000,0.5000,1.0000,0.0000
28.328,Upwind,913.950,0.194,913.950,0.194,3.907,3.907,141.624,0.015,0.026,0.181,-0.001,-0.0010,0.0250,0.0000,1.0000,0.5000,1.0000,0.0000
28.531,Upwind,928.584,0.202,928.584,0.202,3.910,3.910,142.651,0.015,0.027,0.177,-0.001,-0.0011,0.0244,0.0000,1.0000,0.5000,1.0000,0.0000
28.726,Upwind,942.091,0.209,942.091,0.209,3.913,3.913,143.674,0.015,0.028,0.173,-0.001,-0.0011,0.0239,0.0000,1.0000,0.5000,1.0000,0.0000
28.924,Upwind,956.927,0.217,956.927,0.217,3.916,3.916,144.611,0.015,0.028,0.170,-0.001,-0.0011,0.0234,0.0000,1.0000,0.5000,1.0000,0.0000
29.132,Upwind,973.117,0.226,973.117,0.226,3.919,3.919,145.714,0.016,0.029,0.166,-0.001,-0.0012,0.0228,0.0000,1.0000,0.5000,1.0000,0.0000
29.328,Upwind,988.171,0.234,988.171,0.234,3.922,3.922,146.730,0.016,0.030,0.162,-0.001,-0.0012,0.0223,0.0000,1.0000,0.5000,1.0000,0.0000
29.527,Upwind,1002.063,0.242,1002.063,0.242,3.925,3.925,147.742,0.016,0.030,0.158,-0.001,-0.0012,0.0218,0.0000,1.0000,0.5000,1.0000,0.0000
29.733,Upwind,1018.592,0.251,1018.592,0.251,3.928,3.928,148.753,0.016,0.031,0.154,-0.001,-0.0012,0.0212,0.0000,1.0000,0.5000,1.0000,0.0000
29.926,Upwind,1032.674,0.260,1032.674,0.260,3.931,3.931,149.760,0.016,0.032,0.151,-0.001,-0.0013,0.0207,0.0000,1.0000,0.5000,1.0000,0.0000
30.127,Upwind,1049.427,0.270,1049.427,0.270,3.927,3.927,150.745,-0.093,0.032,0.191,-0.001,-0.0013,-0.6500,0.0000,1.0000,0.5000,1.0000,0.0000
30.328,Upwind,1064.996,0.279,1064.996,0.279,3.916,3.916,151.711,0.027,0.033,0.365,-0.001,-0.0013,-0.6500,0.0000,1.0000,0.5000,1.0000,0.0000
30.535,Upwind,1080.664,0.289,1080.664,0.289,3.937,3.937,152.670,0.157,0.034,0.622,-0.001,-0.0014,-0.6500,0.0000,1.0000,0.5000,1.0000,0.0000
30.724,Upwind,1095.112,0.298,1095.112,0.298,3.969,3.969,153.545,0.184,0.034,0.933,-0.001,-0.0014,-0.6500,0.0000,1.0000,0.5000,1.0000,0.0000
30.922,Upwind,1110.968,0.309,1110.968,0.309,4.008,4.008,154.493,0.210,0.035,1.353,-0.001,-0.0014,-0.6500,0.0000,1.0000,0.5000,1.0000,0.0000
31.131,Upwind,1128.255,0.320,1128.255,0.320,4.057,4.057,155.512,0.246,0.036,1.898,-0.001,-0.0015,-0.6500,0.0000,1.0000,0.5000,1.0000,0.0000
31.323,Upwind,1142.970,0.330,1142.970,0.330,4.110,4.110,156.442,0.279,0.037,2.479,-0.002,-0.0015,-0.6500,0.0000,1.0000,0.5000,1.0000,0.0000
31.532,Upwind,1160.464,0.342,1160.464,0.342,4.169,4.169,157.362,0.309,0.038,3.129,-0.002,-0.0016,-0.6500,0.0000,1.0000,0.5000,1.0000,0.0000
31.730,Upwind,1176.711,0.353,1176.711,0.353,4.233,4.233,158.269,0.335,0.039,3.843,-0.002,-0.0016,-0.6500,0.0000,1.0000,0.5000,1.0000,0.0000
31.930,Upwind,1193.049,0.365,1193.049,0.365,4.305,4.305,159.161,0.435,0.040,4.613,-0.002,-0.0016,-0.6500,0.0000,1.0000,0.5000,1.0000,0.0000
32.124,Upwind,1208.106,0.376,1208.106,0.376,4.438,4.438,160.029,0.964,0.040,5.416,-0.004,-0.0014,-0.6500,0.0000,1.0000,0.5000,1.0000,0.0000
32.327,Upwind,1225.995,0.389,1225.995,0.389,4.720,4.720,160.865,1.925,0.041,6.221,-0.007,-0.0013,-0.6500,0.0000,1.0000,0.5000,1.0000,0.0000
32.532,Upwind,1242.595,0.402,1242.595,0.402,5.233,5.233,161.665,3.262,0.042,7.004,-0.011,-0.0011,-0.6500,0.0000,1.0000,0.5000,1.0000,0.0000
32.726,Upwind,1257.881,0.414,1257.881,0.414,6.045,6.045,162.426,4.902,0.042,7.750,-0.015,-0.0010,-0.6500,0.0000,1.0000,0.5000,1.0000,0.0000
32.923,Upwind,1274.628,0.427,1274.628,0.427,7.098,7.098,163.085,6.609,0.043,8.391,-0.019,-0.0008,-0.6500,0.0000,1.0000,0.5000,1.0000,0.0000
33.132,Upwind,1292.847,0.441,1292.847,0.441,8.764,8.764,163.816,8.794,0.043,9.092,-0.024,-0.0007,-0.6500,0.0000,1.0000,0.5000,1.0000,0.0000
33.328,Upwind,1309.732,0.454,1309.732,0.454,10.732,10.733,164.442,10.907,0.043,9.687,-0.028,-0.0006,-0.6500,0.0000,1.0000,0.5000,1.0000,0.0000
33.526,Upwind,1325.259,0.466,1325.259,0.466,13.132,13.132,165.024,13.098,0.043,10.235,-0.032,-0.0005,-0.6500,0.0000,1.0000,0.5000,1.0000,0.0000
33.733,Upwind,1343.665,0.481,1343.665,0.481,15.974,15.974,165.560,15.324,0.043,10.742,-0.035,-0.0004,-0.6500,0.0000,1.0000,0.5000,1.0000,0.0000
33.931,Upwind,1360.704,0.494,1360.704,0.494,19.263,19.263,166.055,17.568,0.043,11.213,-0.038,-0.0003,-0.5709,0.0000,1.0000,0.5000,1.0000,0.0000
34.132,Upwind,1377.783,0.507,1377.783,0.507,23.001,23.001,166.514,19.814,0.042,11.620,-0.041,-0.0002,-0.4900,0.0000,1.0000,0.5000,1.0000,0.0000
34.327,Upwind,1393.472,0.519,1393.472,0.519,27.185,27.185,166.940,22.009,0.042,11.926,-0.043,-0.0002,-0.4327,0.0000,1.0000,0.5000,1.0000,0.0000
34.528,Upwind,1412.048,0.533,1412.048,0.533,31.798,31.798,167.338,24.099,0.041,12.116,-0.044,-0.0002,-0.4027,0.0000,1.0000,0.5000,1.0000,0.0000
34.723,Upwind,1427.795,0.545,1427.795,0.545,36.381,36.381,167.682,25.875,0.040,12.196,-0.045,-0.0001,-0.3936,0.0000,1.0000,0.5000,1.0000,0.0000
34.926,Upwind,1445.001,0.558,1445.001,0.558,42.197,42.198,168.066,27.778,0.040,12.198,-0.046,-0.0001,-0.3997,0.0000,1.0000,0.5000,1.0000,0.0000
35.123,Upwind,1462.234,0.571,1462.234,0.571,47.911,47.911,168.405,29.326,0.039,12.145,-0.047,-0.0001,-0.4148,0.0000,1.0000,0.5000,1.0000,0.0000
35.326,Upwind,1479.493,0.584,1479.493,0.584,53.915,53.915,168.731,30.679,0.038,12.072,-0.047,-0.0001,-0.4310,0.0000,1.0000,0.5000,1.0000,0.0000
35.531,Upwind,1498.221,0.597,1498.221,0.597,60.171,60.171,169.046,31.858,0.038,12.009,-0.048,0.0000,-0.4218,0.0000,1.0000,0.5000,1.0000,0.0000
35.732,Upwind,1515.536,0.610,1515.536,0.610,66.650,66.650,169.353,32.912,0.037,11.965,-0.048,0.0000,-0.3684,0.0000,1.0000,0.5000,1.0000,0.0000
35.925,Upwind,1531.430,0.621,1531.430,0.621,73.330,73.330,169.656,33.875,0.036,11.919,-0.049,0.0000,-0.3226,0.0000,1.0000,0.5000,1.0000,0.0000
36.125,Upwind,1548.795,0.633,1548.795,0.633,80.193,80.194,169.955,34.742,0.036,11.850,-0.049,0.0000,-0.2885,0.0000,1.0000,0.5000,1.0000,0.0000
36.324,Upwind,1566.186,0.646,1566.186,0.646,87.220,87.220,170.251,35.504,0.036,11.748,-0.049,0.0000,-0.2678,0.0000,1.0000,0.5000,1.0000,0.0000
36.529,Upwind,1585.057,0.659,1585.057,0.659,94.388,94.388,170.547,36.155,0.035,11.612,-0.049,0.0000,-0.2602,0.0000,1.0000,0.5000,1.0000,0.0000
36.737,Upwind,1602.506,0.671,1602.506,0.671,101.673,101.674,170.842,36.681,0.035,11.452,-0.050,0.0000,-0.2632,0.0000,1.0000,0.5000,1.0000,0.0000
36.924,Upwind,1618.526,0.681,1618.526,0.681,109.052,109.052,171.138,37.088,0.035,11.282,-0.050,0.0000,-0.2733,0.0000,1.0000,0.5000,1.0000,0.0000
37.131,Upwind,1637.491,0.694,1637.491,0.694,116.501,116.502,171.435,37.388,0.035,11.120,-0.050,0.0000,-0.2859,0.0000,1.0000,0.5000,1.0000,0.0000
37.330,Upwind,1655.030,0.706,1655.030,0.706,124.001,124.002,171.733,37.600,0.035,10.980,-0.050,0.0000,-0.2973,0.0000,1.0000,0.5000,1.0000,0.0000
37.524,Upwind,1671.135,0.716,1671.135,0.716,131.537,131.537,172.032,37.747,0.035,10.873,-0.050,-0.0001,-0.3044,0.0000,1.0000,0.5000,1.0000,0.0000
37.731,Upwind,1690.202,0.728,1690.202,0.728,139.097,139.098,172.330,37.857,0.035,10.805,-0.050,-0.0001,-0.3044,0.0000,1.0000,0.5000,1.0000,0.0000
37.927,Upwind,1706.366,0.739,1706.366,0.739,146.679,146.680,172.628,37.959,0.034,10.773,-0.051,-0.0001,-0.2979,0.0000,1.0000,0.5000,1.0000,0.0000
38.134,Upwind,1725.503,0.751,1725.503,0.751,154.282,154.282,172.926,38.071,0.034,10.770,-0.051,-0.0001,-0.2850,0.0000,0.9992,0.5000,0.0000,0.0000
38.332,Upwind,1743.201,0.762,1743.201,0.762,161.909,161.910,173.218,38.208,0.034,10.784,-0.051,-0.0001,-0.2685,0.0000,0.9951,0.5000,0.0000,0.0000
38.527,Upwind,1759.451,0.772,1759.451,0.772,169.566,169.567,173.501,38.370,0.034,10.801,-0.051,0.0000,-0.2511,0.0000,0.9912,0.5000,0.0000,0.0000
38.728,Upwind,1778.687,0.784,1778.687,0.784,177.258,177.259,173.775,38.554,0.033,10.809,-0.052,-0.0001,-0.2357,0.0000,0.9873,0.5000,0.0000,0.0000
38.924,Upwind,1794.991,0.794,1794.991,0.794,184.988,184.989,174.040,38.746,0.033,10.799,-0.052,-0.0001,-0.2241,0.0000,0.9836,0.5000,0.0000,0.0000
39.123,Upwind,1812.802,0.805,1812.802,0.805,192.756,192.757,174.298,38.933,0.033,10.766,-0.052,0.0000,-0.2182,0.0000,0.9800,0.5000,0.0000,0.0000
39.332,Upwind,1832.129,0.817,1832.129,0.817,200.560,200.561,174.549,39.098,0.032,10.711,-0.052,-0.0001,-0.2182,0.0000,0.9765,0.5000,0.0000,0.0000
39.525,Upwind,1848.507,0.826,1848.507,0.826,208.394,208.395,174.794,39.232,0.032,10.639,-0.052,-0.0001,-0.2227,0.0000,0.9731,0.5000,0.0000,0.0000
39.735,Upwind,1867.891,0.838,1867.891,0.838,216.250,216.251,175.033,39.327,0.032,10.558,-0.052,-0.0001,-0.2305,0.0000,0.9697,0.5000,0.0000,0.0000
39.932,Upwind,1885.811,0.848,1885.811,0.848,224.122,224.123,175.268,39.384,0.031,10.477,-0.053,-0.0001,-0.2394,0.0000,0.9664,0.5000,0.0000,0.0000
40.128,Upwind,1903.756,0.858,1903.756,0.858,232.002,232.003,175.498,39.409,0.031,10.405,-0.053,-0.0001,-0.2474,0.0000,0.9632,0.5000,0.0000,0.0000
40.329,Upwind,1921.728,0.868,1921.728,0.868,239.884,239.885,175.724,39.411,0.031,10.348,-0.053,-0.0001,-0.2528,0.0000,0.9601,0.5000,0.0000,0.0000
40.528,Upwind,1939.725,0.879,1939.725,0.879,247.765,247.767,175.945,39.404,0.030,10.310,-0.053,0.0000,-0.2548,0.0000,0.9570,0.5000,0.0000,0.0000
40.728,Upwind,1957.747,0.889,1957.747,0.889,255.646,255.647,176.161,39.400,0.030,10.289,-0.053,0.0000,-0.2528,0.0000,0.9539,0.5000,0.0000,0.0000
40.922,Upwind,1974.288,0.898,1974.288,0.898,263.526,263.527,176.373,39.409,0.030,10.282,-0.053,0.0000,-0.2476,0.0000,0.9510,0.5000,0.0000,0.0000
41.124,Upwind,1992.356,0.907,1992.356,0.907,271.410,271.412,176.580,39.435,0.029,10.284,-0.053,0.0000,-0.2403,0.0000,0.9481,0.5000,0.0000,0.0000
41.329,Upwind,2011.955,0.918,2011.955,0.918,279.302,279.303,176.783,39.481,0.029,10.286,-0.053,0.0000,-0.2323,0.0000,0.9452,0.5000,0.0000,0.0000
41.528,Upwind,2030.071,0.928,2030.071,0.928,287.204,287.205,176.980,39.542,0.028,10.283,-0.053,-0.0001,-0.2251,0.0000,0.9425,0.5000,0.0000,0.0000
41.723,Upwind,2046.696,0.936,2046.696,0.936,295.119,295.120,177.173,39.613,0.028,10.271,-0.053,0.0000,-0.2198,0.0000,0.9398,0.5000,0.0000,0.0000
41.931,Upwind,2066.366,0.946,2066.366,0.946,303.049,303.050,177.362,39.683,0.028,10.246,-0.053,-0.0001,-0.2173,0.0000,0.9371,0.5000,0.0000,0.0000
42.126,Upwind,2083.030,0.955,2083.030,0.955,310.992,310.993,177.548,39.746,0.027,10.210,-0.053,0.0000,-0.2174,0.0000,0.9345,0.5000,0.0000,0.0000
42.337,Upwind,2102.746,0.965,2102.746,0.965,318.946,318.948,177.730,39.795,0.027,10.166,-0.054,-0.0001,-0.2200,0.0000,0.9320,0.5000,0.0000,0.0000
42.532,Upwind,2120.967,0.974,2120.967,0.974,326.909,326.910,177.910,39.826,0.027,10.116,-0.054,-0.0001,-0.2241,0.0000,0.9295,0.5000,0.0000,0.0000
42.729,Upwind,2139.209,0.983,2139.209,0.983,334.875,334.877,178.086,39.839,0.026,10.067,-0.054,-0.0001,-0.2287,0.0000,0.9270,0.5000,0.0000,0.0000
42.923,Upwind,2155.948,0.991,2155.948,0.991,342.843,342.845,178.261,39.838,0.026,10.022,-0.054,0.0000,-0.2328,0.0000,0.9245,0.5000,0.0000,0.0000
43.123,Upwind,2174.228,1.000,2174.228,1.000,350.810,350.811,178.432,39.826,0.026,9.985,-0.054,0.0000,-0.2355,0.0000,0.9221,0.5000,0.0000,0.0000
43.326,Upwind,2192.529,1.008,2192.529,1.008,358.773,358.775,178.600,39.810,0.025,9.957,-0.054,0.0000,-0.2363,0.0000,0.9198,0.5000,0.0000,0.0000
43.524,Upwind,2210.848,1.017,2210.848,1.017,366.071,366.073,178.748,39.798,0.025,9.940,-0.054,0.0000,-0.2351,0.0000,0.9177,0.5000,0.0000,0.0000
43.728,Upwind,2230.716,1.026,2230.716,1.026,374.693,374.694,178.919,39.791,0.025,9.928,-0.054,-0.0001,-0.2319,0.0000,0.9153,0.5000,0.0000,0.0000
43.924,Upwind,2247.544,1.034,2247.544,1.034,381.988,381.990,179.058,39.795,0.024,9.922,-0.054,0.0000,-0.2280,0.0000,0.9134,0.5000,0.0000,0.0000
44.129,Upwind,2267.450,1.043,2267.450,1.043,390.611,390.613,179.218,39.810,0.024,9.916,-0.054,0.0000,-0.2229,0.0000,0.9112,0.5000,0.0000,0.0000
44.325,Upwind,2284.309,1.050,2284.309,1.050,398.576,398.578,179.360,39.834,0.024,9.907,-0.054,0.0000,-0.2185,0.0000,0.9092,0.5000,0.0000,0.0000
44.528,Upwind,2304.252,1.059,2304.252,1.059,406.545,406.547,179.497,39.862,0.023,9.894,-0.054,0.0000,-0.2151,0.0000,0.9072,0.5000,0.0000,0.0000
44.734,Upwind,2322.677,1.066,2322.677,1.066,414.521,414.523,179.631,39.891,0.023,9.875,-0.054,-0.0001,-0.2132,0.0000,0.9054,0.5000,0.0000,0.0000
44.934,Upwind,2341.118,1.074,2341.118,1.074,422.501,422.503,179.760,39.915,0.023,9.849,-0.054,-0.0001,-0.2128,0.0000,0.9036,0.5000,0.0000,0.0000
45.125,Upwind,2358.036,1.081,2358.036,1.081,430.486,430.488,179.885,39.931,0.022,9.819,-0.054,0.0000,-0.2136,0.0000,0.9018,0.5000,0.0000,0.0000
45.335,Upwind,2378.046,1.089,2378.046,1.089,438.473,438.475,180.007,39.937,0.022,9.786,-0.054,0.0000,-0.2153,0.0000,0.9001,0.5000,0.0000,0.0000
45.523,Upwind,2394.990,1.096,2394.990,1.096,446.460,446.462,180.125,39.933,0.022,9.754,-0.054,0.0000,-0.2172,0.0000,0.8984,0.5000,0.0000,0.0000
45.723,Upwind,2413.489,1.104,2413.489,1.104,454.446,454.448,180.240,39.921,0.021,9.724,-0.054,0.0000,-0.2189,0.0000,0.8968,0.5000,0.0000,0.0000
45.933,Upwind,2433.546,1.111,2433.546,1.111,462.428,462.430,180.353,39.902,0.021,9.698,-0.054,0.0000,-0.2198,0.0000,0.8953,0.5000,0.0000,0.0000
46.125,Upwind,2450.529,1.118,2450.529,1.118,470.406,470.409,180.462,39.882,0.021,9.678,-0.054,0.0000,-0.2197,0.0000,0.8937,0.5000,0.0000,0.0000
46.327,Upwind,2469.070,1.125,2469.070,1.125,478.381,478.383,180.568,39.862,0.020,9.662,-0.054,0.0000,-0.2186,0.0000,0.8923,0.5000,0.0000,0.0000
46.533,Upwind,2489.170,1.132,2489.170,1.132,486.351,486.354,180.670,39.846,0.020,9.649,-0.054,-0.0001,-0.2166,0.0000,0.8908,0.5000,0.0000,0.0000
46.725,Upwind,2506.190,1.139,2506.190,1.139,494.319,494.322,180.770,39.835,0.019,9.639,-0.054,0.0000,-0.2142,0.0000,0.8894,0.5000,0.0000,0.0000
46.928,Upwind,2526.318,1.146,2526.318,1.146,502.286,502.288,180.867,39.828,0.019,9.629,-0.054,0.0000,-0.2117,0.0000,0.8881,0.5000,0.0000,0.0000
47.126,Upwind,2543.360,1.152,2543.360,1.152,510.251,510.253,180.961,39.825,0.019,9.617,-0.054,0.0000,-0.2094,0.0000,0.8867,0.5000,0.0000,0.0000
47.323,Upwind,2561.963,1.158,2561.963,1.158,518.216,518.218,181.053,39.824,0.018,9.602,-0.054,0.0000,-0.2077,0.0000,0.8855,0.5000,0.0000,0.0000
47.532,Upwind,2582.129,1.165,2582.129,1.165,526.180,526.183,181.142,39.821,0.018,9.584,-0.054,-0.0001,-0.2069,0.0000,0.8842,0.5000,0.0000,0.0000
47.726,Upwind,2599.204,1.171,2599.204,1.171,534.144,534.147,181.228,39.816,0.018,9.564,-0.054,-0.0001,-0.2067,0.0000,0.8830,0.5000,0.0000,0.0000
47.934,Upwind,2619.394,1.177,2619.394,1.177,542.106,542.109,181.312,39.805,0.017,9.541,-0.054,0.0000,-0.2072,0.0000,0.8818,0.5000,0.0000,0.0000
48.123,Upwind,2636.489,1.183,2636.489,1.183,550.066,550.068,181.394,39.789,0.017,9.517,-0.054,0.0000,-0.2080,0.0000,0.8807,0.5000,0.0000,0.0000
48.330,Upwind,2656.703,1.189,2656.703,1.189,558.022,558.024,181.474,39.768,0.017,9.494,-0.054,0.0000,-0.2088,0.0000,0.8796,0.5000,0.0000,0.0000
48.529,Upwind,2675.373,1.195,2675.373,1.195,565.973,565.975,181.552,39.743,0.016,9.473,-0.054,-0.0001,-0.2094,0.0000,0.8785,0.5000,0.0000,0.0000
48.723,Upwind,2692.497,1.200,2692.497,1.200,573.918,573.921,181.628,39.715,0.016,9.454,-0.054,0.0000,-0.2096,0.0000,0.8774,0.5000,0.0000,0.0000
48.922,Upwind,2711.187,1.206,2711.187,1.206,581.858,581.861,181.702,39.686,0.016,9.438,-0.054,-0.0001,-0.2093,0.0000,0.8764,0.5000,0.0000,0.0000
49.133,Upwind,2731.446,1.212,2731.446,1.212,589.793,589.796,181.774,39.658,0.015,9.424,-0.054,0.0000,-0.2084,0.0000,0.8754,0.5000,0.0000,0.0000
49.331,Upwind,2750.156,1.217,2750.156,1.217,597.722,597.725,181.845,39.633,0.015,9.412,-0.054,-0.0001,-0.2072,0.0000,0.8744,0.5000,0.0000,0.0000
49.529,Upwind,2768.877,1.223,2768.877,1.223,605.646,605.649,181.913,39.609,0.015,9.400,-0.054,-0.0001,-0.2058,0.0000,0.8734,0.5000,0.0000,0.0000
49.724,Upwind,2786.045,1.227,2786.045,1.227,613.566,613.568,181.980,39.588,0.014,9.388,-0.054,0.0000,-0.2045,0.0000,0.8725,0.5000,0.0000,0.0000
49.930,Upwind,2806.345,1.233,2806.345,1.233,621.481,621.484,182.045,39.568,0.014,9.375,-0.054,-0.0001,-0.2033,0.0000,0.8716,0.5000,0.0000,0.0000
50.132,Upwind,2825.093,1.238,2825.093,1.238,629.393,629.396,182.108,39.548,0.014,9.361,-0.054,-0.0001,-0.2026,0.0000,0.8707,0.5000,0.0000,0.0000
50.324,Upwind,2842.286,1.242,2842.286,1.242,637.300,637.303,182.170,39.528,0.013,9.345,-0.054,0.0000,-0.2021,0.0000,0.8698,0.5000,0.0000,0.0000
50.530,Upwind,2862.615,1.247,2862.615,1.247,645.204,645.207,182.230,39.505,0.013,9.327,-0.053,0.0000,-0.2021,0.0000,0.8690,0.5000,0.0000,0.0000
50.725,Upwind,2879.824,1.251,2879.824,1.251,653.102,653.105,182.289,39.479,0.013,9.309,-0.053,0.0000,-0.2023,0.0000,0.8681,0.5000,0.0000,0.0000
50.930,Upwind,2900.172,1.256,2900.172,1.256,660.995,660.998,182.347,39.451,0.013,9.291,-0.053,-0.0001,-0.2026,0.0000,0.8673,0.5000,0.0000,0.0000
51.127,Upwind,2917.396,1.260,2917.396,1.260,668.882,668.885,182.403,39.420,0.012,9.274,-0.053,0.0000,-0.2029,0.0000,0.8665,0.5000,0.0000,0.0000
51.331,Upwind,2937.762,1.265,2937.762,1.265,676.763,676.766,182.458,39.387,0.012,9.257,-0.053,0.0000,-0.2031,0.0000,0.8658,0.5000,0.0000,0.0000
51.527,Upwind,2955.001,1.269,2955.001,1.269,684.637,684.640,182.512,39.353,0.012,9.242,-0.053,0.0000,-0.2030,0.0000,0.8650,0.5000,0.0000,0.0000
51.726,Upwind,2973.816,1.273,2973.816,1.273,692.504,692.507,182.565,39.319,0.011,9.228,-0.053,0.0000,-0.2026,0.0000,0.8643,0.5000,0.0000,0.0000
51.928,Upwind,2994.207,1.277,2994.207,1.277,700.364,700.367,182.616,39.285,0.011,9.215,-0.053,-0.0001,-0.2020,0.0000,0.8636,0.5000,0.0000,0.0000
52.128,Upwind,3013.038,1.281,3013.038,1.281,708.218,708.221,182.667,39.253,0.011,9.203,-0.053,-0.0001,-0.2012,0.0000,0.8629,0.5000,0.0000,0.0000
52.327,Upwind,3030.306,1.285,3030.306,1.285,716.065,716.069,182.716,39.222,0.010,9.191,-0.053,0.0000,-0.2005,0.0000,0.8622,0.5000,0.0000,0.0000
52.526,Upwind,3049.151,1.289,3049.151,1.289,723.907,723.910,182.764,39.192,0.010,9.178,-0.053,0.0000,-0.1997,0.0000,0.8615,0.5000,0.0000,0.0000
52.729,Upwind,3069.575,1.292,3069.575,1.292,731.742,731.745,182.811,39.162,0.010,9.165,-0.053,0.0000,-0.1991,0.0000,0.8608,0.5000,0.0000,0.0000
52.928,Upwind,3088.435,1.296,3088.435,1.296,739.571,739.575,182.857,39.132,0.009,9.151,-0.052,0.0000,-0.1987,0.0000,0.8602,0.5000,0.0000,0.0000
53.125,Upwind,3105.730,1.299,3105.730,1.299,747.394,747.398,182.902,39.101,0.009,9.137,-0.052,-0.0001,-0.1985,0.0000,0.8596,0.5000,0.0000,0.0000
53.333,Upwind,3126.177,1.303,3126.177,1.303,755.211,755.215,182.947,39.068,0.009,9.122,-0.052,0.0000,-0.1985,0.0000,0.8589,0.5000,0.0000,0.0000
53.535,Upwind,3145.059,1.306,3145.059,1.306,763.022,763.025,182.990,39.034,0.009,9.106,-0.052,0.0000,-0.1986,0.0000,0.8583,0.5000,0.0000,0.0000
53.725,Upwind,3162.373,1.309,3162.373,1.309,770.825,770.829,183.032,38.999,0.008,9.091,-0.052,0.0000,-0.1987,0.0000,0.8577,0.5000,0.0000,0.0000
53.932,Upwind,3182.843,1.312,3182.843,1.312,778.621,778.625,183.074,38.962,0.008,9.077,-0.052,0.0000,-0.1987,0.0000,0.8572,0.5000,0.0000,0.0000
54.128,Upwind,3201.745,1.315,3201.745,1.315,786.410,786.414,183.115,38.925,0.008,9.063,-0.052,0.0000,-0.1987,0.0000,0.8566,0.5000,0.0000,0.0000
54.329,Upwind,3220.654,1.318,3220.654,1.318,794.191,794.195,183.155,38.887,0.007,9.049,-0.052,0.0000,-0.1985,0.0000,0.8560,0.5000,0.0000,0.0000
54.529,Upwind,3239.569,1.321,3239.569,1.321,801.965,801.969,183.195,38.850,0.007,9.036,-0.052,0.0000,-0.1981,0.0000,0.8555,0.5000,0.0000,0.0000
54.726,Upwind,3256.914,1.323,3256.914,1.323,809.731,809.735,183.233,38.813,0.007,9.024,-0.052,0.0000,-0.1977,0.0000,0.8549,0.5000,0.0000,0.0000
54.924,Upwind,3275.841,1.326,3275.841,1.326,817.490,817.494,183.271,38.776,0.007,9.012,-0.051,0.0000,-0.1973,0.0000,0.8544,0.5000,0.0000,0.0000
55.123,Upwind,3294.775,1.328,3294.775,1.328,825.241,825.245,183.308,38.740,0.006,9.000,-0.051,0.0000,-0.1968,0.0000,0.8539,0.5000,0.0000,0.0000
55.330,Upwind,3315.294,1.331,3315.294,1.331,832.986,832.990,183.345,38.704,0.006,8.988,-0.051,0.0000,-0.1964,0.0000,0.8534,0.5000,0.0000,0.0000
55.534,Upwind,3334.241,1.333,3334.241,1.333,840.723,840.727,183.381,38.669,0.006,8.975,-0.051,-0.0001,-0.1960,0.0000,0.8529,0.5000,0.0000,0.0000
55.727,Upwind,3351.615,1.335,3351.615,1.335,848.453,848.457,183.416,38.633,0.006,8.962,-0.051,0.0000,-0.1958,0.0000,0.8524,0.5000,0.0000,0.0000
55.934,Upwind,3372.154,1.338,3372.154,1.338,856.176,856.180,183.451,38.596,0.005,8.949,-0.051,0.0000,-0.1957,0.0000,0.8519,0.5000,0.0000,0.0000
56.132,Upwind,3391.119,1.340,3391.119,1.340,863.891,863.896,183.485,38.559,0.005,8.935,-0.051,0.0000,-0.1956,0.0000,0.8514,0.5000,0.0000,0.0000
56.325,Upwind,3408.509,1.342,3408.509,1.342,871.599,871.603,183.518,38.520,0.005,8.922,-0.051,0.0000,-0.1956,0.0000,0.8509,0.5000,0.0000,0.0000
56.528,Upwind,3429.067,1.344,3429.067,1.344,879.299,879.304,183.551,38.481,0.005,8.908,-0.051,0.0000,-0.1956,0.0000,0.8505,0.5000,0.0000,0.0000
56.729,Upwind,3448.050,1.345,3448.050,1.345,886.992,886.996,183.584,38.442,0.004,8.895,-0.050,0.0000,-0.1956,0.0000,0.8500,0.5000,0.0000,0.0000
56.929,Upwind,3467.039,1.347,3467.039,1.347,894.676,894.680,183.616,38.402,0.004,8.883,-0.050,0.0000,-0.1954,0.0000,0.8496,0.5000,0.0000,0.0000
57.128,Upwind,3486.034,1.349,3486.034,1.349,902.353,902.357,183.647,38.362,0.004,8.870,-0.050,0.0000,-0.1952,0.0000,0.8491,0.5000,0.0000,0.0000
57.326,Upwind,3503.450,1.350,3503.450,1.350,909.382,909.387,183.676,38.326,0.004,8.859,-0.050,0.0000,-0.1950,0.0000,0.8487,0.5000,0.0000,0.0000
57.526,Upwind,3522.455,1.352,3522.455,1.352,917.681,917.686,183.709,38.283,0.003,8.846,-0.050,0.0000,-0.1947,0.0000,0.8483,0.5000,0.0000,0.0000
57.722,Upwind,3541.466,1.353,3541.466,1.353,925.334,925.338,183.739,38.244,0.003,8.835,-0.050,0.0000,-0.1944,0.0000,0.8478,0.5000,0.0000,0.0000
57.928,Upwind,3562.068,1.355,3562.068,1.355,932.979,932.983,183.769,38.205,0.003,8.823,-0.050,0.0000,-0.1941,0.0000,0.8474,0.5000,0.0000,0.0000
58.122,Upwind,3579.505,1.356,3579.505,1.356,940.616,940.620,183.798,38.166,0.003,8.811,-0.050,0.0000,-0.1938,0.0000,0.8470,0.5000,0.0000,0.0000
58.333,Upwind,3600.118,1.357,3600.118,1.357,948.245,948.249,183.826,38.127,0.002,8.799,-0.049,0.0000,-0.1936,0.0000,0.8466,0.5000,0.0000,0.0000
58.529,Upwind,3619.151,1.358,3619.151,1.358,955.866,955.871,183.855,38.087,0.002,8.787,-0.049,0.0000,-0.1935,0.0000,0.8462,0.5000,0.0000,0.0000
58.725,Upwind,3636.603,1.359,3636.603,1.359,963.480,963.484,183.883,38.048,0.002,8.774,-0.049,-0.0001,-0.1934,0.0000,0.8458,0.5000,0.0000,0.0000
58.932,Upwind,3657.234,1.360,3657.234,1.360,971.085,971.090,183.910,38.008,0.002,8.762,-0.049,0.0000,-0.1933,0.0000,0.8454,0.5000,0.0000,0.0000
59.125,Upwind,3674.696,1.361,3674.696,1.361,978.050,978.055,183.936,37.971,0.002,8.750,-0.049,0.0000,-0.1933,0.0000,0.8451,0.5000,0.0000,0.0000
59.341,Upwind,3695.338,1.362,3695.338,1.362,986.272,986.277,183.965,37.926,0.001,8.737,-0.049,0.0000,-0.1932,0.0000,0.8447,0.5000,0.0000,0.0000
59.530,Upwind,3714.397,1.363,3714.397,1.363,993.853,993.858,183.991,37.885,0.001,8.725,-0.049,0.0000,-0.1931,0.0000,0.8443,0.5000,0.0000,0.0000
59.740,Upwind,3733.462,1.363,3733.462,1.363,1001.426,1001.431,184.018,37.844,0.001,8.713,-0.049,0.0000,-0.1930,0.0000,0.8439,0.5000,0.0000,0.0000
59.926,Upwind,3750.943,1.364,3750.943,1.364,1008.991,1008.995,184.044,37.803,0.001,8.701,-0.048,0.0000,-0.1928,0.0000,0.8436,0.5000,0.0000,0.0000
60.131,Upwind,3771.607,1.365,3771.607,1.365,1016.547,1016.552,184.069,37.762,0.000,8.690,-0.048,0.0000,-0.1926,0.0000,0.8432,0.5000,0.0000,0.0000
60.327,Upwind,3789.097,1.365,3789.097,1.365,1024.095,1024.100,184.095,37.721,0.000,8.678,-0.048,0.0000,-0.1924,0.0000,0.8428,0.5000,0.0000,0.0000
60.529,Upwind,3809.773,1.365,3809.773,1.365,1031.635,1031.640,184.120,37.680,0.000,8.667,-0.048,0.0000,-0.1922,0.0000,0.8425,0.5000,0.0000,0.0000
60.725,Upwind,3827.272,1.366,3827.272,1.366,1039.167,1039.172,184.145,37.639,360.000,8.655,-0.048,0.0000,-0.1920,0.0000,0.8421,0.5000,0.0000,0.0000
60.931,Upwind,3847.958,1.366,3847.958,1.366,1046.691,1046.696,184.169,37.599,360.000,8.644,-0.048,0.0000,-0.1918,0.0000,0.8418,0.5000,0.0000,0.0000
61.125,Upwind,3865.467,1.366,3865.467,1.366,1054.207,1054.212,184.193,37.558,360.000,8.632,-0.048,0.0000,-0.1916,0.0000,0.8415,0.5000,0.0000,0.0000
61.347,Upwind,3887.756,1.367,3887.756,1.367,1061.714,1061.719,184.217,37.517,359.999,8.620,-0.048,0.0000,-0.1915,0.0000,0.8411,0.5000,0.0000,0.0000
61.526,Upwind,3903.681,1.367,3903.681,1.367,1069.213,1069.218,184.241,37.476,359.999,8.608,-0.047,0.0000,-0.1914,0.0000,0.8408,0.5000,0.0000,0.0000
61.724,Upwind,3922.796,1.367,3922.796,1.367,1076.704,1076.709,184.265,37.434,359.999,8.597,-0.047,0.0000,-0.1914,0.0000,0.8405,0.5000,0.0000,0.0000
61.926,Upwind,3941.915,1.367,3941.915,1.367,1084.187,1084.192,184.288,37.393,359.999,8.585,-0.047,0.0000,-0.1913,0.0000,0.8401,0.5000,0.0000,0.0000
62.134,Upwind,3962.633,1.367,3962.633,1.367,1091.661,1091.667,184.311,37.351,359.999,8.573,-0.047,0.0000,-0.1912,0.0000,0.8398,0.5000,0.0000,0.0000
62.325,Upwind,3980.168,1.366,3980.168,1.366,1098.505,1098.511,184.332,37.313,359.998,8.563,-0.047,0.0000,-0.1911,0.0000,0.8395,0.5000,0.0000,0.0000
62.525,Upwind,3999.302,1.366,3999.302,1.366,1106.585,1106.590,184.357,37.267,359.998,8.551,-0.047,0.0000,-0.1909,0.0000,0.8392,0.5000,0.0000,0.0000
62.726,Upwind,4018.440,1.366,4018.440,1.366,1114.034,1114.039,184.379,37.225,359.998,8.539,-0.047,0.0000,-0.1908,0.0000,0.8389,0.5000,0.0000,0.0000
62.923,Upwind,4037.583,1.366,4037.583,1.366,1121.475,1121.480,184.401,37.184,359.998,8.528,-0.047,0.0000,-0.1906,0.0000,0.8386,0.5000,0.0000,0.0000
63.123,Upwind,4056.731,1.365,4056.731,1.365,1128.288,1128.294,184.421,37.146,359.998,8.518,-0.047,0.0000,-0.1905,0.0000,0.8383,0.5000,0.0000,0.0000
63.324,Upwind,4075.884,1.365,4075.884,1.365,1136.332,1136.337,184.445,37.101,359.998,8.506,-0.046,0.0000,-0.1903,0.0000,0.8379,0.5000,0.0000,0.0000
63.530,Upwind,4096.637,1.365,4096.637,1.365,1143.748,1143.753,184.467,37.059,359.998,8.495,-0.046,0.0000,-0.1902,0.0000,0.8376,0.5000,0.0000,0.0000
63.727,Upwind,4114.203,1.364,4114.203,1.364,1151.155,1151.161,184.488,37.017,359.997,8.483,-0.046,0.0000,-0.1900,0.0000,0.8373,0.5000,0.0000,0.0000
63.926,Upwind,4133.369,1.363,4133.369,1.363,1158.555,1158.560,184.510,36.976,359.997,8.472,-0.046,0.0000,-0.1899,0.0000,0.8370,0.5000,0.0000,0.0000
64.128,Upwind,4154.138,1.363,4154.138,1.363,1165.946,1165.951,184.531,36.934,359.997,8.461,-0.046,0.0000,-0.1898,0.0000,0.8367,0.5000,0.0000,0.0000
64.324,Upwind,4171.716,1.362,4171.716,1.362,1172.713,1172.719,184.550,36.896,359.997,8.450,-0.046,0.0000,-0.1897,0.0000,0.8365,0.5000,0.0000,0.0000
64.533,Upwind,4192.494,1.361,4192.494,1.361,1180.702,1180.708,184.573,36.850,359.997,8.438,-0.046,0.0000,-0.1897,0.0000,0.8362,0.5000,0.0000,0.0000
64.728,Upwind,4211.679,1.361,4211.679,1.361,1188.068,1188.074,184.593,36.808,359.997,8.427,-0.046,0.0000,-0.1896,0.0000,0.8359,0.5000,0.0000,0.0000
64.925,Upwind,4229.270,1.360,4229.270,1.360,1194.813,1194.819,184.612,36.770,359.996,8.417,-0.046,0.0000,-0.1895,0.0000,0.8356,0.5000,0.0000,0.0000
65.132,Upwind,4250.063,1.359,4250.063,1.359,1202.775,1202.781,184.634,36.724,359.996,8.405,-0.046,0.0000,-0.1893,0.0000,0.8353,0.5000,0.0000,0.0000
65.345,Upwind,4270.862,1.358,4270.862,1.358,1210.115,1210.121,184.654,36.682,359.996,8.394,-0.045,0.0000,-0.1892,0.0000,0.8350,0.5000,0.0000,0.0000
65.539,Upwind,4288.465,1.357,4288.465,1.357,1217.448,1217.453,184.675,36.640,359.996,8.383,-0.045,0.0000,-0.1891,0.0000,0.8347,0.5000,0.0000,0.0000
65.731,Upwind,4307.672,1.356,4307.672,1.356,1224.771,1224.777,184.695,36.598,359.996,8.372,-0.045,0.0000,-0.1890,0.0000,0.8344,0.5000,0.0000,0.0000
65.930,Upwind,4326.884,1.355,4326.884,1.355,1232.087,1232.093,184.714,36.556,359.996,8.361,-0.045,0.0000,-0.1888,0.0000,0.8342,0.5000,0.0000,0.0000
66.135,Upwind,4346.101,1.354,4346.101,1.354,1239.394,1239.400,184.734,36.515,359.996,8.350,-0.045,0.0000,-0.1887,0.0000,0.8339,0.5000,0.0000,0.0000
66.326,Upwind,4363.720,1.353,4363.720,1.353,1246.085,1246.091,184.752,36.476,359.996,8.340,-0.045,0.0000,-0.1886,0.0000,0.8336,0.5000,0.0000,0.0000
66.529,Upwind,4384.547,1.352,4384.547,1.352,1253.983,1253.989,184.773,36.431,359.995,8.328,-0.045,0.0000,-0.1885,0.0000,0.8333,0.5000,0.0000,0.0000
66.726,Upwind,4402.174,1.351,4402.174,1.351,1260.658,1260.665,184.791,36.393,359.995,8.318,-0.045,0.0000,-0.1884,0.0000,0.8331,0.5000,0.0000,0.0000
66.925,Upwind,4421.407,1.349,4421.407,1.349,1267.933,1267.939,184.810,36.351,359.995,8.307,-0.045,0.0000,-0.1883,0.0000,0.8328,0.5000,0.0000,0.0000
67.131,Upwind,4442.248,1.348,4442.248,1.348,1275.199,1275.205,184.829,36.309,359.995,8.297,-0.045,0.0000,-0.1882,0.0000,0.8326,0.5000,0.0000,0.0000
67.337,Upwind,4461.491,1.347,4461.491,1.347,1283.061,1283.067,184.850,36.263,359.995,8.285,-0.045,0.0000,-0.1881,0.0000,0.8323,0.5000,0.0000,0.0000
67.522,Upwind,4479.134,1.345,4479.134,1.345,1289.705,1289.711,184.867,36.225,359.995,8.275,-0.045,0.0000,-0.1880,0.0000,0.8320,0.5000,0.0000,0.0000
67.725,Upwind,4498.385,1.344,4498.385,1.344,1297.549,1297.555,184.888,36.179,359.995,8.263,-0.045,0.0000,-0.1879,0.0000,0.8317,0.5000,0.0000,0.0000
67.932,Upwind,4519.245,1.342,4519.245,1.342,1304.781,1304.787,184.907,36.137,359.995,8.252,-0.044,0.0000,-0.1878,0.0000,0.8315,0.5000,0.0000,0.0000
68.128,Upwind,4538.504,1.341,4538.504,1.341,1312.004,1312.010,184.925,36.095,359.994,8.242,-0.044,0.0000,-0.1877,0.0000,0.8312,0.5000,0.0000,0.0000
68.336,Upwind,4557.769,1.339,4557.769,1.339,1319.219,1319.225,184.944,36.053,359.994,8.231,-0.044,0.0000,-0.1876,0.0000,0.8309,0.5000,0.0000,0.0000
68.525,Upwind,4575.431,1.338,4575.431,1.338,1326.425,1326.431,184.962,36.011,359.994,8.220,-0.044,0.0000,-0.1875,0.0000,0.8307,0.5000,0.0000,0.0000
68.724,Upwind,4594.703,1.336,4594.703,1.336,1333.623,1333.629,184.981,35.969,359.994,8.210,-0.044,0.0000,-0.1874,0.0000,0.8304,0.5000,0.0000,0.0000
68.924,Upwind,4613.980,1.335,4613.980,1.335,1340.214,1340.220,184.998,35.931,359.994,8.200,-0.044,0.0000,-0.1873,0.0000,0.8302,0.5000,0.0000,0.0000
69.127,Upwind,4633.261,1.333,4633.261,1.333,1347.994,1348.001,185.017,35.886,359.994,8.189,-0.044,0.0000,-0.1872,0.0000,0.8299,0.5000,0.0000,0.0000
69.336,Upwind,4654.153,1.331,4654.153,1.331,1355.167,1355.174,185.035,35.844,359.994,8.178,-0.044,0.0000,-0.1871,0.0000,0.8297,0.5000,0.0000,0.0000
69.527,Upwind,4671.835,1.330,4671.835,1.330,1362.332,1362.338,185.053,35.802,359.994,8.167,-0.044,0.0000,-0.1870,0.0000,0.8294,0.5000,0.0000,0.0000
69.724,Upwind,4691.128,1.328,4691.128,1.328,1369.488,1369.494,185.071,35.760,359.994,8.157,-0.044,0.0000,-0.1869,0.0000,0.8292,0.5000,0.0000,0.0000
69.926,Upwind,4710.426,1.326,4710.426,1.326,1376.636,1376.642,185.089,35.719,359.994,8.146,-0.044,0.0000,-0.1868,0.0000,0.8289,0.5000,0.0000,0.0000
70.130,Upwind,4731.336,1.324,4731.336,1.324,1383.775,1383.782,185.107,35.677,359.993,8.136,-0.044,0.0000,-0.1867,0.0000,0.8287,0.5000,0.0000,0.0000
70.330,Upwind,4750.642,1.322,4750.642,1.322,1390.906,1390.913,185.125,35.635,359.993,8.125,-0.044,0.0000,-0.1866,0.0000,0.8284,0.5000,0.0000,0.0000
70.524,Upwind,4768.343,1.320,4768.343,1.320,1398.029,1398.036,185.143,35.593,359.993,8.115,-0.044,0.0000,-0.1865,0.0000,0.8282,0.5000,0.0000,0.0000
70.723,Upwind,4787.657,1.319,4787.657,1.319,1404.551,1404.558,185.159,35.555,359.993,8.105,-0.043,0.0000,-0.1864,0.0000,0.8279,0.5000,0.0000,0.0000
70.933,Upwind,4808.586,1.316,4808.586,1.316,1412.250,1412.257,185.178,35.510,359.993,8.094,-0.043,0.0000,-0.1863,0.0000,0.8277,0.5000,0.0000,0.0000
71.124,Upwind,4826.298,1.315,4826.298,1.315,1418.756,1418.763,185.194,35.472,359.993,8.084,-0.043,0.0000,-0.1862,0.0000,0.8274,0.5000,0.0000,0.0000
71.332,Upwind,4847.236,1.312,4847.236,1.312,1426.437,1426.444,185.213,35.427,359.993,8.073,-0.043,0.0001,-0.1861,0.0000,0.8272,0.5000,0.0000,0.0000
71.524,Upwind,4864.956,1.311,4864.956,1.311,1432.928,1432.935,185.229,35.388,359.993,8.063,-0.043,0.0000,-0.1860,0.0000,0.8270,0.5000,0.0000,0.0000
71.732,Upwind,4885.902,1.308,4885.902,1.308,1440.591,1440.598,185.248,35.343,359.993,8.052,-0.043,0.0000,-0.1859,0.0000,0.8267,0.5000,0.0000,0.0000
71.929,Upwind,4905.241,1.306,4905.241,1.306,1447.655,1447.662,185.265,35.302,359.993,8.042,-0.043,0.0000,-0.1858,0.0000,0.8264,0.5000,0.0000,0.0000
72.124,Upwind,4922.972,1.304,4922.972,1.304,1454.124,1454.131,185.281,35.264,359.993,8.032,-0.043,0.0000,-0.1857,0.0000,0.8262,0.5000,0.0000,0.0000
72.325,Upwind,4942.319,1.302,4942.319,1.302,1461.759,1461.766,185.299,35.219,359.993,8.021,-0.042,0.0000,-0.1856,0.0000,0.8260,0.5000,0.0000,0.0000
72.532,Upwind,4963.283,1.300,4963.283,1.300,1468.799,1468.806,185.316,35.177,359.992,8.011,-0.042,0.0000,-0.1855,0.0000,0.8257,0.5000,0.0000,0.0000
72.734,Upwind,4982.639,1.298,4982.639,1.298,1475.830,1475.837,185.333,35.136,359.992,8.000,-0.042,0.0000,-0.1854,0.0000,0.8255,0.5000,0.0000,0.0000
72.934,Upwind,5001.998,1.295,5001.998,1.295,1482.853,1482.860,185.350,35.094,359.992,7.990,-0.042,0.0000,-0.1853,0.0000,0.8252,0.5000,0.0000,0.0000
73.128,Upwind,5021.362,1.293,5021.362,1.293,1489.868,1489.875,185.367,35.053,359.992,7.980,-0.042,0.0000,-0.1853,0.0000,0.8250,0.5000,0.0000,0.0000
73.333,Upwind,5040.730,1.291,5040.730,1.291,1496.874,1496.882,185.384,35.012,359.992,7.969,-0.042,0.0000,-0.1852,0.0000,0.8248,0.5000,0.0000,0.0000
73.534,Upwind,5060.101,1.289,5060.101,1.289,1503.873,1503.880,185.401,34.970,359.992,7.959,-0.042,0.0000,-0.1851,0.0000,0.8245,0.5000,0.0000,0.0000
73.730,Upwind,5079.477,1.286,5079.477,1.286,1510.862,1510.870,185.418,34.929,359.992,7.949,-0.042,0.0000,-0.1850,0.0000,0.8243,0.5000,0.0000,0.0000
73.929,Upwind,5098.857,1.284,5098.857,1.284,1517.844,1517.851,185.435,34.888,359.992,7.939,-0.041,0.0001,-0.1849,0.0000,0.8241,0.5000,0.0000,0.0000
74.127,Upwind,5116.625,1.282,5116.625,1.282,1524.817,1524.825,185.451,34.846,359.992,7.929,-0.041,0.0000,-0.1848,0.0000,0.8238,0.5000,0.0000,0.0000
74.326,Upwind,5136.013,1.280,5136.013,1.280,1531.783,1531.790,185.468,34.805,359.992,7.918,-0.041,0.0000,-0.1847,0.0000,0.8236,0.5000,0.0000,0.0000
74.528,Upwind,5157.020,1.277,5157.020,1.277,1538.739,1538.747,185.485,34.764,359.992,7.908,-0.041,0.0000,-0.1846,0.0000,0.8234,0.5000,0.0000,0.0000
74.736,Upwind,5176.416,1.275,5176.416,1.275,1545.688,1545.695,185.501,34.723,359.992,7.898,-0.041,0.0000,-0.1845,0.0000,0.8231,0.5000,0.0000,0.0000
74.929,Upwind,5195.816,1.272,5195.816,1.272,1552.628,1552.636,185.518,34.682,359.992,7.888,-0.041,0.0000,-0.1844,0.0000,0.8229,0.5000,0.0000,0.0000
75.135,Upwind,5215.219,1.270,5215.219,1.270,1559.561,1559.568,185.534,34.641,359.992,7.878,-0.041,0.0000,-0.1843,0.0000,0.8227,0.5000,0.0000,0.0000
75.323,Upwind,5233.010,1.268,5233.010,1.268,1566.485,1566.492,185.551,34.600,359.992,7.868,-0.041,0.0000,-0.1842,0.0000,0.8224,0.5000,0.0000,0.0000
75.533,Upwind,5254.039,1.265,5254.039,1.265,1573.400,1573.408,185.567,34.559,359.992,7.858,-0.041,0.0000,-0.1842,0.0000,0.8222,0.5000,0.0000,0.0000
75.733,Upwind,5273.454,1.263,5273.454,1.263,1580.308,1580.316,185.584,34.518,359.992,7.847,-0.040,0.0000,-0.1841,0.0000,0.8220,0.5000,0.0000,0.0000
75.931,Upwind,5292.874,1.260,5292.874,1.260,1587.207,1587.215,185.600,34.477,359.992,7.837,-0.040,0.0000,-0.1840,0.0000,0.8217,0.5000,0.0000,0.0000
76.131,Upwind,5312.297,1.258,5312.297,1.258,1594.099,1594.106,185.616,34.436,359.992,7.827,-0.040,0.0000,-0.1839,0.0000,0.8215,0.5000,0.0000,0.0000
76.334,Upwind,5331.725,1.255,5331.725,1.255,1600.982,1600.989,185.633,34.395,359.992,7.817,-0.040,0.0000,-0.1838,0.0000,0.8213,0.5000,0.0000,0.0000
76.529,Upwind,5351.156,1.253,5351.156,1.253,1607.856,1607.864,185.649,34.354,359.992,7.807,-0.040,0.0000,-0.1837,0.0000,0.8211,0.5000,0.0000,0.0000
76.731,Upwind,5370.592,1.251,5370.592,1.251,1614.723,1614.731,185.665,34.313,359.992,7.797,-0.040,0.0000,-0.1836,0.0000,0.8208,0.5000,0.0000,0.0000
76.932,Upwind,5390.031,1.248,5390.031,1.248,1621.582,1621.589,185.681,34.272,359.992,7.787,-0.040,0.0000,-0.1835,0.0000,0.8206,0.5000,0.0000,0.0000
77.135,Upwind,5409.474,1.246,5409.474,1.246,1628.432,1628.440,185.697,34.232,359.992,7.777,-0.040,0.0000,-0.1834,0.0000,0.8204,0.5000,0.0000,0.0000
77.326,Upwind,5427.300,1.243,5427.300,1.243,1635.274,1635.282,185.714,34.191,359.992,7.767,-0.040,0.0000,-0.1833,0.0000,0.8202,0.5000,0.0000,0.0000
77.532,Upwind,5448.372,1.241,5448.372,1.241,1642.108,1642.116,185.730,34.150,359.992,7.758,-0.040,0.0000,-0.1833,0.0000,0.8199,0.5000,0.0000,0.0000
77.727,Upwind,5467.827,1.238,5467.827,1.238,1648.934,1648.942,185.746,34.110,359.992,7.748,-0.039,0.0000,-0.1832,0.0000,0.8197,0.5000,0.0000,0.0000
77.928,Upwind,5487.286,1.236,5487.286,1.236,1655.752,1655.760,185.762,34.069,359.992,7.738,-0.039,0.0001,-0.1831,0.0000,0.8195,0.5000,0.0000,0.0000
78.129,Upwind,5506.748,1.233,5506.748,1.233,1662.562,1662.570,185.778,34.028,359.992,7.728,-0.039,0.0000,-0.1830,0.0000,0.8193,0.5000,0.0000,0.0000
78.332,Upwind,5526.215,1.231,5526.215,1.231,1669.363,1669.371,185.794,33.988,359.992,7.718,-0.039,0.0000,-0.1829,0.0000,0.8190,0.5000,0.0000,0.0000
78.532,Upwind,5545.685,1.228,5545.685,1.228,1676.157,1676.165,185.810,33.947,359.992,7.708,-0.039,0.0000,-0.1828,0.0000,0.8188,0.5000,0.0000,0.0000
78.729,Upwind,5565.159,1.226,5565.159,1.226,1682.942,1682.950,185.826,33.907,359.992,7.698,-0.039,0.0000,-0.1827,0.0000,0.8186,0.5000,0.0000,0.0000
78.925,Upwind,5583.014,1.224,5583.014,1.224,1689.720,1689.728,185.841,33.866,359.992,7.688,-0.039,0.0000,-0.1827,0.0000,0.8184,0.5000,0.0000,0.0000
79.123,Upwind,5602.496,1.221,5602.496,1.221,1696.489,1696.497,185.857,33.826,359.992,7.679,-0.039,0.0000,-0.1826,0.0000,0.8181,0.5000,0.0000,0.0000
79.332,Upwind,5623.605,1.219,5623.605,1.219,1703.250,1703.258,185.873,33.786,359.992,7.669,-0.039,0.0000,-0.1825,0.0000,0.8179,0.5000,0.0000,0.0000
79.529,Upwind,5643.095,1.216,5643.095,1.216,1710.003,1710.011,185.889,33.745,359.992,7.659,-0.039,0.0000,-0.1824,0.0000,0.8177,0.5000,0.0000,0.0000
79.726,Upwind,5660.964,1.214,5660.964,1.214,1716.748,1716.756,185.905,33.705,359.992,7.649,-0.039,0.0000,-0.1823,0.0000,0.8175,0.5000,0.0000,0.0000
79.926,Upwind,5680.461,1.211,5680.461,1.211,1723.485,1723.493,185.920,33.665,359.992,7.639,-0.038,0.0000,-0.1822,0.0000,0.8173,0.5000,0.0000,0.0000
80.129,Upwind,5701.587,1.209,5701.587,1.209,1730.214,1730.222,185.936,33.625,359.992,7.630,-0.038,0.0000,-0.1821,0.0000,0.8170,0.5000,0.0000,0.0000
80.326,Upwind,5719.467,1.207,5719.467,1.207,1736.935,1736.943,185.952,33.585,359.992,7.620,-0.038,0.0000,-0.1820,0.0000,0.8168,0.5000,0.0000,0.0000
80.528,Upwind,5740.601,1.204,5740.601,1.204,1743.648,1743.656,185.968,33.545,359.992,7.610,-0.038,0.0000,-0.1820,0.0000,0.8166,0.5000,0.0000,0.0000
80.723,Upwind,5758.487,1.202,5758.487,1.202,1749.794,1749.803,185.982,33.508,359.992,7.601,-0.038,0.0000,-0.1819,0.0000,0.8164,0.5000,0.0000,0.0000
80.934,Upwind,5779.630,1.199,5779.630,1.199,1757.050,1757.058,185.999,33.464,359.992,7.591,-0.038,0.0000,-0.1818,0.0000,0.8162,0.5000,0.0000,0.0000
81.125,Upwind,5797.524,1.197,5797.524,1.197,1763.738,1763.747,186.014,33.424,359.992,7.581,-0.038,0.0000,-0.1817,0.0000,0.8159,0.5000,0.0000,0.0000
81.332,Upwind,5818.674,1.194,5818.674,1.194,1770.419,1770.428,186.030,33.384,359.992,7.571,-0.038,0.0000,-0.1816,0.0000,0.8157,0.5000,0.0000,0.0000
81.531,Upwind,5838.202,1.192,5838.202,1.192,1777.092,1777.101,186.046,33.345,359.992,7.562,-0.038,0.0001,-0.1815,0.0000,0.8155,0.5000,0.0000,0.0000
81.731,Upwind,5857.734,1.190,5857.734,1.190,1783.757,1783.766,186.061,33.305,359.992,7.552,-0.038,0.0001,-0.1814,0.0000,0.8153,0.5000,0.0000,0.0000
81.929,Upwind,5877.270,1.187,5877.270,1.187,1790.414,1790.422,186.077,33.265,359.992,7.542,-0.038,0.0000,-0.1814,0.0000,0.8151,0.5000,0.0000,0.0000
82.122,Upwind,5895.180,1.185,5895.180,1.185,1796.509,1796.518,186.091,33.228,359.992,7.534,-0.038,0.0001,-0.1813,0.0000,0.8149,0.5000,0.0000,0.0000
82.330,Upwind,5916.352,1.183,5916.352,1.183,1803.704,1803.713,186.108,33.185,359.992,7.523,-0.038,0.0000,-0.1812,0.0000,0.8146,0.5000,0.0000,0.0000
82.528,Upwind,5935.899,1.180,5935.899,1.180,1810.337,1810.346,186.123,33.146,359.992,7.514,-0.038,0.0000,-0.1811,0.0000,0.8144,0.5000,0.0000,0.0000
82.733,Upwind,5955.449,1.178,5955.449,1.178,1816.962,1816.971,186.139,33.106,359.992,7.504,-0.038,0.0001,-0.1810,0.0000,0.8142,0.5000,0.0000,0.0000
82.938,Upwind,5975.004,1.176,5975.004,1.176,1823.579,1823.588,186.154,33.066,359.992,7.495,-0.038,0.0000,-0.1809,0.0000,0.8140,0.5000,0.0000,0.0000
83.128,Upwind,5994.562,1.174,5994.562,1.174,1830.189,1830.197,186.169,33.027,359.992,7.485,-0.037,0.0000,-0.1808,0.0000,0.8138,0.5000,0.0000,0.0000
83.324,Upwind,6012.493,1.172,6012.493,1.172,1836.240,1836.249,186.183,32.990,359.992,7.476,-0.037,0.0000,-0.1808,0.0000,0.8136,0.5000,0.0000,0.0000
83.536,Upwind,6033.689,1.169,6033.689,1.169,1843.383,1843.392,186.200,32.948,359.992,7.466,-0.037,0.0001,-0.1807,0.0000,0.8133,0.5000,0.0000,0.0000
83.726,Upwind,6051.628,1.167,6051.628,1.167,1849.420,1849.429,186.214,32.911,359.992,7.457,-0.037,0.0000,-0.1806,0.0000,0.8131,0.5000,0.0000,0.0000
83.939,Upwind,6072.832,1.165,6072.832,1.165,1856.547,1856.555,186.231,32.869,359.992,7.447,-0.037,0.0000,-0.1805,0.0000,0.8129,0.5000,0.0000,0.0000
84.135,Upwind,6092.409,1.162,6092.409,1.162,1863.116,1863.125,186.246,32.829,359.993,7.437,-0.037,0.0000,-0.1804,0.0000,0.8127,0.5000,0.0000,0.0000
84.324,Upwind,6110.357,1.160,6110.357,1.160,1869.132,1869.141,186.260,32.793,359.993,7.429,-0.037,0.0000,-0.1803,0.0000,0.8125,0.5000,0.0000,0.0000
# disengaged
