time_s,leg,north_m,east_m,along_m,cross_m,agl_ft,altitude_ft,speed_kts,vertical_speed_fps,heading_deg,pitch_deg,roll_deg,aileron_cmd,elevator_cmd,rudder_cmd,throttle_cmd,flaps_cmd,gear_cmd,brake_cmd
1.983,Upwind,0.800,0.000,0.800,0.000,3.691,3.691,2.709,0.000,0.000,0.450,0.000,0.0000,0.0630,0.0000,0.0090,0.5000,1.0000,0.0000
2.177,Upwind,1.088,0.000,1.088,0.000,3.691,3.691,2.845,0.000,0.000,0.450,0.000,0.0000,0.0629,0.0000,0.1060,0.5000,1.0000,0.0000
2.369,Upwind,1.360,0.000,1.360,0.000,3.691,3.691,2.907,0.000,0.000,0.449,0.000,0.0000,0.0628,0.0000,0.2017,0.5000,1.0000,0.0000
2.574,Upwind,1.661,0.000,1.661,0.000,3.691,3.691,2.948,0.000,0.000,0.449,0.000,0.0000,0.0628,0.0000,0.3043,0.5000,1.0000,0.0000
2.781,Upwind,1.993,0.000,1.993,0.000,3.691,3.691,3.008,0.000,0.000,0.449,0.000,0.0000,0.0629,0.0000,0.4080,0.5000,1.0000,0.0000
2.971,Upwind,2.281,0.000,2.281,0.000,3.691,3.691,3.075,0.000,0.000,0.449,0.000,0.0000,0.0629,0.0000,0.5031,0.5000,1.0000,0.0000
3.180,Upwind,2.630,0.000,2.630,0.000,3.691,3.691,3.177,0.000,0.000,0.449,0.000,0.0000,0.0629,0.0000,0.6076,0.5000,1.0000,0.0000
3.369,Upwind,2.935,0.000,2.935,0.000,3.691,3.691,3.286,0.000,0.000,0.449,0.000,0.0000,0.0629,0.0000,0.7018,0.5000,1.0000,0.0000
3.574,Upwind,3.282,0.000,3.282,0.000,3.691,3.691,3.433,0.000,0.000,0.450,0.000,0.0000,0.0629,0.0000,0.8045,0.5000,1.0000,0.0000
3.779,Upwind,3.677,0.000,3.677,0.000,3.691,3.691,3.631,0.000,0.000,0.450,0.000,0.0000,0.0630,0.0000,0.9068,0.5000,1.0000,0.0000
3.969,Upwind,4.031,0.000,4.031,0.000,3.691,3.691,3.834,0.000,0.000,0.450,0.000,0.0000,0.0630,0.0000,1.0000,0.5000,1.0000,0.0000
4.174,Upwind,4.441,0.000,4.441,0.000,3.691,3.691,4.100,0.000,0.000,0.450,0.000,0.0000,0.0630,0.0000,1.0000,0.5000,1.0000,0.0000
4.382,Upwind,4.919,0.000,4.919,0.000,3.691,3.691,4.448,0.000,0.000,0.450,0.000,0.0000,0.0631,0.0000,1.0000,0.5000,1.0000,0.0000
4.576,Upwind,5.400,0.000,5.400,0.000,3.691,3.691,4.833,0.000,0.000,0.451,0.000,0.0000,0.0631,0.0000,1.0000,0.5000,1.0000,0.0000
4.780,Upwind,5.924,0.000,5.924,0.000,3.691,3.691,5.286,0.000,0.000,0.451,0.000,0.0000,0.0632,0.0000,1.0000,0.5000,1.0000,0.0000
4.968,Upwind,6.448,0.000,6.448,0.000,3.691,3.691,5.769,0.000,0.000,0.451,0.000,0.0000,0.0632,0.0000,1.0000,0.5000,1.0000,0.0000
5.174,Upwind,7.078,0.000,7.078,0.000,3.691,3.691,6.378,0.000,0.000,0.452,0.000,0.0000,0.0633,0.0000,1.0000,0.5000,1.0000,0.0000
5.369,Upwind,7.775,0.000,7.775,0.000,3.691,3.691,7.078,0.000,0.000,0.452,0.000,0.0000,0.0633,0.0000,1.0000,0.5000,1.0000,0.0000
5.572,Upwind,8.551,0.000,8.551,0.000,3.691,3.691,7.879,0.000,0.000,0.453,0.000,0.0000,0.0634,0.0000,1.0000,0.5000,1.0000,0.0000
5.776,Upwind,9.492,0.000,9.492,0.000,3.691,3.691,8.868,0.000,0.000,0.453,0.000,0.0000,0.0635,0.0000,1.0000,0.5000,1.0000,0.0000
5.972,Upwind,10.380,0.000,10.380,0.000,3.691,3.691,9.808,0.000,0.000,0.454,0.000,0.0000,0.0635,0.0000,1.0000,0.5000,1.0000,0.0000
6.166,Upwind,11.456,0.000,11.456,0.000,3.691,3.691,10.950,0.001,0.000,0.454,0.000,0.0000,0.0636,0.0000,1.0000,0.5000,1.0000,0.0000
6.384,Upwind,12.764,0.000,12.764,0.000,3.691,3.691,12.315,0.001,0.000,0.454,0.000,0.0000,0.0636,0.0000,1.0000,0.5000,1.0000,0.0000
6.577,Upwind,14.108,0.000,14.108,0.000,3.692,3.692,13.598,0.001,0.000,0.454,0.000,0.0000,0.0636,0.0000,1.0000,0.5000,1.0000,0.0000
6.781,Upwind,15.584,0.000,15.584,0.000,3.692,3.692,14.880,0.001,0.000,0.454,0.000,0.0000,0.0635,0.0000,1.0000,0.5000,1.0000,0.0000
6.969,Upwind,17.053,0.000,17.053,0.000,3.692,3.692,16.054,0.001,0.000,0.454,0.000,0.0000,0.0635,0.0000,1.0000,0.5000,1.0000,0.0000
7.177,Upwind,18.932,0.000,18.932,0.000,3.692,3.692,17.441,0.001,0.000,0.453,0.000,0.0000,0.0634,0.0000,1.0000,0.5000,1.0000,0.0000
7.373,Upwind,20.642,0.000,20.642,0.000,3.693,3.693,18.613,0.001,0.000,0.453,0.000,0.0000,0.0634,0.0000,1.0000,0.5000,1.0000,0.0000
7.580,Upwind,22.806,0.000,22.806,0.000,3.693,3.693,19.997,0.002,0.000,0.453,0.000,0.0000,0.0633,0.0000,1.0000,0.5000,1.0000,0.0000
7.770,Upwind,24.757,0.000,24.757,0.000,3.693,3.693,21.167,0.002,0.000,0.452,0.000,0.0000,0.0633,0.0000,1.0000,0.5000,1.0000,0.0000
7.973,Upwind,27.012,0.000,27.012,0.000,3.694,3.694,22.442,0.002,0.000,0.452,0.000,0.0000,0.0632,0.0000,1.0000,0.5000,1.0000,0.0000
8.176,Upwind,29.602,0.000,29.602,0.000,3.694,3.694,23.822,0.002,0.000,0.451,0.000,0.0000,0.0631,0.0000,1.0000,0.5000,1.0000,0.0000
8.380,Upwind,32.129,0.000,32.129,0.000,3.694,3.694,25.095,0.002,0.000,0.451,0.000,0.0000,0.0630,0.0000,1.0000,0.5000,1.0000,0.0000
8.579,Upwind,34.788,0.000,34.788,0.000,3.695,3.695,26.366,0.002,0.000,0.450,0.000,0.0000,0.0629,0.0000,1.0000,0.5000,1.0000,0.0000
8.766,Upwind,37.340,0.000,37.340,0.000,3.695,3.695,27.531,0.003,0.000,0.449,0.000,0.0000,0.0628,0.0000,1.0000,0.5000,1.0000,0.0000
8.973,Upwind,40.249,0.000,40.249,0.000,3.696,3.696,28.800,0.003,0.000,0.449,0.000,0.0000,0.0627,0.0000,1.0000,0.5000,1.0000,0.0000
9.181,Upwind,43.547,0.000,43.547,0.000,3.696,3.696,30.173,0.003,0.000,0.448,0.000,0.0000,0.0626,0.0000,1.0000,0.5000,1.0000,0.0000
9.378,Upwind,46.728,0.000,46.728,0.000,3.697,3.697,31.440,0.003,0.000,0.447,0.000,0.0000,0.0625,0.0000,1.0000,0.5000,1.0000,0.0000
9.565,Upwind,49.758,0.001,49.758,0.001,3.698,3.698,32.599,0.003,0.000,0.446,0.000,0.0000,0.0624,0.0000,1.0000,0.5000,1.0000,0.0000
9.778,Upwind,53.480,0.001,53.480,0.001,3.698,3.698,33.968,0.003,0.000,0.445,0.000,0.0000,0.0623,0.0000,1.0000,0.5000,1.0000,0.0000
9.968,Upwind,56.748,0.001,56.748,0.001,3.699,3.699,35.125,0.004,0.000,0.444,0.000,0.0000,0.0621,0.0000,1.0000,0.5000,1.0000,0.0000
10.172,Upwind,60.438,0.001,60.438,0.001,3.700,3.700,36.386,0.004,0.000,0.444,0.000,0.0000,0.0620,0.0000,1.0000,0.5000,1.0000,0.0000
10.375,Upwind,64.257,0.001,64.257,0.001,3.700,3.700,37.750,0.004,0.000,0.442,0.000,0.0000,0.0618,0.0000,1.0000,0.5000,1.0000,0.0000
10.576,Upwind,68.541,0.001,68.541,0.001,3.701,3.701,39.008,0.004,0.000,0.441,0.000,0.0000,0.0617,0.0000,1.0000,0.5000,1.0000,0.0000
10.766,Upwind,72.285,0.001,72.285,0.001,3.702,3.702,40.160,0.004,0.000,0.440,0.000,0.0000,0.0615,0.0000,1.0000,0.5000,1.0000,0.0000
10.968,Upwind,76.492,0.001,76.492,0.001,3.703,3.703,41.414,0.005,0.000,0.439,0.000,0.0000,0.0614,0.0000,1.0000,0.5000,1.0000,0.0000
11.167,Upwind,80.829,0.001,80.829,0.001,3.704,3.704,42.668,0.005,0.000,0.438,0.000,0.0000,0.0612,0.0000,1.0000,0.5000,1.0000,0.0000
11.367,Upwind,85.294,0.001,85.294,0.001,3.705,3.705,43.919,0.005,0.000,0.437,0.000,0.0000,0.0610,0.0000,1.0000,0.5000,1.0000,0.0000
11.574,Upwind,89.888,0.001,89.888,0.001,3.706,3.706,45.169,0.006,0.000,0.435,0.000,0.0000,0.0608,0.0000,1.0000,0.5000,1.0000,0.0000
11.775,Upwind,95.010,0.002,95.010,0.002,3.707,3.707,46.521,0.006,0.000,0.434,0.000,0.0000,0.0606,0.0000,1.0000,0.5000,1.0000,0.0000
11.976,Upwind,99.871,0.002,99.871,0.002,3.708,3.708,47.767,0.006,0.000,0.432,0.000,0.0000,0.0603,0.0000,1.0000,0.5000,1.0000,0.0000
12.180,Upwind,104.861,0.002,104.861,0.002,3.710,3.710,49.012,0.006,0.000,0.430,0.000,0.0000,0.0601,0.0000,1.0000,0.5000,1.0000,0.0000
12.380,Upwind,109.978,0.002,109.978,0.002,3.711,3.711,50.254,0.007,0.001,0.429,0.000,0.0000,0.0599,0.0000,1.0000,0.5000,1.0000,0.0000
12.583,Upwind,115.224,0.002,115.224,0.002,3.712,3.712,51.495,0.007,0.001,0.427,0.000,0.0000,0.0596,0.0000,1.0000,0.5000,1.0000,0.0000
12.773,Upwind,120.144,0.002,120.144,0.002,3.713,3.713,52.630,0.007,0.001,0.425,0.000,0.0000,0.0594,0.0000,1.0000,0.5000,1.0000,0.0000
12.976,Upwind,126.097,0.003,126.097,0.003,3.715,3.715,53.970,0.007,0.001,0.423,0.000,0.0000,0.0591,0.0000,1.0000,0.5000,1.0000,0.0000
13.167,Upwind,131.250,0.003,131.250,0.003,3.716,3.716,55.102,0.008,0.001,0.422,0.000,0.0000,0.0588,0.0000,1.0000,0.5000,1.0000,0.0000
13.369,Upwind,136.994,0.003,136.994,0.003,3.718,3.718,56.335,0.008,0.001,0.420,0.000,0.0000,0.0585,0.0000,1.0000,0.5000,1.0000,0.0000
13.581,Upwind,143.359,0.003,143.359,0.003,3.720,3.720,57.669,0.008,0.001,0.417,0.000,0.0000,0.0582,0.0000,1.0000,0.5000,1.0000,0.0000
13.770,Upwind,148.861,0.004,148.861,0.004,3.721,3.721,58.795,0.009,0.001,0.415,0.000,0.0000,0.0579,0.0000,1.0000,0.5000,1.0000,0.0000
13.977,Upwind,155.501,0.004,155.501,0.004,3.723,3.723,60.124,0.009,0.001,0.413,0.000,0.0000,0.0576,0.0000,1.0000,0.5000,1.0000,0.0000
14.182,Upwind,161.760,0.004,161.760,0.004,3.725,3.725,61.348,0.010,0.001,0.411,0.000,-0.0001,0.0572,0.0000,1.0000,0.5000,1.0000,0.0000
14.370,Upwind,167.609,0.005,167.609,0.005,3.727,3.727,62.468,0.011,0.001,0.408,0.000,-0.0001,0.0569,0.0000,1.0000,0.5000,1.0000,0.0000
14.570,Upwind,174.110,0.005,174.110,0.005,3.729,3.729,63.688,0.011,0.001,0.405,0.000,-0.0001,0.0565,0.0000,1.0000,0.5000,1.0000,0.0000
14.774,Upwind,180.736,0.005,180.736,0.005,3.731,3.731,64.905,0.012,0.001,0.403,0.000,-0.0001,0.0561,0.0000,1.0000,0.5000,1.0000,0.0000
14.974,Upwind,187.487,0.006,187.487,0.006,3.733,3.733,66.119,0.012,0.001,0.400,0.000,-0.0001,0.0556,0.0000,1.0000,0.5000,1.0000,0.0000
15.179,Upwind,194.942,0.006,194.942,0.006,3.736,3.736,67.432,0.012,0.002,0.396,0.000,-0.0001,0.0552,0.0000,1.0000,0.5000,1.0000,0.0000
15.376,Upwind,201.953,0.007,201.953,0.007,3.739,3.739,68.641,0.013,0.002,0.393,0.000,-0.0001,0.0547,0.0000,1.0000,0.5000,1.0000,0.0000
15.579,Upwind,209.088,0.007,209.088,0.007,3.741,3.741,69.847,0.013,0.002,0.390,0.000,-0.0001,0.0542,0.0000,1.0000,0.5000,1.0000,0.0000
15.770,Upwind,215.737,0.008,215.737,0.008,3.744,3.744,70.950,0.014,0.002,0.387,0.000,-0.0001,0.0538,0.0000,1.0000,0.5000,1.0000,0.0000
15.972,Upwind,223.110,0.008,223.110,0.008,3.746,3.746,72.151,0.014,0.002,0.383,0.000,-0.0001,0.0533,0.0000,1.0000,0.5000,1.0000,0.0000
16.174,Upwind,230.605,0.009,230.605,0.009,3.749,3.749,73.448,0.012,0.002,0.379,0.000,-0.0001,0.0528,0.0000,1.0000,0.5000,1.0000,0.0000
16.366,Upwind,238.224,0.009,238.224,0.009,3.751,3.751,74.544,0.010,0.002,0.376,0.000,-0.0001,0.0524,0.0000,1.0000,0.5000,1.0000,0.0000
16.580,Upwind,246.617,0.010,246.617,0.010,3.753,3.753,75.837,0.010,0.003,0.374,0.000,-0.0001,0.0521,0.0000,1.0000,0.5000,1.0000,0.0000
16.776,Upwind,254.491,0.011,254.491,0.011,3.755,3.755,77.027,0.010,0.003,0.371,0.000,-0.0001,0.0517,0.0000,1.0000,0.5000,1.0000,0.0000
16.978,Upwind,262.488,0.011,262.488,0.011,3.757,3.757,78.215,0.010,0.003,0.369,0.000,-0.0001,0.0514,0.0000,1.0000,0.5000,1.0000,0.0000
17.166,Upwind,269.926,0.012,269.926,0.012,3.759,3.759,79.302,0.010,0.003,0.366,0.000,-0.0001,0.0510,0.0000,1.0000,0.5000,1.0000,0.0000
17.367,Upwind,278.157,0.013,278.157,0.013,3.761,3.761,80.486,0.011,0.003,0.364,0.000,-0.0001,0.0507,0.0000,1.0000,0.5000,1.0000,0.0000
17.575,Upwind,287.211,0.014,287.211,0.014,3.764,3.764,81.765,0.011,0.003,0.361,0.000,-0.0001,0.0502,0.0000,1.0000,0.5000,1.0000,0.0000
17.783,Upwind,295.695,0.014,295.695,0.014,3.766,3.766,82.944,0.011,0.004,0.358,0.000,-0.0001,0.0499,0.0000,1.0000,0.5000,1.0000,0.0000
17.969,Upwind,303.578,0.015,303.578,0.015,3.768,3.768,84.022,0.011,0.004,0.356,0.000,-0.0001,0.0495,0.0000,1.0000,0.5000,1.0000,0.0000
18.172,Upwind,312.294,0.016,312.294,0.016,3.770,3.770,85.195,0.011,0.004,0.353,0.000,-0.0002,0.0491,0.0000,1.0000,0.5000,1.0000,0.0000
18.368,Upwind,321.130,0.017,321.130,0.017,3.772,3.772,86.366,0.011,0.004,0.350,0.000,-0.0002,0.0487,0.0000,1.0000,0.5000,1.0000,0.0000
18.580,Upwind,330.839,0.018,330.839,0.018,3.774,3.774,87.632,0.011,0.005,0.347,0.000,-0.0002,0.0483,0.0000,1.0000,0.5000,1.0000,0.0000
18.775,Upwind,339.925,0.019,339.925,0.019,3.777,3.777,88.798,0.011,0.005,0.344,0.000,-0.0002,0.0479,0.0000,1.0000,0.5000,1.0000,0.0000
18.976,Upwind,349.132,0.021,349.132,0.021,3.779,3.779,89.961,0.011,0.005,0.341,0.000,-0.0002,0.0475,0.0000,1.0000,0.5000,1.0000,0.0000
19.166,Upwind,357.676,0.022,357.676,0.022,3.781,3.781,91.025,0.012,0.005,0.339,0.000,-0.0002,0.0471,0.0000,1.0000,0.5000,1.0000,0.0000
19.384,Upwind,367.903,0.023,367.903,0.023,3.783,3.783,92.183,0.012,0.006,0.336,0.000,-0.0002,0.0467,0.0000,1.0000,0.5000,1.0000,0.0000
19.572,Upwind,376.666,0.024,376.666,0.024,3.786,3.786,93.339,0.012,0.006,0.333,0.000,-0.0002,0.0463,0.0000,1.0000,0.5000,1.0000,0.0000
19.769,Upwind,386.339,0.026,386.339,0.026,3.788,3.788,94.492,0.012,0.006,0.330,0.000,-0.0002,0.0458,0.0000,1.0000,0.5000,1.0000,0.0000
19.973,Upwind,396.131,0.027,396.131,0.027,3.791,3.791,95.737,0.012,0.006,0.326,0.000,-0.0002,0.0454,0.0000,1.0000,0.5000,1.0000,0.0000
20.166,Upwind,406.041,0.029,406.041,0.029,3.793,3.793,96.789,0.012,0.007,0.324,0.000,-0.0003,0.0450,0.0000,1.0000,0.5000,1.0000,0.0000
20.369,Upwind,416.069,0.031,416.069,0.031,3.795,3.795,97.934,0.012,0.007,0.320,0.000,-0.0003,0.0446,0.0000,1.0000,0.5000,1.0000,0.0000
20.573,Upwind,426.214,0.032,426.214,0.032,3.798,3.798,99.076,0.012,0.007,0.317,0.000,-0.0003,0.0441,0.0000,1.0000,0.5000,1.0000,0.0000
20.779,Upwind,437.337,0.034,437.337,0.034,3.800,3.800,100.310,0.012,0.008,0.314,0.000,-0.0003,0.0436,0.0000,1.0000,0.5000,1.0000,0.0000
20.969,Upwind,446.857,0.036,446.857,0.036,3.803,3.803,101.352,0.013,0.008,0.311,0.000,-0.0003,0.0432,0.0000,1.0000,0.5000,1.0000,0.0000
21.166,Upwind,457.353,0.038,457.353,0.038,3.805,3.805,102.486,0.013,0.008,0.308,0.000,-0.0003,0.0428,0.0000,1.0000,0.5000,1.0000,0.0000
21.381,Upwind,468.856,0.040,468.856,0.040,3.808,3.808,103.711,0.013,0.009,0.304,0.000,-0.0003,0.0423,0.0000,1.0000,0.5000,1.0000,0.0000
21.572,Upwind,478.695,0.042,478.695,0.042,3.810,3.810,104.745,0.013,0.009,0.302,0.000,-0.0003,0.0419,0.0000,1.0000,0.5000,1.0000,0.0000
21.775,Upwind,489.541,0.044,489.541,0.044,3.813,3.813,105.964,0.013,0.009,0.298,0.000,-0.0004,0.0414,0.0000,1.0000,0.5000,1.0000,0.0000
21.982,Upwind,501.420,0.047,501.420,0.047,3.815,3.816,107.087,0.013,0.010,0.295,0.000,-0.0004,0.0409,0.0000,1.0000,0.5000,1.0000,0.0000
22.170,Upwind,511.578,0.049,511.578,0.049,3.818,3.818,108.113,0.013,0.010,0.292,0.000,-0.0004,0.0405,0.0000,1.0000,0.5000,1.0000,0.0000
22.379,Upwind,523.707,0.052,523.707,0.052,3.821,3.821,109.323,0.013,0.011,0.288,0.000,-0.0004,0.0400,0.0000,1.0000,0.5000,1.0000,0.0000
22.581,Upwind,535.022,0.055,535.022,0.055,3.823,3.823,110.437,0.013,0.011,0.285,0.000,-0.0004,0.0396,0.0000,1.0000,0.5000,1.0000,0.0000
22.766,Upwind,545.495,0.057,545.495,0.057,3.826,3.826,111.455,0.013,0.011,0.282,0.000,-0.0004,0.0391,0.0000,1.0000,0.5000,1.0000,0.0000
22.969,Upwind,557.030,0.060,557.030,0.060,3.828,3.828,112.563,0.013,0.012,0.278,0.000,-0.0004,0.0386,0.0000,1.0000,0.5000,1.0000,0.0000
23.174,Upwind,568.678,0.063,568.678,0.063,3.831,3.831,113.669,0.014,0.012,0.275,0.000,-0.0005,0.0382,0.0000,1.0000,0.5000,1.0000,0.0000
23.366,Upwind,580.440,0.066,580.440,0.066,3.834,3.834,114.771,0.014,0.013,0.272,0.000,-0.0005,0.0377,0.0000,1.0000,0.5000,1.0000,0.0000
23.571,Upwind,592.316,0.069,592.316,0.069,3.837,3.837,115.871,0.014,0.013,0.268,0.000,-0.0005,0.0372,0.0000,1.0000,0.5000,1.0000,0.0000
23.773,Upwind,604.304,0.073,604.304,0.073,3.839,3.839,116.967,0.014,0.014,0.265,0.000,-0.0005,0.0367,0.0000,1.0000,0.5000,1.0000,0.0000
23.978,Upwind,617.418,0.076,617.418,0.076,3.842,3.842,118.152,0.014,0.014,0.261,0.000,-0.0005,0.0362,0.0000,1.0000,0.5000,1.0000,0.0000
24.166,Upwind,628.618,0.080,628.618,0.080,3.845,3.845,119.152,0.014,0.015,0.258,0.000,-0.0005,0.0358,0.0000,1.0000,0.5000,1.0000,0.0000
24.382,Upwind,641.975,0.084,641.975,0.084,3.848,3.848,120.330,0.014,0.015,0.254,0.000,-0.0006,0.0352,0.0000,1.0000,0.5000,1.0000,0.0000
24.583,Upwind,654.422,0.088,654.422,0.088,3.851,3.851,121.414,0.014,0.016,0.251,0.000,-0.0006,0.0347,0.0000,1.0000,0.5000,1.0000,0.0000
24.776,Upwind,666.979,0.092,666.979,0.092,3.853,3.853,122.495,0.014,0.016,0.247,0.000,-0.0006,0.0342,0.0000,1.0000,0.5000,1.0000,0.0000
24.979,Upwind,679.648,0.096,679.648,0.096,3.856,3.856,123.574,0.014,0.017,0.244,0.000,-0.0006,0.0338,0.0000,1.0000,0.5000,1.0000,0.0000
25.167,Upwind,691.359,0.100,691.359,0.100,3.859,3.859,124.560,0.014,0.017,0.240,0.000,-0.0006,0.0333,0.0000,1.0000,0.5000,1.0000,0.0000
25.370,Upwind,704.239,0.104,704.239,0.104,3.862,3.862,125.632,0.014,0.018,0.237,0.000,-0.0007,0.0328,0.0000,1.0000,0.5000,1.0000,0.0000
25.575,Upwind,718.318,0.109,718.318,0.109,3.865,3.865,126.791,0.014,0.018,0.233,0.000,-0.0007,0.0323,0.0000,1.0000,0.5000,1.0000,0.0000
25.781,Upwind,731.428,0.114,731.428,0.114,3.868,3.868,127.857,0.015,0.019,0.229,0.000,-0.0007,0.0317,0.0000,1.0000,0.5000,1.0000,0.0000
25.977,Upwind,744.647,0.119,744.647,0.119,3.871,3.871,128.920,0.015,0.019,0.226,0.000,-0.0007,0.0312,0.0000,1.0000,0.5000,1.0000,0.0000
26.167,Upwind,756.861,0.124,756.861,0.124,3.873,3.873,129.892,0.015,0.020,0.222,0.000,-0.0008,0.0308,0.0000,1.0000,0.5000,1.0000,0.0000
26.375,Upwind,770.290,0.129,770.290,0.129,3.876,3.876,130.949,0.015,0.020,0.219,0.000,-0.0008,0.0303,0.0000,1.0000,0.5000,1.0000,0.0000
26.576,Upwind,784.960,0.135,784.960,0.135,3.879,3.879,132.091,0.015,0.021,0.215,0.000,-0.0008,0.0297,0.0000,1.0000,0.5000,1.0000,0.0000
26.775,Upwind,798.614,0.141,798.614,0.141,3.882,3.882,133.142,0.015,0.022,0.211,0.000,-0.0008,0.0292,0.0000,1.0000,0.5000,1.0000,0.0000
26.973,Upwind,811.226,0.146,811.226,0.146,3.885,3.885,134.103,0.015,0.022,0.208,0.000,-0.0009,0.0287,0.0000,1.0000,0.5000,1.0000,0.0000
27.174,Upwind,825.087,0.152,825.087,0.152,3.888,3.888,135.149,0.015,0.023,0.204,-0.001,-0.0009,0.0282,0.0000,1.0000,0.5000,1.0000,0.0000
27.366,Upwind,839.056,0.159,839.056,0.159,3.891,3.891,136.192,0.015,0.023,0.200,-0.001,-0.0009,0.0277,0.0000,1.0000,0.5000,1.0000,0.0000
27.569,Upwind,853.131,0.165,853.131,0.165,3.894,3.894,137.232,0.015,0.024,0.197,-0.001,-0.0009,0.0272,0.0000,1.0000,0.5000,1.0000,0.0000
27.773,Upwind,867.314,0.172,867.314,0.172,3.897,3.897,138.270,0.015,0.024,0.193,-0.001,-0.0010,0.0267,0.0000,1.0000,0.5000,1.0000,0.0000
27.974,Upwind,881.603,0.178,881.603,0.178,3.900,3.900,139.392,0.015,0.025,0.189,-0.001,-0.0010,0.0261,0.0000,1.0000,0.5000,1.0000,0.0000
28.175,Upwind,895.999,0.185,895.999,0.185,3.903,3.903,140.424,0.015,0.026,0.185,-0.001,-0.0010,0.0256,0.0000,1.0000,0.5000,1.0000,0.0000
28.381,Upwind,911.714,0.193,911.714,0.193,3.906,3.906,141.454,0.015,0.026,0.182,-0.001,-0.0010,0.0250,0.0000,1.0000,0.5000,1.0000,0.0000
28.575,Upwind,925.108,0.200,925.108,0.200,3.909,3.909,142.395,0.015,0.027,0.178,-0.001,-0.0011,0.0246,0.0000,1.0000,0.5000,1.0000,0.0000
28.774,Upwind,939.822,0.208,939.822,0.208,3.912,3.912,143.420,0.015,0.028,0.174,-0.001,-0.0011,0.0240,0.0000,1.0000,0.5000,1.0000,0.0000
28.977,Upwind,955.880,0.216,955.880,0.216,3.915,3.915,144.442,0.015,0.028,0.171,-0.001,-0.0011,0.0235,0.0000,1.0000,0.5000,1.0000,0.0000
29.180,Upwind,970.812,0.224,970.812,0.224,3.918,3.918,145.545,0.016,0.029,0.166,-0.001,-0.0011,0.0229,0.0000,1.0000,0.5000,1.0000,0.0000
29.375,Upwind,984.591,0.232,984.591,0.232,3.921,3.922,146.561,0.016,0.030,0.163,-0.001,-0.0012,0.0224,0.0000,1.0000,0.5000,1.0000,0.0000
29.567,Upwind,999.724,0.241,999.724,0.241,3.924,3.924,147.490,0.016,0.030,0.159,-0.001,-0.0012,0.0219,0.0000,1.0000,0.5000,1.0000,0.0000
29.767,Upwind,1014.960,0.249,1014.960,0.249,3.927,3.927,148.501,0.016,0.031,0.155,-0.001,-0.0012,0.0214,0.0000,1.0000,0.5000,1.0000,0.0000
29.970,Upwind,1030.301,0.258,1030.301,0.258,3.931,3.931,149.509,0.016,0.031,0.152,-0.001,-0.0013,0.0208,0.0000,1.0000,0.5000,1.0000,0.0000
30.179,Upwind,1047.036,0.268,1047.036,0.268,3.930,3.930,150.584,-0.069,0.032,0.172,-0.001,-0.0013,-0.6500,0.0000,1.0000,0.5000,1.0000,0.0000
30.366,Upwind,1061.288,0.277,1061.288,0.277,3.916,3.916,151.471,-0.027,0.033,0.314,-0.001,-0.0013,-0.6500,0.0000,1.0000,0.5000,1.0000,0.0000
30.569,Upwind,1076.932,0.287,1076.932,0.287,3.930,3.930,152.431,0.142,0.034,0.550,-0.001,-0.0014,-0.6500,0.0000,1.0000,0.5000,1.0000,0.0000
30.770,Upwind,1092.673,0.297,1092.673,0.297,3.963,3.963,153.387,0.180,0.034,0.872,-0.001,-0.0014,-0.6500,0.0000,1.0000,0.5000,1.0000,0.0000
30.973,Upwind,1108.513,0.307,1108.513,0.307,4.001,4.001,154.337,0.205,0.035,1.278,-0.001,-0.0014,-0.6500,0.0000,1.0000,0.5000,1.0000,0.0000
31.170,Upwind,1124.450,0.317,1124.450,0.317,4.045,4.045,155.279,0.238,0.036,1.765,-0.001,-0.0015,-0.6500,0.0000,1.0000,0.5000,1.0000,0.0000
31.374,Upwind,1140.483,0.328,1140.483,0.328,4.096,4.096,156.211,0.271,0.037,2.327,-0.001,-0.0015,-0.6500,0.0000,1.0000,0.5000,1.0000,0.0000
31.575,Upwind,1157.960,0.340,1157.960,0.340,4.159,4.159,157.210,0.304,0.038,3.016,-0.002,-0.0016,-0.6500,0.0000,1.0000,0.5000,1.0000,0.0000
31.776,Upwind,1174.191,0.351,1174.191,0.351,4.217,4.217,158.044,0.329,0.039,3.659,-0.002,-0.0016,-0.6500,0.0000,1.0000,0.5000,1.0000,0.0000
31.981,Upwind,1190.514,0.363,1190.514,0.363,4.292,4.292,159.015,0.393,0.040,4.482,-0.002,-0.0016,-0.6500,0.0000,1.0000,0.5000,1.0000,0.0000
32.171,Upwind,1205.557,0.374,1205.557,0.374,4.394,4.394,159.815,0.789,0.040,5.214,-0.003,-0.0015,-0.6500,0.0000,1.0000,0.5000,1.0000,0.0000
32.376,Upwind,1223.431,0.387,1223.431,0.387,4.659,4.659,160.729,1.738,0.041,6.088,-0.006,-0.0013,-0.6500,0.0000,1.0000,0.5000,1.0000,0.0000
32.576,Upwind,1240.017,0.400,1240.017,0.400,5.128,5.128,161.536,3.016,0.042,6.876,-0.010,-0.0012,-0.6134,0.0000,1.0000,0.5000,1.0000,0.0000
32.773,Upwind,1255.292,0.411,1255.292,0.411,5.813,5.813,162.244,4.494,0.042,7.554,-0.014,-0.0010,-0.4731,0.0000,0.9986,0.5000,1.0000,0.0000
32.977,Upwind,1273.425,0.425,1273.425,0.425,7.002,7.002,163.032,6.521,0.043,8.210,-0.019,-0.0009,-0.3474,0.0000,0.9876,0.5000,1.0000,0.0000
33.169,Upwind,1288.832,0.437,1288.832,0.437,8.363,8.363,163.645,8.330,0.043,8.585,-0.023,-0.0007,-0.2838,0.0000,0.9791,0.5000,1.0000,0.0000
33.368,Upwind,1305.699,0.451,1305.699,0.451,10.223,10.223,164.261,10.246,0.044,8.789,-0.027,-0.0006,-0.2586,0.0000,0.9704,0.5000,1.0000,0.0000
33.577,Upwind,1324.035,0.465,1324.035,0.465,12.653,12.653,164.877,12.144,0.044,8.795,-0.031,-0.0005,-0.2743,0.0000,0.9618,0.5000,1.0000,0.0000
33.779,Upwind,1341.016,0.478,1341.016,0.478,15.236,15.236,165.401,13.638,0.044,8.654,-0.035,-0.0004,-0.3148,0.0000,0.9545,0.5000,1.0000,0.0000
33.968,Upwind,1356.624,0.491,1356.624,0.491,17.842,17.843,165.854,14.758,0.044,8.459,-0.038,-0.0004,-0.3612,0.0000,0.9482,0.5000,1.0000,0.0000
34.174,Upwind,1373.696,0.504,1373.696,0.504,20.894,20.894,166.322,15.708,0.044,8.231,-0.040,-0.0003,-0.4098,0.0000,0.9416,0.5000,1.0000,0.0000
34.380,Upwind,1392.241,0.518,1392.241,0.518,24.383,24.383,166.803,16.456,0.044,8.025,-0.042,-0.0003,-0.4488,0.0000,0.9349,0.5000,1.0000,0.0000
34.576,Upwind,1409.405,0.532,1409.405,0.532,27.727,27.727,167.225,16.962,0.044,7.909,-0.044,-0.0002,-0.4664,0.0000,0.9290,0.5000,1.0000,0.0000
34.768,Upwind,1425.175,0.544,1425.175,0.544,30.872,30.872,167.595,17.334,0.043,7.877,-0.046,-0.0002,-0.4659,0.0000,0.9238,0.5000,1.0000,0.0000
34.966,Upwind,1442.417,0.557,1442.417,0.557,34.375,34.375,167.979,17.695,0.043,7.919,-0.047,-0.0001,-0.4496,0.0000,0.9185,0.5000,1.0000,0.0000
35.172,Upwind,1459.697,0.571,1459.697,0.571,37.951,37.951,168.344,18.070,0.042,8.025,-0.048,-0.0001,-0.4219,0.0000,0.9134,0.5000,1.0000,0.0000
35.385,Upwind,1478.457,0.585,1478.457,0.585,41.606,41.606,168.690,18.489,0.041,8.167,-0.049,-0.0001,-0.3885,0.0000,0.9085,0.5000,1.0000,0.0000
35.584,Upwind,1495.808,0.598,1495.808,0.598,45.666,45.666,169.040,19.005,0.040,8.332,-0.049,-0.0001,-0.3530,0.0000,0.9036,0.5000,1.0000,0.0000
35.782,Upwind,1513.191,0.611,1513.191,0.611,49.519,49.519,169.343,19.531,0.040,8.467,-0.050,0.0000,-0.3260,0.0000,0.8994,0.5000,1.0000,0.0000
35.973,Upwind,1529.151,0.623,1529.151,0.623,53.146,53.146,169.604,20.037,0.039,8.562,-0.051,0.0000,-0.3087,0.0000,0.8957,0.5000,1.0000,0.0000
36.182,Upwind,1548.041,0.637,1548.041,0.637,57.552,57.552,169.894,20.633,0.038,8.629,-0.051,0.0000,-0.2982,0.0000,0.8917,0.5000,1.0000,0.0000
36.373,Upwind,1564.049,0.649,1564.049,0.649,61.380,61.380,170.125,21.115,0.038,8.649,-0.051,0.0000,-0.2970,0.0000,0.8884,0.5000,1.0000,0.0000
36.570,Upwind,1581.534,0.662,1581.534,0.662,65.652,65.652,170.364,21.600,0.038,8.640,-0.052,0.0000,-0.3016,0.0000,0.8851,0.5000,1.0000,0.0000
36.766,Upwind,1599.043,0.675,1599.043,0.675,70.016,70.016,170.591,22.033,0.037,8.609,-0.052,0.0000,-0.3097,0.0000,0.8819,0.5000,1.0000,0.0000
36.973,Upwind,1616.574,0.687,1616.574,0.687,74.835,74.835,170.825,22.439,0.037,8.566,-0.052,0.0000,-0.3193,0.0000,0.8786,0.5000,1.0000,0.0000
37.166,Upwind,1634.126,0.700,1634.126,0.700,78.976,78.977,171.015,22.732,0.037,8.533,-0.052,0.0000,-0.3257,0.0000,0.8760,0.5000,1.0000,0.0000
37.374,Upwind,1651.699,0.712,1651.699,0.712,83.551,83.551,171.214,23.010,0.037,8.508,-0.052,0.0000,-0.3298,0.0000,0.8732,0.5000,1.0000,0.0000
37.573,Upwind,1669.291,0.724,1669.291,0.724,88.566,88.566,171.420,23.281,0.036,8.499,-0.053,0.0000,-0.3302,0.0000,0.8703,0.5000,1.0000,0.0000
37.768,Upwind,1686.903,0.736,1686.903,0.736,92.854,92.855,171.587,23.497,0.036,8.506,-0.053,0.0000,-0.3272,0.0000,0.8680,0.5000,1.0000,0.0000
37.966,Upwind,1704.533,0.748,1704.533,0.748,97.577,97.577,171.762,23.726,0.036,8.527,-0.053,-0.0001,-0.3215,0.0000,0.8655,0.5000,1.0000,0.0000
38.165,Upwind,1722.181,0.760,1722.181,0.760,102.345,102.345,171.929,23.956,0.036,8.557,-0.053,-0.0001,-0.3144,0.0000,0.8632,0.5000,1.0000,0.0000
38.372,Upwind,1739.846,0.772,1739.846,0.772,107.563,107.564,172.100,24.215,0.036,8.593,-0.053,-0.0001,-0.3064,0.0000,0.8608,0.5000,1.0000,0.0000
38.571,Upwind,1757.527,0.784,1757.527,0.784,112.023,112.024,172.239,24.441,0.035,8.622,-0.053,-0.0001,-0.3004,0.0000,0.8589,0.5000,1.0000,0.0000
38.779,Upwind,1776.698,0.796,1776.698,0.796,117.348,117.349,172.394,24.713,0.035,8.651,-0.053,-0.0001,-0.2948,0.0000,0.8567,0.5000,1.0000,0.0000
38.969,Upwind,1792.933,0.807,1792.933,0.807,121.900,121.901,172.518,24.942,0.035,8.668,-0.053,-0.0001,-0.2916,0.0000,0.8549,0.5000,1.0000,0.0000
39.166,Upwind,1810.656,0.818,1810.656,0.818,126.913,126.914,172.648,25.187,0.034,8.680,-0.053,-0.0001,-0.2897,0.0000,0.8531,0.5000,1.0000,0.0000
39.368,Upwind,1828.393,0.830,1828.393,0.830,131.974,131.975,172.771,25.421,0.034,8.685,-0.054,-0.0001,-0.2889,0.0000,0.8514,0.5000,1.0000,0.0000
39.577,Upwind,1847.622,0.842,1847.622,0.842,137.508,137.509,172.898,25.661,0.034,8.684,-0.054,-0.0001,-0.2730,0.0000,0.8496,0.5000,1.0000,0.0000
39.768,Upwind,1863.904,0.852,1863.904,0.852,142.231,142.231,173.001,25.855,0.033,8.674,-0.054,-0.0001,-0.2628,0.0000,0.8482,0.5000,1.0000,0.0000
39.967,Upwind,1881.677,0.863,1881.677,0.863,147.421,147.422,173.109,26.048,0.033,8.648,-0.054,-0.0001,-0.2560,0.0000,0.8467,0.5000,1.0000,0.0000
40.175,Upwind,1900.944,0.875,1900.944,0.875,153.085,153.085,173.223,26.225,0.033,8.602,-0.054,-0.0001,-0.2538,0.0000,0.8451,0.5000,0.0000,0.0000
40.375,Upwind,1917.257,0.885,1917.257,0.885,158.343,158.344,173.327,26.353,0.032,8.548,-0.054,-0.0001,-0.2561,0.0000,0.8436,0.5000,0.0000,0.0000
40.578,Upwind,1936.548,0.896,1936.548,0.896,163.624,163.624,173.430,26.445,0.032,8.487,-0.055,-0.0001,-0.2613,0.0000,0.8422,0.5000,0.0000,0.0000
40.766,Upwind,1952.883,0.906,1952.883,0.906,168.477,168.478,173.525,26.497,0.032,8.432,-0.055,0.0000,-0.2671,0.0000,0.8408,0.5000,0.0000,0.0000
40.973,Upwind,1970.713,0.916,1970.713,0.916,174.221,174.222,173.638,26.524,0.031,8.373,-0.055,0.0000,-0.2739,0.0000,0.8393,0.5000,0.0000,0.0000
41.177,Upwind,1990.043,0.927,1990.043,0.927,179.527,179.528,173.742,26.526,0.031,8.330,-0.055,-0.0001,-0.2783,0.0000,0.8378,0.5000,0.0000,0.0000
41.370,Upwind,2006.411,0.937,2006.411,0.937,184.831,184.832,173.846,26.516,0.030,8.301,-0.055,0.0000,-0.2804,0.0000,0.8364,0.5000,0.0000,0.0000
41.572,Upwind,2024.278,0.947,2024.278,0.947,190.133,190.134,173.949,26.504,0.030,8.286,-0.055,0.0000,-0.2796,0.0000,0.8349,0.5000,0.0000,0.0000
41.773,Upwind,2042.157,0.957,2042.157,0.957,195.433,195.434,174.053,26.497,0.030,8.283,-0.055,0.0000,-0.2764,0.0000,0.8335,0.5000,0.0000,0.0000
41.974,Upwind,2060.048,0.967,2060.048,0.967,200.291,200.292,174.147,26.500,0.029,8.286,-0.055,-0.0001,-0.2718,0.0000,0.8322,0.5000,0.0000,0.0000
42.172,Upwind,2077.952,0.977,2077.952,0.977,206.034,206.035,174.257,26.519,0.029,8.293,-0.055,0.0000,-0.2656,0.0000,0.8306,0.5000,0.0000,0.0000
42.374,Upwind,2095.867,0.986,2095.867,0.986,211.341,211.342,174.358,26.548,0.029,8.296,-0.056,0.0000,-0.2602,0.0000,0.8292,0.5000,0.0000,0.0000
42.576,Upwind,2115.287,0.997,2115.287,0.997,216.654,216.655,174.458,26.584,0.028,8.293,-0.056,0.0000,-0.2561,0.0000,0.8278,0.5000,0.0000,0.0000
42.779,Upwind,2133.226,1.006,2133.226,1.006,221.974,221.975,174.557,26.623,0.028,8.281,-0.056,-0.0001,-0.2540,0.0000,0.8264,0.5000,0.0000,0.0000
42.966,Upwind,2149.680,1.015,2149.680,1.015,226.858,226.859,174.648,26.655,0.028,8.263,-0.056,0.0000,-0.2537,0.0000,0.8251,0.5000,0.0000,0.0000
43.173,Upwind,2167.641,1.024,2167.641,1.024,232.637,232.638,174.755,26.684,0.027,8.233,-0.056,0.0000,-0.2555,0.0000,0.8236,0.5000,0.0000,0.0000
43.375,Upwind,2185.614,1.033,2185.614,1.033,237.975,237.976,174.854,26.698,0.027,8.201,-0.056,0.0000,-0.2585,0.0000,0.8223,0.5000,0.0000,0.0000
43.580,Upwind,2205.097,1.043,2205.097,1.043,243.315,243.316,174.952,26.699,0.026,8.168,-0.056,0.0000,-0.2622,0.0000,0.8209,0.5000,0.0000,0.0000
43.766,Upwind,2221.593,1.051,2221.593,1.051,248.209,248.210,175.043,26.691,0.026,8.139,-0.056,-0.0001,-0.2654,0.0000,0.8196,0.5000,0.0000,0.0000
43.966,Upwind,2239.601,1.060,2239.601,1.060,253.546,253.547,175.142,26.674,0.026,8.112,-0.056,-0.0001,-0.2682,0.0000,0.8182,0.5000,0.0000,0.0000
44.173,Upwind,2257.620,1.068,2257.620,1.068,259.323,259.324,175.250,26.651,0.025,8.090,-0.056,0.0000,-0.2698,0.0000,0.8167,0.5000,0.0000,0.0000
44.368,Upwind,2275.651,1.077,2275.651,1.077,264.207,264.208,175.341,26.632,0.025,8.077,-0.056,0.0000,-0.2698,0.0000,0.8154,0.5000,0.0000,0.0000
44.575,Upwind,2293.693,1.085,2293.693,1.085,269.975,269.977,175.448,26.615,0.025,8.068,-0.056,0.0000,-0.2685,0.0000,0.8139,0.5000,0.0000,0.0000
44.774,Upwind,2311.748,1.094,2311.748,1.094,275.297,275.299,175.547,26.607,0.024,8.064,-0.056,0.0000,-0.2663,0.0000,0.8126,0.5000,0.0000,0.0000
44.974,Upwind,2329.814,1.102,2329.814,1.102,280.619,280.620,175.645,26.606,0.024,8.060,-0.056,0.0000,-0.2636,0.0000,0.8112,0.5000,0.0000,0.0000
45.167,Upwind,2347.891,1.110,2347.891,1.110,285.497,285.498,175.735,26.612,0.024,8.055,-0.056,0.0000,-0.2613,0.0000,0.8099,0.5000,0.0000,0.0000
45.376,Upwind,2367.488,1.119,2367.488,1.119,291.264,291.265,175.839,26.624,0.023,8.047,-0.056,0.0000,-0.2591,0.0000,0.8085,0.5000,0.0000,0.0000
45.569,Upwind,2384.080,1.126,2384.080,1.126,296.146,296.147,175.924,26.635,0.023,8.036,-0.056,-0.0001,-0.2580,0.0000,0.8073,0.5000,0.0000,0.0000
45.767,Upwind,2402.191,1.134,2402.191,1.134,301.474,301.476,176.014,26.647,0.022,8.021,-0.056,0.0000,-0.2575,0.0000,0.8060,0.5000,0.0000,0.0000
45.968,Upwind,2420.312,1.141,2420.312,1.141,306.804,306.806,176.102,26.655,0.022,8.003,-0.056,0.0000,-0.2577,0.0000,0.8048,0.5000,0.0000,0.0000
46.173,Upwind,2438.444,1.149,2438.444,1.149,312.580,312.582,176.195,26.659,0.022,7.981,-0.056,0.0000,-0.2585,0.0000,0.8035,0.5000,0.0000,0.0000
46.374,Upwind,2456.586,1.156,2456.586,1.156,317.912,317.913,176.278,26.657,0.021,7.961,-0.056,0.0000,-0.2594,0.0000,0.8023,0.5000,0.0000,0.0000
46.569,Upwind,2474.738,1.164,2474.738,1.164,322.799,322.800,176.352,26.652,0.021,7.944,-0.056,-0.0001,-0.2602,0.0000,0.8013,0.5000,0.0000,0.0000
46.772,Upwind,2492.900,1.171,2492.900,1.171,328.572,328.574,176.438,26.641,0.021,7.926,-0.056,0.0000,-0.2607,0.0000,0.8001,0.5000,0.0000,0.0000
46.966,Upwind,2511.071,1.178,2511.071,1.178,333.455,333.457,176.509,26.632,0.020,7.913,-0.056,0.0000,-0.2606,0.0000,0.7991,0.5000,0.0000,0.0000
47.166,Upwind,2529.251,1.185,2529.251,1.185,338.781,338.782,176.584,26.621,0.020,7.901,-0.056,0.0000,-0.2600,0.0000,0.7980,0.5000,0.0000,0.0000
47.373,Upwind,2547.441,1.192,2547.441,1.192,344.547,344.549,176.664,26.611,0.019,7.891,-0.056,0.0000,-0.2588,0.0000,0.7969,0.5000,0.0000,0.0000
47.568,Upwind,2565.639,1.198,2565.639,1.198,349.426,349.427,176.729,26.606,0.019,7.883,-0.056,0.0000,-0.2575,0.0000,0.7960,0.5000,0.0000,0.0000
47.773,Upwind,2583.847,1.205,2583.847,1.205,355.190,355.191,176.804,26.601,0.019,7.875,-0.056,0.0000,-0.2558,0.0000,0.7949,0.5000,0.0000,0.0000
47.970,Upwind,2602.063,1.212,2602.063,1.212,360.510,360.511,176.872,26.600,0.018,7.867,-0.056,0.0000,-0.2543,0.0000,0.7940,0.5000,0.0000,0.0000
48.169,Upwind,2620.287,1.218,2620.287,1.218,365.386,365.388,176.932,26.599,0.018,7.858,-0.056,0.0000,-0.2532,0.0000,0.7932,0.5000,0.0000,0.0000
48.366,Upwind,2638.519,1.224,2638.519,1.224,370.706,370.708,176.996,26.599,0.018,7.847,-0.056,0.0000,-0.2524,0.0000,0.7923,0.5000,0.0000,0.0000
48.570,Upwind,2656.759,1.230,2656.759,1.230,376.026,376.027,177.059,26.597,0.017,7.834,-0.056,-0.0001,-0.2519,0.0000,0.7914,0.5000,0.0000,0.0000
48.767,Upwind,2675.007,1.236,2675.007,1.236,381.345,381.346,177.120,26.593,0.017,7.819,-0.056,-0.0001,-0.2519,0.0000,0.7905,0.5000,0.0000,0.0000
48.967,Upwind,2693.263,1.242,2693.263,1.242,386.662,386.664,177.179,26.586,0.017,7.804,-0.056,-0.0001,-0.2521,0.0000,0.7897,0.5000,0.0000,0.0000
49.170,Upwind,2711.526,1.248,2711.526,1.248,391.979,391.981,177.238,26.576,0.016,7.789,-0.056,0.0000,-0.2524,0.0000,0.7889,0.5000,0.0000,0.0000
49.371,Upwind,2729.797,1.254,2729.797,1.254,397.293,397.295,177.294,26.563,0.016,7.775,-0.056,0.0000,-0.2526,0.0000,0.7881,0.5000,0.0000,0.0000
49.574,Upwind,2748.075,1.260,2748.075,1.260,403.046,403.048,177.354,26.548,0.016,7.761,-0.056,0.0000,-0.2527,0.0000,0.7872,0.5000,0.0000,0.0000
49.767,Upwind,2766.360,1.265,2766.360,1.265,407.912,407.914,177.404,26.533,0.015,7.750,-0.056,0.0000,-0.2525,0.0000,0.7865,0.5000,0.0000,0.0000
49.975,Upwind,2784.652,1.271,2784.652,1.271,413.659,413.661,177.461,26.516,0.015,7.739,-0.056,0.0000,-0.2521,0.0000,0.7857,0.5000,0.0000,0.0000
50.166,Upwind,2802.951,1.276,2802.951,1.276,418.519,418.521,177.509,26.502,0.015,7.730,-0.056,0.0000,-0.2514,0.0000,0.7851,0.5000,0.0000,0.0000
50.374,Upwind,2821.257,1.281,2821.257,1.281,424.260,424.262,177.563,26.487,0.014,7.721,-0.055,0.0000,-0.2505,0.0000,0.7843,0.5000,0.0000,0.0000
50.576,Upwind,2839.570,1.286,2839.570,1.286,429.556,429.558,177.613,26.474,0.014,7.712,-0.055,-0.0001,-0.2496,0.0000,0.7836,0.5000,0.0000,0.0000
50.777,Upwind,2859.415,1.291,2859.415,1.291,434.849,434.851,177.661,26.462,0.014,7.703,-0.055,-0.0001,-0.2488,0.0000,0.7830,0.5000,0.0000,0.0000
50.969,Upwind,2876.214,1.296,2876.214,1.296,439.700,439.702,177.704,26.452,0.013,7.694,-0.055,-0.0001,-0.2482,0.0000,0.7824,0.5000,0.0000,0.0000
51.174,Upwind,2894.546,1.301,2894.546,1.301,445.430,445.432,177.753,26.439,0.013,7.683,-0.055,0.0000,-0.2476,0.0000,0.7817,0.5000,0.0000,0.0000
51.367,Upwind,2912.884,1.305,2912.884,1.305,450.276,450.278,177.794,26.427,0.013,7.673,-0.055,-0.0001,-0.2474,0.0000,0.7811,0.5000,0.0000,0.0000
51.567,Upwind,2931.227,1.310,2931.227,1.310,455.560,455.562,177.838,26.413,0.012,7.662,-0.055,0.0000,-0.2472,0.0000,0.7805,0.5000,0.0000,0.0000
51.777,Upwind,2951.107,1.315,2951.107,1.315,461.280,461.283,177.885,26.396,0.012,7.649,-0.055,0.0000,-0.2472,0.0000,0.7798,0.5000,0.0000,0.0000
51.966,Upwind,2967.933,1.319,2967.933,1.319,466.118,466.121,177.923,26.380,0.012,7.638,-0.055,0.0000,-0.2473,0.0000,0.7793,0.5000,0.0000,0.0000
52.170,Upwind,2986.295,1.323,2986.295,1.323,471.832,471.834,177.968,26.360,0.011,7.625,-0.055,0.0000,-0.2473,0.0000,0.7786,0.5000,0.0000,0.0000
52.376,Upwind,3006.193,1.327,3006.193,1.327,477.102,477.104,178.008,26.341,0.011,7.614,-0.055,0.0000,-0.2473,0.0000,0.7781,0.5000,0.0000,0.0000
52.577,Upwind,3024.566,1.331,3024.566,1.331,482.368,482.370,178.048,26.321,0.011,7.604,-0.055,0.0000,-0.2471,0.0000,0.7775,0.5000,0.0000,0.0000
52.774,Upwind,3041.414,1.335,3041.414,1.335,487.192,487.194,178.083,26.302,0.010,7.595,-0.054,0.0000,-0.2468,0.0000,0.7770,0.5000,0.0000,0.0000
52.973,Upwind,3059.798,1.339,3059.798,1.339,492.888,492.891,178.124,26.281,0.010,7.586,-0.054,0.0000,-0.2463,0.0000,0.7765,0.5000,0.0000,0.0000
53.166,Upwind,3078.187,1.342,3078.187,1.342,497.705,497.707,178.158,26.263,0.010,7.578,-0.054,0.0000,-0.2458,0.0000,0.7760,0.5000,0.0000,0.0000
53.366,Upwind,3096.582,1.346,3096.582,1.346,502.955,502.958,178.195,26.244,0.009,7.569,-0.054,0.0000,-0.2453,0.0000,0.7755,0.5000,0.0000,0.0000
53.578,Upwind,3116.515,1.350,3116.515,1.350,508.639,508.642,178.233,26.224,0.009,7.560,-0.054,0.0000,-0.2447,0.0000,0.7749,0.5000,0.0000,0.0000
53.768,Upwind,3133.387,1.353,3133.387,1.353,513.445,513.448,178.265,26.207,0.009,7.551,-0.054,0.0000,-0.2443,0.0000,0.7745,0.5000,0.0000,0.0000
53.966,Upwind,3151.797,1.356,3151.797,1.356,518.685,518.687,178.299,26.188,0.008,7.542,-0.054,0.0000,-0.2440,0.0000,0.7740,0.5000,0.0000,0.0000
54.169,Upwind,3170.212,1.359,3170.212,1.359,523.921,523.923,178.333,26.169,0.008,7.532,-0.054,0.0000,-0.2438,0.0000,0.7735,0.5000,0.0000,0.0000
54.371,Upwind,3188.633,1.363,3188.633,1.363,529.152,529.155,178.366,26.149,0.008,7.522,-0.054,0.0000,-0.2437,0.0000,0.7731,0.5000,0.0000,0.0000
54.573,Upwind,3207.058,1.366,3207.058,1.366,534.816,534.818,178.401,26.127,0.008,7.511,-0.054,0.0000,-0.2436,0.0000,0.7726,0.5000,0.0000,0.0000
54.767,Upwind,3225.488,1.369,3225.488,1.369,539.604,539.606,178.430,26.107,0.007,7.502,-0.053,0.0000,-0.2436,0.0000,0.7722,0.5000,0.0000,0.0000
54.970,Upwind,3243.922,1.371,3243.922,1.371,544.823,544.826,178.461,26.085,0.007,7.492,-0.053,-0.0001,-0.2435,0.0000,0.7717,0.5000,0.0000,0.0000
55.168,Upwind,3262.362,1.374,3262.362,1.374,550.038,550.040,178.492,26.062,0.007,7.482,-0.053,0.0000,-0.2434,0.0000,0.7713,0.5000,0.0000,0.0000
55.366,Upwind,3280.806,1.377,3280.806,1.377,555.248,555.250,178.522,26.039,0.006,7.473,-0.053,0.0000,-0.2432,0.0000,0.7709,0.5000,0.0000,0.0000
55.576,Upwind,3300.792,1.379,3300.792,1.379,560.887,560.889,178.554,26.014,0.006,7.463,-0.053,0.0000,-0.2430,0.0000,0.7704,0.5000,0.0000,0.0000
55.774,Upwind,3317.707,1.382,3317.707,1.382,566.087,566.090,178.583,25.991,0.006,7.455,-0.053,0.0000,-0.2426,0.0000,0.7700,0.5000,0.0000,0.0000
55.974,Upwind,3336.165,1.384,3336.165,1.384,571.283,571.286,178.612,25.968,0.006,7.446,-0.053,0.0000,-0.2423,0.0000,0.7696,0.5000,0.0000,0.0000
56.175,Upwind,3354.627,1.386,3354.627,1.386,576.474,576.477,178.640,25.945,0.005,7.438,-0.053,0.0000,-0.2420,0.0000,0.7692,0.5000,0.0000,0.0000
56.372,Upwind,3373.094,1.389,3373.094,1.389,581.661,581.664,178.667,25.923,0.005,7.430,-0.052,0.0000,-0.2417,0.0000,0.7689,0.5000,0.0000,0.0000
56.567,Upwind,3391.564,1.391,3391.564,1.391,586.412,586.415,178.692,25.902,0.005,7.422,-0.052,0.0000,-0.2414,0.0000,0.7685,0.5000,0.0000,0.0000
56.776,Upwind,3411.579,1.393,3411.579,1.393,592.021,592.024,178.721,25.878,0.004,7.412,-0.052,0.0000,-0.2412,0.0000,0.7681,0.5000,0.0000,0.0000
56.970,Upwind,3428.519,1.395,3428.519,1.395,596.764,596.767,178.745,25.857,0.004,7.404,-0.052,0.0000,-0.2410,0.0000,0.7678,0.5000,0.0000,0.0000
57.169,Upwind,3447.003,1.397,3447.003,1.397,601.933,601.936,178.771,25.834,0.004,7.395,-0.052,0.0000,-0.2409,0.0000,0.7674,0.5000,0.0000,0.0000
57.372,Upwind,3465.490,1.398,3465.490,1.398,607.527,607.530,178.798,25.808,0.004,7.385,-0.052,0.0000,-0.2408,0.0000,0.7670,0.5000,0.0000,0.0000
57.567,Upwind,3483.982,1.400,3483.982,1.400,612.257,612.260,178.821,25.786,0.003,7.377,-0.052,0.0000,-0.2407,0.0000,0.7667,0.5000,0.0000,0.0000
57.770,Upwind,3502.478,1.402,3502.478,1.402,617.841,617.844,178.848,25.759,0.003,7.367,-0.052,0.0000,-0.2406,0.0000,0.7663,0.5000,0.0000,0.0000
57.978,Upwind,3522.520,1.403,3522.520,1.403,622.990,622.993,178.872,25.734,0.003,7.358,-0.051,0.0000,-0.2405,0.0000,0.7660,0.5000,0.0000,0.0000
58.188,Upwind,3541.024,1.405,3541.024,1.405,628.134,628.137,178.896,25.709,0.003,7.350,-0.051,0.0000,-0.2403,0.0000,0.7656,0.5000,0.0000,0.0000
58.372,Upwind,3557.990,1.406,3557.990,1.406,633.274,633.277,178.920,25.684,0.002,7.341,-0.051,0.0000,-0.2401,0.0000,0.7653,0.5000,0.0000,0.0000
58.569,Upwind,3576.502,1.407,3576.502,1.407,637.980,637.983,178.941,25.661,0.002,7.334,-0.051,0.0000,-0.2399,0.0000,0.7650,0.5000,0.0000,0.0000
58.768,Upwind,3595.018,1.408,3595.018,1.408,643.110,643.113,178.964,25.636,0.002,7.326,-0.051,0.0000,-0.2397,0.0000,0.7647,0.5000,0.0000,0.0000
58.968,Upwind,3613.538,1.410,3613.538,1.410,648.235,648.238,178.987,25.612,0.002,7.317,-0.051,0.0000,-0.2395,0.0000,0.7644,0.5000,0.0000,0.0000
59.177,Upwind,3633.605,1.411,3633.605,1.411,653.781,653.784,179.011,25.585,0.001,7.309,-0.051,0.0000,-0.2392,0.0000,0.7640,0.5000,0.0000,0.0000
59.366,Upwind,3650.589,1.412,3650.589,1.412,658.470,658.473,179.031,25.562,0.001,7.301,-0.051,0.0000,-0.2391,0.0000,0.7638,0.5000,0.0000,0.0000
59.566,Upwind,3669.120,1.412,3669.120,1.412,663.580,663.583,179.053,25.537,0.001,7.293,-0.050,0.0000,-0.2389,0.0000,0.7634,0.5000,0.0000,0.0000
59.773,Upwind,3687.655,1.413,3687.655,1.413,669.110,669.113,179.076,25.510,0.001,7.284,-0.050,0.0000,-0.2388,0.0000,0.7631,0.5000,0.0000,0.0000
59.974,Upwind,3706.193,1.414,3706.193,1.414,674.209,674.212,179.097,25.485,0.001,7.275,-0.050,0.0000,-0.2387,0.0000,0.7628,0.5000,0.0000,0.0000
60.170,Upwind,3724.735,1.415,3724.735,1.415,679.304,679.307,179.118,25.459,0.000,7.267,-0.050,0.0000,-0.2386,0.0000,0.7625,0.5000,0.0000,0.0000
60.373,Upwind,3743.281,1.415,3743.281,1.415,684.393,684.396,179.139,25.434,0.000,7.258,-0.050,0.0000,-0.2385,0.0000,0.7622,0.5000,0.0000,0.0000
60.569,Upwind,3761.831,1.416,3761.831,1.416,689.054,689.057,179.157,25.410,360.000,7.251,-0.050,0.0000,-0.2384,0.0000,0.7620,0.5000,0.0000,0.0000
60.767,Upwind,3780.384,1.416,3780.384,1.416,694.133,694.136,179.177,25.384,360.000,7.242,-0.050,0.0000,-0.2382,0.0000,0.7617,0.5000,0.0000,0.0000
60.973,Upwind,3798.941,1.417,3798.941,1.417,699.630,699.633,179.199,25.356,360.000,7.234,-0.049,0.0000,-0.2381,0.0000,0.7614,0.5000,0.0000,0.0000
61.167,Upwind,3817.501,1.417,3817.501,1.417,704.276,704.279,179.217,25.332,359.999,7.226,-0.049,0.0000,-0.2379,0.0000,0.7611,0.5000,0.0000,0.0000
61.367,Upwind,3836.065,1.417,3836.065,1.417,709.340,709.343,179.237,25.305,359.999,7.218,-0.049,0.0000,-0.2378,0.0000,0.7609,0.5000,0.0000,0.0000
61.576,Upwind,3856.179,1.418,3856.179,1.418,714.819,714.823,179.258,25.277,359.999,7.210,-0.049,0.0000,-0.2376,0.0000,0.7606,0.5000,0.0000,0.0000
61.773,Upwind,3873.203,1.418,3873.203,1.418,719.872,719.876,179.277,25.251,359.999,7.202,-0.049,0.0000,-0.2374,0.0000,0.7603,0.5000,0.0000,0.0000
61.967,Upwind,3891.777,1.418,3891.777,1.418,724.499,724.503,179.294,25.227,359.999,7.195,-0.049,0.0000,-0.2373,0.0000,0.7601,0.5000,0.0000,0.0000
62.174,Upwind,3910.355,1.418,3910.355,1.418,729.962,729.966,179.314,25.199,359.998,7.186,-0.049,0.0000,-0.2371,0.0000,0.7598,0.5000,0.0000,0.0000
62.384,Upwind,3930.484,1.418,3930.484,1.418,735.000,735.003,179.333,25.173,359.998,7.178,-0.049,0.0000,-0.2370,0.0000,0.7595,0.5000,0.0000,0.0000
62.577,Upwind,3949.069,1.418,3949.069,1.418,740.032,740.035,179.351,25.147,359.998,7.170,-0.048,0.0000,-0.2369,0.0000,0.7593,0.5000,0.0000,0.0000
62.769,Upwind,3966.108,1.418,3966.108,1.418,744.640,744.643,179.367,25.123,359.998,7.163,-0.048,0.0000,-0.2368,0.0000,0.7590,0.5000,0.0000,0.0000
62.979,Upwind,3986.249,1.417,3986.249,1.417,750.080,750.083,179.387,25.094,359.998,7.154,-0.048,0.0000,-0.2367,0.0000,0.7588,0.5000,0.0000,0.0000
63.173,Upwind,4003.294,1.417,4003.294,1.417,754.678,754.682,179.403,25.070,359.997,7.147,-0.048,0.0000,-0.2366,0.0000,0.7585,0.5000,0.0000,0.0000
63.377,Upwind,4023.442,1.417,4023.442,1.417,760.107,760.110,179.422,25.041,359.997,7.138,-0.048,0.0000,-0.2365,0.0000,0.7583,0.5000,0.0000,0.0000
63.574,Upwind,4040.493,1.416,4040.493,1.416,765.112,765.116,179.440,25.014,359.997,7.130,-0.048,0.0000,-0.2363,0.0000,0.7580,0.5000,0.0000,0.0000
63.777,Upwind,4060.648,1.416,4060.648,1.416,770.112,770.116,179.457,24.987,359.997,7.123,-0.048,0.0000,-0.2362,0.0000,0.7578,0.5000,0.0000,0.0000
63.969,Upwind,4077.706,1.415,4077.706,1.415,774.691,774.695,179.473,24.963,359.997,7.116,-0.048,0.0000,-0.2361,0.0000,0.7576,0.5000,0.0000,0.0000
64.174,Upwind,4096.317,1.415,4096.317,1.415,780.096,780.100,179.491,24.934,359.997,7.107,-0.048,0.0000,-0.2359,0.0000,0.7573,0.5000,0.0000,0.0000
64.371,Upwind,4114.931,1.414,4114.931,1.414,784.665,784.669,179.507,24.909,359.996,7.100,-0.047,0.0000,-0.2358,0.0000,0.7571,0.5000,0.0000,0.0000
64.570,Upwind,4133.548,1.414,4133.548,1.414,789.645,789.648,179.523,24.883,359.996,7.093,-0.047,0.0000,-0.2357,0.0000,0.7568,0.5000,0.0000,0.0000
64.777,Upwind,4153.721,1.413,4153.721,1.413,795.033,795.037,179.541,24.854,359.996,7.084,-0.047,0.0000,-0.2355,0.0000,0.7566,0.5000,0.0000,0.0000
64.973,Upwind,4170.793,1.412,4170.793,1.412,800.001,800.005,179.558,24.827,359.996,7.077,-0.047,0.0000,-0.2354,0.0000,0.7564,0.5000,0.0000,0.0000
65.167,Upwind,4189.420,1.411,4189.420,1.411,804.550,804.554,179.573,24.803,359.996,7.070,-0.047,0.0000,-0.2353,0.0000,0.7562,0.5000,0.0000,0.0000
65.366,Upwind,4208.050,1.411,4208.050,1.411,809.508,809.512,179.589,24.776,359.996,7.062,-0.047,0.0000,-0.2352,0.0000,0.7559,0.5000,0.0000,0.0000
65.571,Upwind,4226.683,1.410,4226.683,1.410,814.460,814.464,179.605,24.749,359.996,7.054,-0.047,0.0000,-0.2351,0.0000,0.7557,0.5000,0.0000,0.0000
65.771,Upwind,4245.320,1.409,4245.320,1.409,819.408,819.412,179.621,24.722,359.995,7.046,-0.047,0.0000,-0.2350,0.0000,0.7555,0.5000,0.0000,0.0000
65.972,Upwind,4263.959,1.408,4263.959,1.408,824.349,824.353,179.637,24.695,359.995,7.039,-0.047,0.0000,-0.2349,0.0000,0.7553,0.5000,0.0000,0.0000
66.174,Upwind,4282.602,1.407,4282.602,1.407,829.286,829.290,179.652,24.668,359.995,7.031,-0.047,0.0000,-0.2348,0.0000,0.7550,0.5000,0.0000,0.0000
66.371,Upwind,4301.248,1.405,4301.248,1.405,834.216,834.220,179.668,24.641,359.995,7.024,-0.047,0.0000,-0.2347,0.0000,0.7548,0.5000,0.0000,0.0000
66.569,Upwind,4319.897,1.404,4319.897,1.404,839.142,839.146,179.683,24.614,359.995,7.016,-0.046,0.0000,-0.2346,0.0000,0.7546,0.5000,0.0000,0.0000
66.769,Upwind,4338.549,1.403,4338.549,1.403,844.062,844.066,179.699,24.587,359.995,7.009,-0.046,0.0000,-0.2345,0.0000,0.7544,0.5000,0.0000,0.0000
66.967,Upwind,4357.204,1.402,4357.204,1.402,848.977,848.981,179.714,24.560,359.995,7.001,-0.046,0.0000,-0.2344,0.0000,0.7542,0.5000,0.0000,0.0000
67.167,Upwind,4375.862,1.401,4375.862,1.401,853.886,853.890,179.729,24.533,359.994,6.994,-0.046,0.0000,-0.2342,0.0000,0.7540,0.5000,0.0000,0.0000
67.370,Upwind,4394.523,1.399,4394.523,1.399,858.790,858.794,179.744,24.506,359.994,6.986,-0.046,0.0000,-0.2341,0.0000,0.7537,0.5000,0.0000,0.0000
67.572,Upwind,4413.187,1.398,4413.187,1.398,863.688,863.693,179.759,24.479,359.994,6.979,-0.046,0.0000,-0.2340,0.0000,0.7535,0.5000,0.0000,0.0000
67.778,Upwind,4433.410,1.396,4433.410,1.396,868.989,868.993,179.776,24.450,359.994,6.971,-0.046,0.0000,-0.2339,0.0000,0.7533,0.5000,0.0000,0.0000
67.976,Upwind,4452.080,1.395,4452.080,1.395,873.469,873.473,179.789,24.425,359.994,6.964,-0.046,0.0000,-0.2338,0.0000,0.7531,0.5000,0.0000,0.0000
68.171,Upwind,4469.197,1.394,4469.197,1.394,878.352,878.356,179.804,24.398,359.994,6.956,-0.046,0.0000,-0.2337,0.0000,0.7529,0.5000,0.0000,0.0000
68.371,Upwind,4487.874,1.392,4487.874,1.392,883.229,883.233,179.819,24.371,359.994,6.949,-0.046,0.0000,-0.2336,0.0000,0.7527,0.5000,0.0000,0.0000
68.577,Upwind,4508.109,1.390,4508.109,1.390,888.506,888.510,179.834,24.342,359.994,6.941,-0.046,0.0000,-0.2335,0.0000,0.7525,0.5000,0.0000,0.0000
68.765,Upwind,4525.235,1.389,4525.235,1.389,892.966,892.970,179.848,24.317,359.993,6.934,-0.046,0.0000,-0.2334,0.0000,0.7523,0.5000,0.0000,0.0000
68.981,Upwind,4545.477,1.387,4545.477,1.387,898.232,898.236,179.863,24.288,359.993,6.926,-0.045,0.0000,-0.2333,0.0000,0.7521,0.5000,0.0000,0.0000
69.173,Upwind,4562.608,1.385,4562.608,1.385,902.682,902.686,179.877,24.263,359.993,6.919,-0.045,0.0000,-0.2332,0.0000,0.7519,0.5000,0.0000,0.0000
69.386,Upwind,4582.856,1.384,4582.856,1.384,907.532,907.536,179.891,24.236,359.993,6.912,-0.045,0.0000,-0.2331,0.0000,0.7517,0.5000,0.0000,0.0000
69.573,Upwind,4599.992,1.382,4599.992,1.382,912.376,912.381,179.905,24.209,359.993,6.905,-0.045,0.0000,-0.2330,0.0000,0.7515,0.5000,0.0000,0.0000
69.768,Upwind,4618.689,1.380,4618.689,1.380,917.215,917.220,179.919,24.182,359.993,6.897,-0.045,0.0000,-0.2329,0.0000,0.7513,0.5000,0.0000,0.0000
69.974,Upwind,4637.389,1.378,4637.389,1.378,922.049,922.053,179.933,24.155,359.993,6.890,-0.045,0.0000,-0.2328,0.0000,0.7511,0.5000,0.0000,0.0000
70.170,Upwind,4656.091,1.376,4656.091,1.376,926.877,926.882,179.947,24.128,359.993,6.883,-0.045,0.0000,-0.2327,0.0000,0.7509,0.5000,0.0000,0.0000
70.371,Upwind,4674.796,1.375,4674.796,1.375,931.700,931.705,179.961,24.101,359.993,6.876,-0.045,0.0000,-0.2326,0.0000,0.7507,0.5000,0.0000,0.0000
70.578,Upwind,4695.064,1.372,4695.064,1.372,936.919,936.923,179.976,24.071,359.992,6.868,-0.045,0.0000,-0.2325,0.0000,0.7505,0.5000,0.0000,0.0000
70.772,Upwind,4712.216,1.371,4712.216,1.371,941.330,941.334,179.989,24.047,359.992,6.861,-0.045,0.0001,-0.2324,0.0000,0.7503,0.5000,0.0000,0.0000
70.972,Upwind,4730.930,1.369,4730.930,1.369,946.536,946.541,180.004,24.018,359.992,6.853,-0.045,0.0000,-0.2323,0.0000,0.7501,0.5000,0.0000,0.0000
71.177,Upwind,4751.207,1.366,4751.207,1.366,951.337,951.342,180.018,23.991,359.992,6.846,-0.044,0.0000,-0.2322,0.0000,0.7499,0.5000,0.0000,0.0000
71.376,Upwind,4769.927,1.364,4769.927,1.364,956.133,956.137,180.031,23.964,359.992,6.839,-0.044,0.0000,-0.2321,0.0000,0.7497,0.5000,0.0000,0.0000
71.575,Upwind,4787.089,1.362,4787.089,1.362,960.923,960.927,180.045,23.936,359.992,6.832,-0.044,0.0000,-0.2320,0.0000,0.7495,0.5000,0.0000,0.0000
71.777,Upwind,4807.375,1.360,4807.375,1.360,965.707,965.712,180.058,23.909,359.992,6.824,-0.044,0.0000,-0.2320,0.0000,0.7493,0.5000,0.0000,0.0000
71.970,Upwind,4824.543,1.358,4824.543,1.358,970.088,970.093,180.071,23.885,359.992,6.818,-0.044,0.0001,-0.2319,0.0000,0.7492,0.5000,0.0000,0.0000
72.168,Upwind,4843.274,1.356,4843.274,1.356,974.863,974.867,180.084,23.858,359.992,6.811,-0.044,0.0000,-0.2318,0.0000,0.7490,0.5000,0.0000,0.0000
72.375,Upwind,4862.008,1.354,4862.008,1.354,980.028,980.033,180.099,23.828,359.992,6.803,-0.044,0.0001,-0.2317,0.0000,0.7488,0.5000,0.0000,0.0000
72.577,Upwind,4882.306,1.351,4882.306,1.351,984.791,984.796,180.112,23.802,359.992,6.796,-0.043,0.0000,-0.2316,0.0000,0.7486,0.5000,0.0000,0.0000
72.766,Upwind,4899.484,1.349,4899.484,1.349,989.153,989.158,180.124,23.777,359.991,6.789,-0.043,0.0000,-0.2315,0.0000,0.7484,0.5000,0.0000,0.0000
72.974,Upwind,4918.226,1.347,4918.226,1.347,994.301,994.306,180.138,23.748,359.991,6.782,-0.043,0.0000,-0.2314,0.0000,0.7482,0.5000,0.0000,0.0000
73.167,Upwind,4936.972,1.345,4936.972,1.345,998.653,998.658,180.151,23.723,359.991,6.775,-0.043,0.0000,-0.2313,0.0000,0.7480,0.5000,0.0000,0.0000
73.370,Upwind,4955.719,1.342,4955.719,1.342,1003.395,1003.399,180.164,23.696,359.991,6.768,-0.043,0.0000,-0.2312,0.0000,0.7479,0.5000,0.0000,0.0000
73.575,Upwind,4976.033,1.340,4976.033,1.340,1008.526,1008.530,180.178,23.667,359.991,6.760,-0.043,0.0001,-0.2311,0.0000,0.7477,0.5000,0.0000,0.0000
73.768,Upwind,4993.224,1.338,4993.224,1.338,1012.862,1012.867,180.190,23.643,359.991,6.754,-0.043,0.0000,-0.2310,0.0000,0.7475,0.5000,0.0000,0.0000
73.968,Upwind,5011.980,1.335,5011.980,1.335,1017.588,1017.593,180.203,23.616,359.991,6.747,-0.043,0.0000,-0.2309,0.0000,0.7473,0.5000,0.0000,0.0000
74.165,Upwind,5030.739,1.333,5030.739,1.333,1022.309,1022.314,180.216,23.589,359.991,6.740,-0.042,0.0000,-0.2308,0.0000,0.7471,0.5000,0.0000,0.0000
74.370,Upwind,5049.501,1.330,5049.501,1.330,1027.416,1027.421,180.230,23.560,359.991,6.732,-0.042,0.0000,-0.2308,0.0000,0.7469,0.5000,0.0000,0.0000
74.568,Upwind,5068.265,1.328,5068.265,1.328,1031.733,1031.738,180.242,23.535,359.991,6.726,-0.042,0.0000,-0.2307,0.0000,0.7468,0.5000,0.0000,0.0000
74.775,Upwind,5087.032,1.325,5087.032,1.325,1036.830,1036.835,180.256,23.506,359.991,6.718,-0.042,0.0000,-0.2306,0.0000,0.7466,0.5000,0.0000,0.0000
74.967,Upwind,5105.802,1.323,5105.802,1.323,1041.137,1041.142,180.267,23.482,359.991,6.712,-0.042,0.0000,-0.2305,0.0000,0.7464,0.5000,0.0000,0.0000
75.169,Upwind,5124.575,1.320,5124.575,1.320,1045.830,1045.836,180.280,23.455,359.991,6.705,-0.042,0.0000,-0.2304,0.0000,0.7462,0.5000,0.0000,0.0000
75.372,Upwind,5143.350,1.318,5143.350,1.318,1050.909,1050.914,180.294,23.426,359.991,6.697,-0.042,0.0000,-0.2303,0.0000,0.7460,0.5000,0.0000,0.0000
75.576,Upwind,5163.694,1.315,5163.694,1.315,1055.592,1055.597,180.307,23.399,359.991,6.690,-0.042,0.0000,-0.2302,0.0000,0.7459,0.5000,0.0000,0.0000
75.779,Upwind,5182.475,1.313,5182.475,1.313,1060.269,1060.274,180.319,23.373,359.991,6.683,-0.041,0.0000,-0.2301,0.0000,0.7457,0.5000,0.0000,0.0000
75.966,Upwind,5199.693,1.310,5199.693,1.310,1064.552,1064.557,180.331,23.348,359.991,6.677,-0.041,0.0000,-0.2300,0.0000,0.7455,0.5000,0.0000,0.0000
76.165,Upwind,5218.480,1.308,5218.480,1.308,1069.219,1069.224,180.344,23.322,359.991,6.670,-0.041,0.0000,-0.2299,0.0000,0.7453,0.5000,0.0000,0.0000
76.376,Upwind,5238.834,1.305,5238.834,1.305,1074.268,1074.274,180.357,23.293,359.991,6.662,-0.041,0.0000,-0.2299,0.0000,0.7452,0.5000,0.0000,0.0000
76.570,Upwind,5256.060,1.303,5256.060,1.303,1078.537,1078.542,180.369,23.268,359.991,6.656,-0.041,0.0000,-0.2298,0.0000,0.7450,0.5000,0.0000,0.0000
76.773,Upwind,5274.855,1.300,5274.855,1.300,1083.575,1083.580,180.382,23.240,359.991,6.648,-0.041,0.0000,-0.2297,0.0000,0.7448,0.5000,0.0000,0.0000
76.968,Upwind,5293.652,1.298,5293.652,1.298,1087.833,1087.838,180.394,23.215,359.991,6.642,-0.041,0.0000,-0.2296,0.0000,0.7446,0.5000,0.0000,0.0000
77.179,Upwind,5314.018,1.295,5314.018,1.295,1092.860,1092.865,180.407,23.186,359.991,6.635,-0.041,0.0000,-0.2295,0.0000,0.7444,0.5000,0.0000,0.0000
77.378,Upwind,5332.821,1.292,5332.821,1.292,1097.495,1097.500,180.420,23.160,359.991,6.628,-0.041,0.0000,-0.2294,0.0000,0.7443,0.5000,0.0000,0.0000
77.569,Upwind,5350.059,1.290,5350.059,1.290,1101.738,1101.744,180.431,23.136,359.991,6.621,-0.040,0.0000,-0.2294,0.0000,0.7441,0.5000,0.0000,0.0000
77.770,Upwind,5368.867,1.287,5368.867,1.287,1106.363,1106.368,180.443,23.109,359.991,6.615,-0.040,0.0000,-0.2293,0.0000,0.7439,0.5000,0.0000,0.0000
77.977,Upwind,5389.245,1.285,5389.245,1.285,1111.367,1111.372,180.457,23.080,359.991,6.607,-0.040,0.0000,-0.2292,0.0000,0.7438,0.5000,0.0000,0.0000
78.171,Upwind,5406.491,1.282,5406.491,1.282,1115.596,1115.601,180.468,23.056,359.991,6.601,-0.040,0.0000,-0.2291,0.0000,0.7436,0.5000,0.0000,0.0000
78.376,Upwind,5426.875,1.279,5426.875,1.279,1120.588,1120.594,180.481,23.028,359.991,6.594,-0.040,0.0000,-0.2290,0.0000,0.7434,0.5000,0.0000,0.0000
78.572,Upwind,5444.125,1.277,5444.125,1.277,1125.191,1125.196,180.494,23.001,359.991,6.587,-0.040,0.0000,-0.2289,0.0000,0.7432,0.5000,0.0000,0.0000
78.766,Upwind,5462.946,1.274,5462.946,1.274,1129.406,1129.411,180.505,22.977,359.991,6.581,-0.040,0.0001,-0.2288,0.0000,0.7431,0.5000,0.0000,0.0000
78.971,Upwind,5481.770,1.272,5481.770,1.272,1134.381,1134.386,180.518,22.948,359.991,6.573,-0.040,0.0000,-0.2287,0.0000,0.7429,0.5000,0.0000,0.0000
79.177,Upwind,5502.166,1.269,5502.166,1.269,1138.968,1138.973,180.530,22.922,359.991,6.566,-0.040,0.0000,-0.2286,0.0000,0.7427,0.5000,0.0000,0.0000
79.371,Upwind,5519.426,1.267,5519.426,1.267,1143.168,1143.174,180.541,22.898,359.991,6.560,-0.040,0.0000,-0.2286,0.0000,0.7426,0.5000,0.0000,0.0000
79.568,Upwind,5538.257,1.264,5538.257,1.264,1147.745,1147.751,180.554,22.872,359.991,6.553,-0.040,0.0000,-0.2285,0.0000,0.7424,0.5000,0.0000,0.0000
79.767,Upwind,5557.092,1.261,5557.092,1.261,1152.317,1152.322,180.566,22.845,359.991,6.547,-0.039,0.0000,-0.2284,0.0000,0.7422,0.5000,0.0000,0.0000
79.974,Upwind,5575.929,1.259,5575.929,1.259,1157.263,1157.269,180.579,22.817,359.991,6.539,-0.039,0.0000,-0.2283,0.0000,0.7420,0.5000,0.0000,0.0000
80.175,Upwind,5594.768,1.256,5594.768,1.256,1161.824,1161.830,180.591,22.791,359.991,6.532,-0.039,0.0000,-0.2282,0.0000,0.7419,0.5000,0.0000,0.0000
80.374,Upwind,5613.611,1.254,5613.611,1.254,1166.380,1166.385,180.603,22.764,359.991,6.526,-0.039,0.0000,-0.2282,0.0000,0.7417,0.5000,0.0000,0.0000
80.566,Upwind,5632.455,1.251,5632.455,1.251,1170.551,1170.557,180.614,22.740,359.991,6.520,-0.039,0.0000,-0.2281,0.0000,0.7415,0.5000,0.0000,0.0000
80.776,Upwind,5652.874,1.248,5652.874,1.248,1175.475,1175.481,180.627,22.712,359.991,6.512,-0.039,0.0000,-0.2280,0.0000,0.7414,0.5000,0.0000,0.0000
80.970,Upwind,5670.153,1.246,5670.153,1.246,1179.637,1179.642,180.638,22.688,359.991,6.506,-0.039,0.0000,-0.2279,0.0000,0.7412,0.5000,0.0000,0.0000
81.167,Upwind,5689.006,1.244,5689.006,1.244,1184.172,1184.177,180.650,22.662,359.991,6.499,-0.039,0.0000,-0.2278,0.0000,0.7410,0.5000,0.0000,0.0000
81.376,Upwind,5709.432,1.241,5709.432,1.241,1189.079,1189.084,180.663,22.634,359.991,6.492,-0.039,0.0000,-0.2277,0.0000,0.7409,0.5000,0.0000,0.0000
81.572,Upwind,5726.719,1.239,5726.719,1.239,1193.603,1193.609,180.675,22.608,359.991,6.486,-0.039,0.0000,-0.2276,0.0000,0.7407,0.5000,0.0000,0.0000
81.768,Upwind,5745.579,1.236,5745.579,1.236,1197.745,1197.751,180.686,22.584,359.991,6.479,-0.039,0.0000,-0.2276,0.0000,0.7405,0.5000,0.0000,0.0000
81.966,Upwind,5764.442,1.233,5764.442,1.233,1202.260,1202.265,180.697,22.558,359.991,6.473,-0.039,0.0000,-0.2275,0.0000,0.7404,0.5000,0.0000,0.0000
82.169,Upwind,5783.308,1.231,5783.308,1.231,1207.144,1207.150,180.710,22.530,359.991,6.466,-0.039,0.0000,-0.2274,0.0000,0.7402,0.5000,0.0000,0.0000
82.369,Upwind,5802.176,1.229,5802.176,1.229,1211.272,1211.278,180.721,22.506,359.991,6.459,-0.038,0.0000,-0.2273,0.0000,0.7400,0.5000,0.0000,0.0000
82.572,Upwind,5821.047,1.226,5821.047,1.226,1216.145,1216.151,180.734,22.478,359.991,6.452,-0.038,0.0001,-0.2272,0.0000,0.7399,0.5000,0.0000,0.0000
82.772,Upwind,5839.920,1.224,5839.920,1.224,1220.638,1220.644,180.746,22.452,359.991,6.446,-0.038,0.0000,-0.2271,0.0000,0.7397,0.5000,0.0000,0.0000
82.975,Upwind,5858.796,1.221,5858.796,1.221,1225.126,1225.132,180.758,22.426,359.991,6.439,-0.038,0.0000,-0.2271,0.0000,0.7395,0.5000,0.0000,0.0000
83.176,Upwind,5879.248,1.219,5879.248,1.219,1229.609,1229.615,180.769,22.400,359.991,6.432,-0.038,0.0000,-0.2270,0.0000,0.7394,0.5000,0.0000,0.0000
83.375,Upwind,5896.556,1.216,5896.556,1.216,1234.086,1234.092,180.781,22.374,359.991,6.426,-0.038,0.0000,-0.2269,0.0000,0.7392,0.5000,0.0000,0.0000
83.574,Upwind,5915.440,1.214,5915.440,1.214,1238.559,1238.564,180.793,22.348,359.991,6.419,-0.038,0.0000,-0.2268,0.0000,0.7390,0.5000,0.0000,0.0000
83.772,Upwind,5934.326,1.211,5934.326,1.211,1243.026,1243.032,180.805,22.323,359.991,6.413,-0.038,0.0000,-0.2267,0.0000,0.7389,0.5000,0.0000,0.0000
83.979,Upwind,5954.789,1.209,5954.789,1.209,1247.488,1247.494,180.816,22.297,359.991,6.406,-0.038,0.0000,-0.2267,0.0000,0.7387,0.5000,0.0000,0.0000
84.179,Upwind,5973.681,1.207,5973.681,1.207,1251.944,1251.950,180.828,22.271,359.991,6.399,-0.038,0.0000,-0.2266,0.0000,0.7385,0.5000,0.0000,0.0000
84.367,Upwind,5991.000,1.204,5991.000,1.204,1256.025,1256.031,180.839,22.248,359.991,6.393,-0.038,0.0000,-0.2265,0.0000,0.7384,0.5000,0.0000,0.0000
84.583,Upwind,6011.471,1.202,6011.471,1.202,1260.843,1260.849,180.851,22.220,359.991,6.386,-0.038,0.0001,-0.2264,0.0000,0.7382,0.5000,0.0000,0.0000
84.769,Upwind,6028.795,1.200,6028.795,1.200,1264.914,1264.920,180.862,22.196,359.991,6.380,-0.038,0.0000,-0.2263,0.0000,0.7381,0.5000,0.0000,0.0000
84.981,Upwind,6049.272,1.197,6049.272,1.197,1269.720,1269.726,180.874,22.169,359.992,6.373,-0.038,0.0000,-0.2262,0.0000,0.7379,0.5000,0.0000,0.0000
85.173,Upwind,6066.601,1.195,6066.601,1.195,1274.151,1274.157,180.886,22.143,359.992,6.367,-0.038,0.0000,-0.2262,0.0000,0.7377,0.5000,0.0000,0.0000
85.373,Upwind,6085.508,1.193,6085.508,1.193,1278.577,1278.583,180.898,22.117,359.992,6.360,-0.038,0.0000,-0.2261,0.0000,0.7376,0.5000,0.0000,0.0000
85.568,Upwind,6104.417,1.191,6104.417,1.191,1282.630,1282.636,180.908,22.094,359.992,6.354,-0.038,0.0000,-0.2260,0.0000,0.7374,0.5000,0.0000,0.0000
85.786,Upwind,6124.905,1.188,6124.905,1.188,1287.414,1287.420,180.921,22.066,359.992,6.347,-0.038,0.0000,-0.2259,0.0000,0.7372,0.5000,0.0000,0.0000
85.967,Upwind,6142.243,1.186,6142.243,1.186,1291.457,1291.463,180.931,22.043,359.992,6.341,-0.038,0.0000,-0.2259,0.0000,0.7371,0.5000,0.0000,0.0000
86.169,Upwind,6161.160,1.184,6161.160,1.184,1295.863,1295.869,180.943,22.017,359.992,6.335,-0.037,0.0000,-0.2258,0.0000,0.7369,0.5000,0.0000,0.0000
86.366,Upwind,6180.079,1.182,6180.079,1.182,1300.264,1300.270,180.954,21.992,359.992,6.328,-0.037,0.0000,-0.2257,0.0000,0.7368,0.5000,0.0000,0.0000
