time_s,leg,north_m,east_m,along_m,cross_m,agl_ft,altitude_ft,speed_kts,vertical_speed_fps,heading_deg,pitch_deg,roll_deg,aileron_cmd,elevator_cmd,rudder_cmd,throttle_cmd,flaps_cmd,gear_cmd,brake_cmd
1.956,Upwind,0.777,0.000,0.777,0.000,3.691,3.691,2.693,0.000,0.000,0.450,0.000,0.0000,0.0029,0.0000,0.0000,0.5000,1.0000,1.0000
2.150,Upwind,0.965,0.000,0.965,0.000,3.692,3.692,1.088,0.029,0.000,0.388,0.000,0.0000,0.0319,0.0000,0.0000,0.5000,1.0000,1.0000
2.353,Upwind,0.981,0.000,0.981,0.000,3.707,3.707,0.046,0.048,0.000,0.311,0.000,0.0000,0.0518,0.0000,0.0000,0.5000,1.0000,1.0000
2.551,Upwind,0.978,0.000,0.978,0.000,3.696,3.696,0.079,-0.125,0.000,0.451,0.000,0.0000,0.0726,0.0000,0.0000,0.5000,1.0000,1.0000
2.748,Upwind,0.978,0.000,0.978,0.000,3.679,3.679,0.018,-0.030,0.000,0.494,0.000,0.0000,0.0675,0.0000,0.0184,0.5000,1.0000,0.0000
2.956,Upwind,0.978,0.000,0.978,0.000,3.683,3.683,0.028,0.045,0.000,0.459,0.000,0.0000,0.0608,0.0000,0.1226,0.5000,1.0000,0.0000
3.144,Upwind,0.979,0.000,0.979,0.000,3.691,3.691,0.014,0.024,0.000,0.437,0.000,0.0000,0.0615,0.0000,0.2163,0.5000,1.0000,0.0000
3.352,Upwind,0.978,0.000,0.978,0.000,3.692,3.692,0.006,-0.009,0.000,0.447,0.000,0.0000,0.0634,0.0000,0.3208,0.5000,1.0000,0.0000
3.551,Upwind,0.978,0.000,0.978,0.000,3.690,3.690,0.004,-0.007,0.000,0.452,0.000,0.0000,0.0633,0.0000,0.4199,0.5000,1.0000,0.0000
3.747,Upwind,0.979,0.000,0.979,0.000,3.690,3.690,0.005,0.003,0.000,0.451,0.000,0.0000,0.0628,0.0000,0.5179,0.5000,1.0000,0.0000
3.948,Upwind,0.980,0.000,0.980,0.000,3.691,3.691,0.019,0.003,0.000,0.448,0.000,0.0000,0.0627,0.0000,0.6183,0.5000,1.0000,0.0000
4.153,Upwind,0.983,0.000,0.983,0.000,3.691,3.691,0.042,0.000,0.000,0.448,0.000,0.0000,0.0629,0.0000,0.7211,0.5000,1.0000,0.0000
4.348,Upwind,0.989,0.000,0.989,0.000,3.691,3.691,0.077,-0.001,0.000,0.449,0.000,0.0000,0.0629,0.0000,0.8185,0.5000,1.0000,0.0000
4.545,Upwind,1.000,0.000,1.000,0.000,3.691,3.691,0.127,0.000,0.000,0.449,0.000,0.0000,0.0629,0.0000,0.9171,0.5000,1.0000,0.0000
4.746,Upwind,1.017,0.000,1.017,0.000,3.691,3.691,0.193,0.000,0.000,0.449,0.000,0.0000,0.0629,0.0000,1.0000,0.5000,1.0000,0.0000
4.951,Upwind,1.042,0.000,1.042,0.000,3.691,3.691,0.279,0.000,0.000,0.449,0.000,0.0000,0.0629,0.0000,1.0000,0.5000,1.0000,0.0000
5.144,Upwind,1.077,0.000,1.077,0.000,3.691,3.691,0.388,0.000,0.000,0.449,0.000,0.0000,0.0629,0.0000,1.0000,0.5000,1.0000,0.0000
5.343,Upwind,1.125,0.000,1.125,0.000,3.691,3.691,0.525,0.000,0.000,0.450,0.000,0.0000,0.0630,0.0000,1.0000,0.5000,1.0000,0.0000
5.550,Upwind,1.189,0.000,1.189,0.000,3.691,3.691,0.694,0.000,0.000,0.450,0.000,0.0000,0.0630,0.0000,1.0000,0.5000,1.0000,0.0000
5.748,Upwind,1.272,0.000,1.272,0.000,3.691,3.691,0.901,0.000,0.000,0.450,0.000,0.0000,0.0630,0.0000,1.0000,0.5000,1.0000,0.0000
5.950,Upwind,1.380,0.000,1.380,0.000,3.691,3.691,1.151,0.000,0.000,0.450,0.000,0.0000,0.0630,0.0000,1.0000,0.5000,1.0000,0.0000
6.141,Upwind,1.516,0.000,1.516,0.000,3.691,3.691,1.452,0.000,0.000,0.450,0.000,0.0000,0.0631,0.0000,1.0000,0.5000,1.0000,0.0000
6.342,Upwind,1.686,0.000,1.686,0.000,3.691,3.691,1.811,0.000,0.000,0.451,0.000,0.0000,0.0631,0.0000,1.0000,0.5000,1.0000,0.0000
6.542,Upwind,1.897,0.000,1.897,0.000,3.691,3.691,2.235,0.000,0.000,0.451,0.000,0.0000,0.0632,0.0000,1.0000,0.5000,1.0000,0.0000
6.755,Upwind,2.181,0.000,2.181,0.000,3.691,3.691,2.778,0.000,0.000,0.451,0.000,0.0000,0.0632,0.0000,1.0000,0.5000,1.0000,0.0000
6.949,Upwind,2.472,0.000,2.472,0.000,3.691,3.691,3.313,0.000,0.000,0.452,0.000,0.0000,0.0633,0.0000,1.0000,0.5000,1.0000,0.0000
7.151,Upwind,2.852,0.000,2.852,0.000,3.691,3.691,3.984,0.000,0.000,0.452,0.000,0.0000,0.0633,0.0000,1.0000,0.5000,1.0000,0.0000
7.342,Upwind,3.307,0.000,3.307,0.000,3.691,3.691,4.751,0.000,0.000,0.453,0.000,0.0000,0.0634,0.0000,1.0000,0.5000,1.0000,0.0000
7.539,Upwind,3.848,0.000,3.848,0.000,3.691,3.691,5.624,0.000,0.000,0.453,0.000,0.0000,0.0635,0.0000,1.0000,0.5000,1.0000,0.0000
7.740,Upwind,4.485,0.000,4.485,0.000,3.691,3.691,6.609,0.000,0.000,0.454,0.000,0.0000,0.0636,0.0000,1.0000,0.5000,1.0000,0.0000
7.967,Upwind,5.297,0.000,5.297,0.000,3.691,3.691,7.809,0.000,0.000,0.454,0.000,0.0000,0.0636,0.0000,1.0000,0.5000,1.0000,0.0000
8.155,Upwind,6.174,0.000,6.174,0.000,3.691,3.691,8.938,0.001,0.000,0.455,0.000,0.0000,0.0637,0.0000,1.0000,0.5000,1.0000,0.0000
8.340,Upwind,7.093,0.000,7.093,0.000,3.691,3.691,10.117,0.001,0.000,0.455,0.000,0.0000,0.0637,0.0000,1.0000,0.5000,1.0000,0.0000
8.545,Upwind,8.222,0.000,8.222,0.000,3.691,3.691,11.508,0.001,0.000,0.455,0.000,0.0000,0.0636,0.0000,1.0000,0.5000,1.0000,0.0000
8.768,Upwind,9.594,0.000,9.594,0.000,3.692,3.692,12.792,0.001,0.000,0.454,0.000,0.0000,0.0636,0.0000,1.0000,0.5000,1.0000,0.0000
8.949,Upwind,10.876,0.000,10.876,0.000,3.692,3.692,14.074,0.001,0.000,0.454,0.000,0.0000,0.0635,0.0000,1.0000,0.5000,1.0000,0.0000
9.153,Upwind,12.534,0.000,12.534,0.000,3.692,3.692,15.356,0.001,0.000,0.454,0.000,0.0000,0.0635,0.0000,1.0000,0.5000,1.0000,0.0000
9.339,Upwind,14.058,0.000,14.058,0.000,3.692,3.692,16.636,0.001,0.000,0.453,0.000,0.0000,0.0634,0.0000,1.0000,0.5000,1.0000,0.0000
9.554,Upwind,16.001,0.000,16.001,0.000,3.693,3.693,18.022,0.002,0.000,0.453,0.000,0.0000,0.0633,0.0000,1.0000,0.5000,1.0000,0.0000
9.748,Upwind,17.766,0.000,17.766,0.000,3.693,3.693,19.193,0.002,0.000,0.452,0.000,0.0000,0.0633,0.0000,1.0000,0.5000,1.0000,0.0000
9.945,Upwind,19.818,0.000,19.818,0.000,3.693,3.693,20.470,0.002,0.000,0.452,0.000,0.0000,0.0632,0.0000,1.0000,0.5000,1.0000,0.0000
10.140,Upwind,22.001,0.000,22.001,0.000,3.694,3.694,21.746,0.002,0.000,0.451,0.000,0.0000,0.0631,0.0000,1.0000,0.5000,1.0000,0.0000
10.343,Upwind,24.315,0.000,24.315,0.000,3.694,3.694,23.020,0.002,0.000,0.451,0.000,0.0000,0.0630,0.0000,1.0000,0.5000,1.0000,0.0000
10.544,Upwind,26.760,0.000,26.760,0.000,3.695,3.695,24.294,0.002,0.000,0.450,0.000,0.0000,0.0630,0.0000,1.0000,0.5000,1.0000,0.0000
10.739,Upwind,29.336,0.000,29.336,0.000,3.695,3.695,25.566,0.003,0.000,0.449,0.000,0.0000,0.0629,0.0000,1.0000,0.5000,1.0000,0.0000
10.952,Upwind,32.274,0.000,32.274,0.000,3.696,3.696,26.942,0.003,0.000,0.449,0.000,0.0000,0.0627,0.0000,1.0000,0.5000,1.0000,0.0000
11.151,Upwind,34.880,0.000,34.880,0.000,3.696,3.696,28.106,0.003,0.000,0.448,0.000,0.0000,0.0626,0.0000,1.0000,0.5000,1.0000,0.0000
11.337,Upwind,37.848,0.000,37.848,0.000,3.697,3.697,29.374,0.003,0.000,0.447,0.000,0.0000,0.0625,0.0000,1.0000,0.5000,1.0000,0.0000
11.541,Upwind,40.946,0.000,40.946,0.000,3.698,3.698,30.640,0.004,0.000,0.446,0.000,0.0000,0.0624,0.0000,1.0000,0.5000,1.0000,0.0000
11.752,Upwind,44.450,0.000,44.450,0.000,3.698,3.698,32.011,0.004,0.000,0.445,0.000,0.0000,0.0622,0.0000,1.0000,0.5000,1.0000,0.0000
11.952,Upwind,47.820,0.001,47.820,0.001,3.699,3.699,33.169,0.004,0.000,0.444,0.000,0.0000,0.0621,0.0000,1.0000,0.5000,1.0000,0.0000
12.152,Upwind,51.319,0.001,51.319,0.001,3.700,3.700,34.432,0.004,0.000,0.443,0.000,0.0000,0.0620,0.0000,1.0000,0.5000,1.0000,0.0000
12.339,Upwind,54.641,0.001,54.641,0.001,3.701,3.701,35.692,0.004,0.000,0.442,0.000,0.0000,0.0618,0.0000,1.0000,0.5000,1.0000,0.0000
12.539,Upwind,58.389,0.001,58.389,0.001,3.702,3.702,36.952,0.005,0.000,0.441,0.000,0.0000,0.0616,0.0000,1.0000,0.5000,1.0000,0.0000
12.751,Upwind,62.267,0.001,62.267,0.001,3.702,3.702,38.209,0.005,0.000,0.440,0.000,0.0000,0.0614,0.0000,1.0000,0.5000,1.0000,0.0000
12.948,Upwind,66.273,0.001,66.273,0.001,3.703,3.703,39.465,0.005,0.000,0.438,0.000,0.0000,0.0613,0.0000,1.0000,0.5000,1.0000,0.0000
13.147,Upwind,70.409,0.001,70.409,0.001,3.705,3.705,40.720,0.005,0.000,0.437,0.000,0.0000,0.0611,0.0000,1.0000,0.5000,1.0000,0.0000
13.338,Upwind,74.674,0.001,74.674,0.001,3.706,3.706,41.972,0.006,0.000,0.436,0.000,0.0000,0.0609,0.0000,1.0000,0.5000,1.0000,0.0000
13.553,Upwind,79.440,0.001,79.440,0.001,3.707,3.707,43.327,0.006,0.000,0.434,0.000,0.0000,0.0606,0.0000,1.0000,0.5000,1.0000,0.0000
13.755,Upwind,83.973,0.001,83.973,0.001,3.708,3.708,44.576,0.006,0.000,0.433,0.000,0.0000,0.0604,0.0000,1.0000,0.5000,1.0000,0.0000
13.938,Upwind,88.241,0.002,88.241,0.002,3.709,3.709,45.720,0.006,0.000,0.431,0.000,0.0000,0.0602,0.0000,1.0000,0.5000,1.0000,0.0000
14.154,Upwind,93.424,0.002,93.424,0.002,3.711,3.711,47.069,0.007,0.000,0.429,0.000,0.0000,0.0599,0.0000,1.0000,0.5000,1.0000,0.0000
14.350,Upwind,97.928,0.002,97.928,0.002,3.712,3.712,48.209,0.008,0.000,0.427,0.000,0.0000,0.0597,0.0000,1.0000,0.5000,1.0000,0.0000
14.549,Upwind,102.962,0.002,102.962,0.002,3.714,3.714,49.450,0.008,0.000,0.425,0.000,0.0000,0.0594,0.0000,1.0000,0.5000,1.0000,0.0000
14.743,Upwind,108.125,0.002,108.125,0.002,3.715,3.715,50.690,0.008,0.001,0.423,0.000,0.0000,0.0590,0.0000,1.0000,0.5000,1.0000,0.0000
14.941,Upwind,113.415,0.002,113.415,0.002,3.717,3.717,51.927,0.009,0.001,0.421,0.000,-0.0001,0.0587,0.0000,1.0000,0.5000,1.0000,0.0000
15.143,Upwind,118.832,0.003,118.832,0.003,3.719,3.719,53.162,0.009,0.001,0.419,0.000,-0.0001,0.0584,0.0000,1.0000,0.5000,1.0000,0.0000
15.350,Upwind,124.376,0.003,124.376,0.003,3.720,3.721,54.395,0.010,0.001,0.416,0.000,-0.0001,0.0581,0.0000,1.0000,0.5000,1.0000,0.0000
15.548,Upwind,130.047,0.003,130.047,0.003,3.722,3.722,55.626,0.010,0.001,0.414,0.000,-0.0001,0.0577,0.0000,1.0000,0.5000,1.0000,0.0000
15.746,Upwind,135.844,0.003,135.844,0.003,3.724,3.724,56.854,0.010,0.001,0.411,0.000,-0.0001,0.0573,0.0000,1.0000,0.5000,1.0000,0.0000
15.938,Upwind,141.768,0.004,141.768,0.004,3.727,3.727,58.080,0.011,0.001,0.409,0.000,-0.0001,0.0569,0.0000,1.0000,0.5000,1.0000,0.0000
16.152,Upwind,148.327,0.004,148.327,0.004,3.729,3.729,59.303,0.010,0.001,0.406,0.000,-0.0001,0.0566,0.0000,1.0000,0.5000,1.0000,0.0000
16.346,Upwind,153.992,0.004,153.992,0.004,3.730,3.730,60.525,0.009,0.001,0.403,0.000,-0.0001,0.0563,0.0000,1.0000,0.5000,1.0000,0.0000
16.537,Upwind,160.293,0.004,160.293,0.004,3.732,3.732,61.643,0.008,0.001,0.401,0.000,-0.0001,0.0560,0.0000,1.0000,0.5000,1.0000,0.0000
16.751,Upwind,166.719,0.005,166.719,0.005,3.734,3.734,62.961,0.008,0.001,0.399,0.000,-0.0001,0.0557,0.0000,1.0000,0.5000,1.0000,0.0000
16.953,Upwind,173.822,0.005,173.822,0.005,3.735,3.735,64.176,0.009,0.001,0.397,0.000,-0.0001,0.0554,0.0000,1.0000,0.5000,1.0000,0.0000
17.138,Upwind,179.947,0.005,179.947,0.005,3.737,3.737,65.288,0.009,0.001,0.395,0.000,-0.0001,0.0551,0.0000,1.0000,0.5000,1.0000,0.0000
17.341,Upwind,186.748,0.006,186.748,0.006,3.739,3.739,66.600,0.009,0.002,0.393,0.000,-0.0001,0.0547,0.0000,1.0000,0.5000,1.0000,0.0000
17.554,Upwind,194.255,0.006,194.255,0.006,3.741,3.741,67.808,0.009,0.002,0.390,0.000,-0.0001,0.0544,0.0000,1.0000,0.5000,1.0000,0.0000
17.747,Upwind,200.722,0.007,200.722,0.007,3.743,3.743,69.014,0.009,0.002,0.388,0.000,-0.0001,0.0541,0.0000,1.0000,0.5000,1.0000,0.0000
17.953,Upwind,208.499,0.007,208.499,0.007,3.744,3.744,70.218,0.009,0.002,0.386,0.000,-0.0001,0.0537,0.0000,1.0000,0.5000,1.0000,0.0000
18.152,Upwind,215.806,0.008,215.806,0.008,3.746,3.746,71.420,0.009,0.002,0.383,0.000,-0.0002,0.0534,0.0000,1.0000,0.5000,1.0000,0.0000
18.352,Upwind,223.237,0.008,223.237,0.008,3.748,3.748,72.719,0.010,0.002,0.380,0.000,-0.0002,0.0530,0.0000,1.0000,0.5000,1.0000,0.0000
18.552,Upwind,230.791,0.009,230.791,0.009,3.750,3.750,73.816,0.010,0.002,0.378,0.000,-0.0002,0.0527,0.0000,1.0000,0.5000,1.0000,0.0000
18.755,Upwind,238.469,0.010,238.469,0.010,3.752,3.752,75.110,0.010,0.002,0.376,0.000,-0.0002,0.0523,0.0000,1.0000,0.5000,1.0000,0.0000
18.950,Upwind,245.614,0.010,245.614,0.010,3.754,3.754,76.203,0.010,0.003,0.373,0.000,-0.0002,0.0520,0.0000,1.0000,0.5000,1.0000,0.0000
19.152,Upwind,254.191,0.011,254.191,0.011,3.756,3.756,77.492,0.010,0.003,0.370,0.000,-0.0002,0.0516,0.0000,1.0000,0.5000,1.0000,0.0000
19.357,Upwind,262.236,0.012,262.236,0.012,3.758,3.758,78.679,0.010,0.003,0.368,0.000,-0.0002,0.0512,0.0000,1.0000,0.5000,1.0000,0.0000
19.538,Upwind,269.717,0.012,269.717,0.012,3.760,3.760,79.765,0.010,0.003,0.365,0.000,-0.0002,0.0509,0.0000,1.0000,0.5000,1.0000,0.0000
19.742,Upwind,277.996,0.013,277.996,0.013,3.762,3.762,80.948,0.011,0.003,0.363,0.000,-0.0002,0.0505,0.0000,1.0000,0.5000,1.0000,0.0000
19.942,Upwind,286.395,0.014,286.395,0.014,3.764,3.764,82.128,0.011,0.004,0.360,0.000,-0.0003,0.0501,0.0000,1.0000,0.5000,1.0000,0.0000
20.140,Upwind,294.917,0.015,294.917,0.015,3.766,3.766,83.306,0.011,0.004,0.357,0.000,-0.0003,0.0497,0.0000,1.0000,0.5000,1.0000,0.0000
20.340,Upwind,303.559,0.016,303.559,0.016,3.768,3.769,84.481,0.011,0.004,0.355,0.000,-0.0003,0.0494,0.0000,1.0000,0.5000,1.0000,0.0000
20.558,Upwind,313.057,0.017,313.057,0.017,3.771,3.771,85.751,0.011,0.004,0.351,0.000,-0.0003,0.0489,0.0000,1.0000,0.5000,1.0000,0.0000
20.738,Upwind,321.205,0.018,321.205,0.018,3.773,3.773,86.824,0.011,0.004,0.349,0.000,-0.0003,0.0486,0.0000,1.0000,0.5000,1.0000,0.0000
20.954,Upwind,330.965,0.019,330.965,0.019,3.775,3.775,88.089,0.011,0.005,0.346,0.000,-0.0003,0.0481,0.0000,1.0000,0.5000,1.0000,0.0000
21.151,Upwind,340.098,0.020,340.098,0.020,3.777,3.777,89.157,0.011,0.005,0.343,0.000,-0.0004,0.0478,0.0000,1.0000,0.5000,1.0000,0.0000
21.348,Upwind,348.576,0.021,348.576,0.021,3.780,3.780,90.319,0.012,0.005,0.340,0.000,-0.0004,0.0474,0.0000,1.0000,0.5000,1.0000,0.0000
21.559,Upwind,358.725,0.022,358.725,0.022,3.782,3.782,91.575,0.012,0.005,0.337,0.000,-0.0004,0.0469,0.0000,1.0000,0.5000,1.0000,0.0000
21.738,Upwind,367.421,0.024,367.421,0.024,3.784,3.784,92.540,0.012,0.006,0.335,0.000,-0.0004,0.0466,0.0000,1.0000,0.5000,1.0000,0.0000
21.950,Upwind,377.022,0.025,377.022,0.025,3.787,3.787,93.790,0.012,0.006,0.331,0.000,-0.0004,0.0461,0.0000,1.0000,0.5000,1.0000,0.0000
22.148,Upwind,386.742,0.026,386.742,0.026,3.789,3.789,94.942,0.012,0.006,0.328,0.000,-0.0005,0.0457,0.0000,1.0000,0.5000,1.0000,0.0000
22.355,Upwind,397.405,0.028,397.405,0.028,3.791,3.792,96.187,0.012,0.007,0.325,0.000,-0.0005,0.0452,0.0000,1.0000,0.5000,1.0000,0.0000
22.544,Upwind,406.536,0.030,406.536,0.030,3.794,3.794,97.238,0.012,0.007,0.322,0.000,-0.0005,0.0448,0.0000,1.0000,0.5000,1.0000,0.0000
22.756,Upwind,417.454,0.031,417.454,0.031,3.796,3.796,98.477,0.012,0.007,0.319,0.000,-0.0005,0.0444,0.0000,1.0000,0.5000,1.0000,0.0000
22.950,Upwind,426.801,0.033,426.801,0.033,3.799,3.799,99.523,0.012,0.007,0.316,0.000,-0.0005,0.0440,0.0000,1.0000,0.5000,1.0000,0.0000
23.151,Upwind,437.110,0.035,437.110,0.035,3.801,3.801,100.661,0.012,0.008,0.313,0.000,-0.0006,0.0435,0.0000,1.0000,0.5000,1.0000,0.0000
23.338,Upwind,447.535,0.037,447.535,0.037,3.803,3.803,101.702,0.013,0.008,0.310,0.000,-0.0006,0.0431,0.0000,1.0000,0.5000,1.0000,0.0000
23.555,Upwind,458.961,0.039,458.961,0.039,3.806,3.806,103.024,0.013,0.008,0.306,0.000,-0.0006,0.0426,0.0000,1.0000,0.5000,1.0000,0.0000
23.754,Upwind,469.630,0.041,469.630,0.041,3.809,3.809,104.060,0.013,0.009,0.303,0.000,-0.0006,0.0422,0.0000,1.0000,0.5000,1.0000,0.0000
23.942,Upwind,479.511,0.043,479.511,0.043,3.811,3.811,105.187,0.013,0.009,0.300,0.000,-0.0007,0.0417,0.0000,1.0000,0.5000,1.0000,0.0000
24.152,Upwind,491.314,0.045,491.314,0.045,3.814,3.814,106.311,0.013,0.010,0.297,0.000,-0.0007,0.0413,0.0000,1.0000,0.5000,1.0000,0.0000
24.349,Upwind,501.408,0.048,501.408,0.048,3.816,3.816,107.433,0.013,0.010,0.294,0.000,-0.0007,0.0408,0.0000,1.0000,0.5000,1.0000,0.0000
24.550,Upwind,512.529,0.050,512.529,0.050,3.819,3.819,108.551,0.013,0.010,0.290,0.000,-0.0008,0.0403,0.0000,1.0000,0.5000,1.0000,0.0000
24.744,Upwind,523.765,0.053,523.765,0.053,3.821,3.821,109.667,0.013,0.011,0.287,0.000,-0.0008,0.0399,0.0000,1.0000,0.5000,1.0000,0.0000
24.938,Upwind,535.116,0.055,535.116,0.055,3.824,3.824,110.780,0.013,0.011,0.284,0.000,-0.0008,0.0394,0.0000,1.0000,0.5000,1.0000,0.0000
25.151,Upwind,546.581,0.058,546.581,0.058,3.827,3.827,111.890,0.013,0.012,0.280,0.000,-0.0009,0.0389,0.0000,1.0000,0.5000,1.0000,0.0000
25.353,Upwind,559.131,0.061,559.131,0.061,3.829,3.829,112.997,0.013,0.012,0.277,0.000,-0.0009,0.0385,0.0000,1.0000,0.5000,1.0000,0.0000
25.545,Upwind,569.854,0.064,569.854,0.064,3.832,3.832,114.102,0.014,0.012,0.274,0.000,-0.0009,0.0380,0.0000,1.0000,0.5000,1.0000,0.0000
25.748,Upwind,581.660,0.067,581.660,0.067,3.835,3.835,115.203,0.014,0.013,0.270,0.000,-0.0010,0.0375,0.0000,1.0000,0.5000,1.0000,0.0000
25.950,Upwind,593.580,0.070,593.580,0.070,3.838,3.838,116.301,0.014,0.013,0.267,0.000,-0.0010,0.0370,0.0000,1.0000,0.5000,1.0000,0.0000
26.156,Upwind,606.620,0.074,606.620,0.074,3.841,3.841,117.488,0.014,0.014,0.263,0.000,-0.0010,0.0365,0.0000,1.0000,0.5000,1.0000,0.0000
26.353,Upwind,618.774,0.078,618.774,0.078,3.843,3.843,118.489,0.014,0.014,0.260,0.000,-0.0011,0.0361,0.0000,1.0000,0.5000,1.0000,0.0000
26.552,Upwind,631.041,0.081,631.041,0.081,3.846,3.846,119.670,0.014,0.015,0.256,0.000,-0.0011,0.0355,0.0000,1.0000,0.5000,1.0000,0.0000
26.740,Upwind,642.384,0.085,642.384,0.085,3.849,3.849,120.665,0.014,0.015,0.253,0.000,-0.0011,0.0351,0.0000,1.0000,0.5000,1.0000,0.0000
26.953,Upwind,655.910,0.089,655.910,0.089,3.851,3.851,121.749,0.014,0.016,0.250,-0.001,-0.0012,0.0346,0.0000,1.0000,0.5000,1.0000,0.0000
27.153,Upwind,668.511,0.093,668.511,0.093,3.854,3.854,122.829,0.014,0.016,0.246,-0.001,-0.0012,0.0341,0.0000,1.0000,0.5000,1.0000,0.0000
27.359,Upwind,681.223,0.097,681.223,0.097,3.857,3.857,123.997,0.014,0.017,0.242,-0.001,-0.0013,0.0336,0.0000,1.0000,0.5000,1.0000,0.0000
27.549,Upwind,692.973,0.101,692.973,0.101,3.860,3.860,124.981,0.014,0.017,0.239,-0.001,-0.0013,0.0331,0.0000,1.0000,0.5000,1.0000,0.0000
27.750,Upwind,705.898,0.106,705.898,0.106,3.863,3.863,126.053,0.014,0.018,0.235,-0.001,-0.0013,0.0326,0.0000,1.0000,0.5000,1.0000,0.0000
27.940,Upwind,718.932,0.111,718.932,0.111,3.866,3.866,127.121,0.014,0.018,0.232,-0.001,-0.0014,0.0321,0.0000,1.0000,0.5000,1.0000,0.0000
28.145,Upwind,732.076,0.115,732.076,0.115,3.868,3.868,128.186,0.015,0.019,0.228,-0.001,-0.0014,0.0316,0.0000,1.0000,0.5000,1.0000,0.0000
28.337,Upwind,745.329,0.120,745.329,0.120,3.871,3.871,129.249,0.015,0.019,0.225,-0.001,-0.0015,0.0311,0.0000,1.0000,0.5000,1.0000,0.0000
28.556,Upwind,759.810,0.126,759.810,0.126,3.875,3.875,130.396,0.015,0.020,0.221,-0.001,-0.0015,0.0305,0.0000,1.0000,0.5000,1.0000,0.0000
28.743,Upwind,772.163,0.131,772.163,0.131,3.877,3.877,131.364,0.015,0.020,0.217,-0.001,-0.0016,0.0301,0.0000,1.0000,0.5000,1.0000,0.0000
28.958,Upwind,786.879,0.137,786.879,0.137,3.880,3.880,132.504,0.015,0.021,0.213,-0.001,-0.0016,0.0295,0.0000,1.0000,0.5000,1.0000,0.0000
29.146,Upwind,799.431,0.142,799.431,0.142,3.883,3.883,133.467,0.015,0.022,0.210,-0.001,-0.0017,0.0290,0.0000,1.0000,0.5000,1.0000,0.0000
29.344,Upwind,813.226,0.148,813.226,0.148,3.886,3.886,134.514,0.015,0.022,0.206,-0.001,-0.0017,0.0285,0.0000,1.0000,0.5000,1.0000,0.0000
29.546,Upwind,827.130,0.154,827.130,0.154,3.889,3.889,135.559,0.015,0.023,0.203,-0.001,-0.0017,0.0280,0.0000,1.0000,0.5000,1.0000,0.0000
29.741,Upwind,841.141,0.160,841.141,0.160,3.892,3.892,136.601,0.015,0.023,0.199,-0.001,-0.0018,0.0275,0.0000,1.0000,0.5000,1.0000,0.0000
29.952,Upwind,856.440,0.167,856.440,0.167,3.895,3.895,137.641,0.015,0.024,0.195,-0.001,-0.0019,0.0270,0.0000,1.0000,0.5000,1.0000,0.0000
30.148,Upwind,869.483,0.173,869.483,0.173,3.898,3.898,138.678,0.015,0.024,0.192,-0.001,-0.0019,0.0265,0.0000,1.0000,0.5000,1.0000,0.0000
30.341,Upwind,883.814,0.180,883.814,0.180,3.901,3.901,139.712,0.015,0.025,0.188,-0.001,-0.0020,0.0259,0.0000,1.0000,0.5000,1.0000,0.0000
30.541,Upwind,898.252,0.187,898.252,0.187,3.904,3.904,140.744,0.015,0.026,0.184,-0.002,-0.0020,0.0254,0.0000,1.0000,0.5000,1.0000,0.0000
30.746,Upwind,912.795,0.194,912.795,0.194,3.907,3.907,141.773,0.015,0.026,0.180,-0.002,-0.0021,0.0249,0.0000,1.0000,0.5000,1.0000,0.0000
30.953,Upwind,928.670,0.202,928.670,0.202,3.910,3.910,142.884,0.015,0.027,0.176,-0.002,-0.0021,0.0243,0.0000,1.0000,0.5000,1.0000,0.0000
31.143,Upwind,942.199,0.209,942.199,0.209,3.913,3.913,143.822,0.015,0.027,0.173,-0.002,-0.0022,0.0238,0.0000,1.0000,0.5000,1.0000,0.0000
31.354,Upwind,958.302,0.218,958.302,0.218,3.916,3.916,144.843,0.015,0.028,0.169,-0.002,-0.0022,0.0233,0.0000,1.0000,0.5000,1.0000,0.0000
31.539,Upwind,972.023,0.225,972.023,0.225,3.919,3.919,145.861,0.016,0.029,0.165,-0.002,-0.0023,0.0228,0.0000,1.0000,0.5000,1.0000,0.0000
31.746,Upwind,987.093,0.234,987.093,0.234,3.922,3.922,146.876,0.016,0.029,0.162,-0.002,-0.0023,0.0222,0.0000,1.0000,0.5000,1.0000,0.0000
31.950,Upwind,1002.266,0.242,1002.266,0.242,3.926,3.926,147.889,0.016,0.030,0.158,-0.002,-0.0024,0.0217,0.0000,1.0000,0.5000,1.0000,0.0000
32.149,Upwind,1017.544,0.251,1017.544,0.251,3.929,3.929,148.899,0.016,0.031,0.154,-0.002,-0.0025,0.0212,0.0000,1.0000,0.5000,1.0000,0.0000
32.354,Upwind,1034.211,0.261,1034.211,0.261,3.932,3.932,149.906,0.016,0.031,0.150,-0.002,-0.0025,0.0206,0.0000,1.0000,0.5000,1.0000,0.0000
32.547,Upwind,1048.409,0.269,1048.409,0.269,3.935,3.935,150.910,0.010,0.032,0.149,-0.002,-0.0026,-0.0662,0.0000,1.0000,0.5000,1.0000,0.0000
32.741,Upwind,1063.997,0.278,1063.997,0.278,3.935,3.935,151.908,-0.003,0.032,0.161,-0.002,-0.0026,-0.1538,0.0000,1.0000,0.5000,1.0000,0.0000
32.955,Upwind,1080.999,0.289,1080.999,0.289,3.934,3.934,152.979,-0.008,0.033,0.182,-0.003,-0.0027,-0.2501,0.0000,1.0000,0.5000,1.0000,0.0000
33.147,Upwind,1095.478,0.298,1095.478,0.298,3.933,3.933,153.878,-0.003,0.034,0.198,-0.003,-0.0028,-0.3363,0.0000,1.0000,0.5000,1.0000,0.0000
33.338,Upwind,1111.370,0.308,1111.370,0.308,3.932,3.932,154.851,-0.002,0.035,0.214,-0.003,-0.0028,-0.4221,0.0000,1.0000,0.5000,1.0000,0.0000
33.551,Upwind,1128.698,0.319,1128.698,0.319,3.934,3.934,155.896,0.020,0.035,0.247,-0.003,-0.0029,-0.5183,0.0000,1.0000,0.5000,1.0000,0.0000
33.755,Upwind,1144.796,0.330,1144.796,0.330,3.940,3.940,156.771,0.050,0.036,0.330,-0.003,-0.0030,-0.6097,0.0000,1.0000,0.5000,1.0000,0.0000
33.949,Upwind,1159.639,0.340,1159.639,0.340,3.955,3.955,157.716,0.100,0.037,0.522,-0.003,-0.0031,-0.6500,0.0000,1.0000,0.5000,1.0000,0.0000
34.146,Upwind,1175.923,0.351,1175.923,0.351,3.981,3.981,158.654,0.166,0.038,0.841,-0.003,-0.0031,-0.6500,0.0000,1.0000,0.5000,1.0000,0.0000
34.340,Upwind,1192.303,0.363,1192.303,0.363,4.020,4.020,159.585,0.224,0.039,1.281,-0.003,-0.0032,-0.6500,0.0000,1.0000,0.5000,1.0000,0.0000
34.544,Upwind,1208.779,0.374,1208.779,0.374,4.070,4.070,160.507,0.274,0.039,1.831,-0.003,-0.0033,-0.6500,0.0000,1.0000,0.5000,1.0000,0.0000
34.741,Upwind,1225.349,0.387,1225.349,0.387,4.130,4.130,161.418,0.318,0.040,2.482,-0.004,-0.0034,-0.6500,0.0000,1.0000,0.5000,1.0000,0.0000
34.953,Upwind,1243.405,0.400,1243.405,0.400,4.203,4.203,162.392,0.361,0.041,3.290,-0.004,-0.0034,-0.6500,0.0000,1.0000,0.5000,1.0000,0.0000
35.155,Upwind,1260.167,0.412,1260.167,0.412,4.282,4.282,163.275,0.487,0.042,4.120,-0.004,-0.0033,-0.6500,0.0000,1.0000,0.5000,1.0000,0.0000
35.339,Upwind,1275.611,0.424,1275.611,0.424,4.414,4.414,164.061,1.024,0.042,4.925,-0.008,-0.0031,-0.6500,0.0000,1.0000,0.5000,1.0000,0.0000
35.555,Upwind,1293.957,0.439,1293.957,0.439,4.752,4.752,164.952,2.187,0.043,5.894,-0.015,-0.0027,-0.6500,0.0000,1.0000,0.5000,1.0000,0.0000
35.751,Upwind,1309.555,0.451,1309.555,0.451,5.275,5.275,165.670,3.565,0.044,6.702,-0.023,-0.0024,-0.6500,0.0000,1.0000,0.5000,1.0000,0.0000
35.946,Upwind,1326.644,0.464,1326.644,0.464,6.166,6.166,166.411,5.405,0.044,7.550,-0.032,-0.0021,-0.6500,0.0000,1.0000,0.5000,1.0000,0.0000
36.144,Upwind,1343.805,0.478,1343.805,0.478,7.455,7.455,167.104,7.515,0.044,8.349,-0.042,-0.0017,-0.6500,0.0000,1.0000,0.5000,1.0000,0.0000
36.344,Upwind,1361.030,0.491,1361.030,0.491,9.184,9.184,167.747,9.805,0.044,9.093,-0.051,-0.0014,-0.6500,0.0000,1.0000,0.5000,1.0000,0.0000
36.539,Upwind,1378.315,0.505,1378.315,0.505,11.384,11.384,168.338,12.215,0.043,9.782,-0.060,-0.0011,-0.6500,0.0000,1.0000,0.5000,1.0000,0.0000
36.751,Upwind,1395.651,0.518,1395.651,0.518,14.077,14.077,168.878,14.720,0.042,10.418,-0.068,-0.0009,-0.6500,0.0000,1.0000,0.5000,1.0000,0.0000
36.950,Upwind,1413.032,0.531,1413.032,0.531,17.275,17.275,169.368,17.271,0.041,11.006,-0.074,-0.0006,-0.6362,0.0000,1.0000,0.5000,1.0000,0.0000
37.153,Upwind,1431.905,0.544,1431.905,0.544,21.319,21.319,169.848,20.050,0.039,11.592,-0.080,-0.0004,-0.6057,0.0000,1.0000,0.5000,1.0000,0.0000
37.340,Upwind,1447.906,0.556,1447.906,0.556,25.208,25.208,170.213,22.377,0.037,12.037,-0.084,-0.0002,-0.5777,0.0000,1.0000,0.5000,1.0000,0.0000
37.551,Upwind,1465.387,0.567,1465.387,0.567,30.350,30.350,170.602,25.075,0.034,12.496,-0.087,-0.0001,-0.5460,0.0000,1.0000,0.5000,1.0000,0.0000
37.748,Upwind,1482.892,0.579,1482.892,0.579,35.151,35.151,170.899,27.287,0.032,12.825,-0.089,0.0001,-0.5164,0.0000,1.0000,0.5000,1.0000,0.0000
37.945,Upwind,1500.416,0.589,1500.416,0.589,40.843,40.843,171.192,29.618,0.029,13.120,-0.090,0.0002,-0.4869,0.0000,1.0000,0.5000,1.0000,0.0000
38.147,Upwind,1517.956,0.600,1517.956,0.600,46.991,46.991,171.456,31.843,0.027,13.348,-0.090,0.0003,-0.4566,0.0000,1.0000,0.5000,1.0000,0.0000
38.345,Upwind,1535.509,0.609,1535.509,0.609,53.572,53.572,171.696,33.944,0.024,13.512,-0.090,0.0003,-0.4268,0.0000,1.0000,0.5000,1.0000,0.0000
38.550,Upwind,1553.073,0.619,1553.073,0.619,60.559,60.559,171.916,35.900,0.022,13.614,-0.089,0.0004,-0.3962,0.0000,1.0000,0.5000,1.0000,0.0000
38.750,Upwind,1570.646,0.627,1570.646,0.627,67.294,67.295,172.103,37.556,0.020,13.656,-0.088,0.0004,-0.3661,0.0000,1.0000,0.5000,1.0000,0.0000
38.948,Upwind,1588.227,0.636,1588.227,0.636,75.628,75.628,172.312,39.338,0.018,13.646,-0.087,0.0005,-0.3365,0.0000,1.0000,0.5000,1.0000,0.0000
39.151,Upwind,1605.818,0.643,1605.818,0.643,83.645,83.645,172.497,40.799,0.016,13.583,-0.085,0.0005,-0.3059,0.0000,1.0000,0.5000,1.0000,0.0000
39.341,Upwind,1623.418,0.651,1623.418,0.651,91.235,91.236,172.663,41.983,0.015,13.483,-0.084,0.0004,-0.2775,0.0000,1.0000,0.5000,1.0000,0.0000
39.543,Upwind,1641.028,0.658,1641.028,0.658,100.465,100.466,172.858,43.180,0.014,13.315,-0.082,0.0004,-0.2471,0.0000,1.0000,0.5000,1.0000,0.0000
39.744,Upwind,1658.650,0.664,1658.650,0.664,109.196,109.196,173.036,44.093,0.013,13.116,-0.080,0.0004,-0.2170,0.0000,0.9977,0.5000,1.0000,0.0000
39.938,Upwind,1676.285,0.670,1676.285,0.670,118.090,118.090,173.210,44.810,0.013,12.880,-0.078,0.0003,-0.2698,0.0000,0.9953,0.5000,1.0000,0.0000
40.141,Upwind,1693.935,0.676,1693.935,0.676,127.106,127.106,173.378,45.317,0.013,12.647,-0.076,0.0003,-0.3178,0.0000,0.9929,0.5000,1.0000,0.0000
40.344,Upwind,1711.601,0.681,1711.601,0.681,136.205,136.206,173.541,45.655,0.012,12.463,-0.075,0.0002,-0.3516,0.0000,0.9906,0.5000,1.0000,0.0000
40.537,Upwind,1729.283,0.687,1729.283,0.687,145.360,145.361,173.699,45.880,0.012,12.355,-0.074,0.0002,-0.3674,0.0000,0.9884,0.5000,1.0000,0.0000
40.739,Upwind,1746.981,0.691,1746.981,0.691,154.554,154.554,173.851,46.056,0.012,12.330,-0.072,0.0001,-0.3653,0.0000,0.9863,0.5000,0.0000,0.0000
40.940,Upwind,1764.696,0.696,1764.696,0.696,163.783,163.783,173.998,46.237,0.011,12.378,-0.071,0.0001,-0.3489,0.0000,0.9842,0.5000,0.0000,0.0000
41.155,Upwind,1783.905,0.701,1783.905,0.701,173.826,173.827,174.150,46.483,0.011,12.487,-0.070,0.0001,-0.3219,0.0000,0.9821,0.5000,0.0000,0.0000
41.353,Upwind,1801.651,0.705,1801.651,0.705,182.371,182.372,174.273,46.748,0.010,12.601,-0.069,0.0001,-0.2957,0.0000,0.9804,0.5000,0.0000,0.0000
41.550,Upwind,1817.929,0.708,1817.929,0.708,191.755,191.756,174.399,47.095,0.010,12.723,-0.068,0.0000,-0.2701,0.0000,0.9786,0.5000,0.0000,0.0000
41.747,Upwind,1835.698,0.712,1835.698,0.712,201.213,201.213,174.519,47.489,0.009,12.824,-0.067,0.0000,-0.2509,0.0000,0.9769,0.5000,0.0000,0.0000
41.945,Upwind,1853.477,0.715,1853.477,0.715,210.752,210.753,174.632,47.905,0.008,12.891,-0.066,0.0000,-0.2399,0.0000,0.9753,0.5000,0.0000,0.0000
42.137,Upwind,1871.266,0.718,1871.266,0.718,220.374,220.375,174.739,48.317,0.008,12.919,-0.065,0.0000,-0.2371,0.0000,0.9738,0.5000,0.0000,0.0000
42.349,Upwind,1889.065,0.721,1889.065,0.721,230.076,230.078,174.841,48.701,0.007,12.914,-0.065,0.0000,-0.2409,0.0000,0.9724,0.5000,0.0000,0.0000
42.540,Upwind,1906.873,0.724,1906.873,0.724,239.852,239.853,174.939,49.043,0.007,12.885,-0.064,0.0000,-0.2490,0.0000,0.9710,0.5000,0.0000,0.0000
42.744,Upwind,1924.690,0.727,1924.690,0.727,249.690,249.691,175.035,49.334,0.006,12.843,-0.063,0.0000,-0.2587,0.0000,0.9697,0.5000,0.0000,0.0000
42.951,Upwind,1942.517,0.729,1942.517,0.729,259.582,259.583,175.129,49.577,0.005,12.801,-0.063,0.0001,-0.2675,0.0000,0.9684,0.5000,0.0000,0.0000
43.145,Upwind,1960.355,0.731,1960.355,0.731,269.518,269.519,175.221,49.779,0.005,12.767,-0.062,0.0001,-0.2738,0.0000,0.9671,0.5000,0.0000,0.0000
43.368,Upwind,1979.690,0.733,1979.690,0.733,280.324,280.325,175.318,49.965,0.004,12.746,-0.061,0.0001,-0.2769,0.0000,0.9657,0.5000,0.0000,0.0000
43.552,Upwind,1997.549,0.735,1997.549,0.735,289.497,289.499,175.399,50.107,0.003,12.742,-0.060,0.0001,-0.2762,0.0000,0.9646,0.5000,0.0000,0.0000
43.749,Upwind,2013.928,0.736,2013.928,0.736,299.534,299.535,175.486,50.257,0.003,12.752,-0.060,0.0001,-0.2731,0.0000,0.9634,0.5000,0.0000,0.0000
43.949,Upwind,2031.806,0.737,2031.806,0.737,309.600,309.602,175.571,50.410,0.002,12.771,-0.059,0.0001,-0.2681,0.0000,0.9622,0.5000,0.0000,0.0000
44.141,Upwind,2049.694,0.739,2049.694,0.739,318.856,318.857,175.646,50.557,0.001,12.794,-0.058,0.0001,-0.2629,0.0000,0.9611,0.5000,0.0000,0.0000
44.355,Upwind,2069.083,0.740,2069.083,0.740,329.829,329.831,175.733,50.738,0.001,12.821,-0.057,0.0001,-0.2573,0.0000,0.9599,0.5000,0.0000,0.0000
44.538,Upwind,2085.497,0.740,2085.497,0.740,339.994,339.995,175.811,50.910,0.000,12.842,-0.057,0.0001,-0.2532,0.0000,0.9588,0.5000,0.0000,0.0000
44.741,Upwind,2103.413,0.741,2103.413,0.741,350.193,350.195,175.887,51.083,360.000,12.856,-0.056,0.0001,-0.2508,0.0000,0.9577,0.5000,0.0000,0.0000
44.938,Upwind,2121.337,0.742,2121.337,0.742,359.572,359.574,175.955,51.238,359.999,12.862,-0.055,0.0001,-0.2501,0.0000,0.9568,0.5000,0.0000,0.0000
45.149,Upwind,2139.269,0.742,2139.269,0.742,370.693,370.695,176.034,51.413,359.999,12.863,-0.055,0.0001,-0.2506,0.0000,0.9557,0.5000,0.0000,0.0000
45.373,Upwind,2160.202,0.742,2160.202,0.742,381.850,381.852,176.111,51.575,359.998,12.857,-0.054,0.0001,-0.2521,0.0000,0.9546,0.5000,0.0000,0.0000
45.547,Upwind,2175.161,0.742,2175.161,0.742,391.317,391.319,176.176,51.700,359.998,12.850,-0.053,0.0001,-0.2538,0.0000,0.9537,0.5000,0.0000,0.0000
45.746,Upwind,2193.119,0.742,2193.119,0.742,401.670,401.672,176.245,51.825,359.998,12.842,-0.053,0.0001,-0.2554,0.0000,0.9527,0.5000,0.0000,0.0000
45.939,Upwind,2211.086,0.742,2211.086,0.742,412.046,412.048,176.312,51.938,359.997,12.836,-0.052,0.0001,-0.2566,0.0000,0.9518,0.5000,0.0000,0.0000
46.147,Upwind,2229.062,0.741,2229.062,0.741,422.445,422.447,176.376,52.043,359.997,12.833,-0.051,0.0001,-0.2570,0.0000,0.9509,0.5000,0.0000,0.0000
46.351,Upwind,2247.046,0.741,2247.046,0.741,432.863,432.865,176.436,52.142,359.996,12.833,-0.051,0.0001,-0.2565,0.0000,0.9500,0.5000,0.0000,0.0000
46.545,Upwind,2265.038,0.740,2265.038,0.740,443.301,443.303,176.494,52.238,359.996,12.837,-0.050,0.0001,-0.2554,0.0000,0.9492,0.5000,0.0000,0.0000
46.747,Upwind,2283.037,0.740,2283.037,0.740,453.758,453.761,176.549,52.333,359.996,12.843,-0.049,0.0001,-0.2537,0.0000,0.9485,0.5000,0.0000,0.0000
46.954,Upwind,2302.545,0.739,2302.545,0.739,464.234,464.237,176.600,52.428,359.996,12.851,-0.048,0.0000,-0.2519,0.0000,0.9477,0.5000,0.0000,0.0000
47.149,Upwind,2319.058,0.738,2319.058,0.738,474.729,474.732,176.649,52.523,359.995,12.860,-0.048,0.0001,-0.2502,0.0000,0.9470,0.5000,0.0000,0.0000
47.352,Upwind,2338.580,0.737,2338.580,0.737,485.243,485.246,176.695,52.617,359.995,12.867,-0.047,0.0000,-0.2487,0.0000,0.9464,0.5000,0.0000,0.0000
47.541,Upwind,2355.105,0.736,2355.105,0.736,495.776,495.779,176.739,52.711,359.995,12.873,-0.047,0.0001,-0.2475,0.0000,0.9458,0.5000,0.0000,0.0000
47.753,Upwind,2374.641,0.734,2374.641,0.734,506.328,506.330,176.780,52.802,359.994,12.877,-0.046,0.0001,-0.2468,0.0000,0.9452,0.5000,0.0000,0.0000
47.951,Upwind,2391.177,0.733,2391.177,0.733,516.897,516.899,176.818,52.890,359.994,12.880,-0.046,0.0001,-0.2463,0.0000,0.9447,0.5000,0.0000,0.0000
48.143,Upwind,2409.222,0.732,2409.222,0.732,527.483,527.486,176.855,52.973,359.994,12.881,-0.045,0.0001,-0.2462,0.0000,0.9442,0.5000,0.0000,0.0000
48.350,Upwind,2427.273,0.730,2427.273,0.730,538.086,538.088,176.889,53.052,359.993,12.881,-0.045,0.0001,-0.2462,0.0000,0.9437,0.5000,0.0000,0.0000
48.545,Upwind,2445.329,0.729,2445.329,0.729,548.704,548.706,176.921,53.127,359.993,12.881,-0.044,0.0001,-0.2461,0.0000,0.9432,0.5000,0.0000,0.0000
48.740,Upwind,2463.390,0.727,2463.390,0.727,559.336,559.339,176.952,53.197,359.993,12.882,-0.043,0.0001,-0.2460,0.0000,0.9428,0.5000,0.0000,0.0000
48.960,Upwind,2482.963,0.725,2482.963,0.725,570.870,570.872,176.983,53.268,359.993,12.882,-0.043,0.0000,-0.2457,0.0000,0.9424,0.5000,0.0000,0.0000
49.141,Upwind,2499.529,0.723,2499.529,0.723,580.641,580.644,177.008,53.326,359.992,12.884,-0.043,0.0001,-0.2454,0.0000,0.9420,0.5000,0.0000,0.0000
49.348,Upwind,2517.605,0.721,2517.605,0.721,591.312,591.315,177.033,53.387,359.992,12.886,-0.042,0.0000,-0.2449,0.0000,0.9417,0.5000,0.0000,0.0000
49.553,Upwind,2537.194,0.719,2537.194,0.719,602.886,602.889,177.059,53.450,359.992,12.889,-0.042,0.0001,-0.2443,0.0000,0.9413,0.5000,0.0000,0.0000
49.754,Upwind,2555.280,0.717,2555.280,0.717,613.582,613.585,177.081,53.507,359.992,12.891,-0.041,0.0001,-0.2437,0.0000,0.9410,0.5000,0.0000,0.0000
49.951,Upwind,2571.863,0.715,2571.863,0.715,623.396,623.399,177.100,53.557,359.992,12.894,-0.041,0.0001,-0.2431,0.0000,0.9407,0.5000,0.0000,0.0000
50.153,Upwind,2591.467,0.713,2591.467,0.713,634.113,634.116,177.120,53.611,359.992,12.896,-0.040,0.0000,-0.2426,0.0000,0.9404,0.5000,0.0000,0.0000
50.344,Upwind,2608.058,0.711,2608.058,0.711,644.840,644.843,177.138,53.662,359.991,12.899,-0.040,0.0001,-0.2422,0.0000,0.9402,0.5000,0.0000,0.0000
50.554,Upwind,2627.670,0.709,2627.670,0.709,655.577,655.580,177.155,53.712,359.991,12.900,-0.039,0.0000,-0.2418,0.0000,0.9399,0.5000,0.0000,0.0000
50.757,Upwind,2645.778,0.706,2645.778,0.706,667.221,667.224,177.172,53.764,359.991,12.902,-0.039,0.0000,-0.2415,0.0000,0.9397,0.5000,0.0000,0.0000
50.956,Upwind,2663.890,0.704,2663.890,0.704,677.978,677.981,177.186,53.809,359.991,12.903,-0.039,0.0000,-0.2413,0.0000,0.9395,0.5000,0.0000,0.0000
51.151,Upwind,2680.495,0.702,2680.495,0.702,687.847,687.850,177.199,53.849,359.991,12.904,-0.038,0.0000,-0.2411,0.0000,0.9393,0.5000,0.0000,0.0000
51.340,Upwind,2698.614,0.699,2698.614,0.699,698.620,698.624,177.211,53.890,359.991,12.904,-0.038,0.0000,-0.2410,0.0000,0.9391,0.5000,0.0000,0.0000
51.553,Upwind,2718.248,0.697,2718.248,0.697,710.301,710.305,177.224,53.933,359.991,12.905,-0.038,0.0001,-0.2408,0.0000,0.9390,0.5000,0.0000,0.0000
51.752,Upwind,2736.374,0.694,2736.374,0.694,721.091,721.095,177.234,53.970,359.991,12.906,-0.037,0.0000,-0.2406,0.0000,0.9388,0.5000,0.0000,0.0000
51.950,Upwind,2752.994,0.692,2752.994,0.692,730.989,730.992,177.243,54.002,359.990,12.907,-0.037,0.0001,-0.2404,0.0000,0.9387,0.5000,0.0000,0.0000
52.144,Upwind,2771.127,0.689,2771.127,0.689,741.793,741.796,177.252,54.036,359.990,12.908,-0.037,0.0000,-0.2402,0.0000,0.9386,0.5000,0.0000,0.0000
52.343,Upwind,2789.264,0.687,2789.264,0.687,752.603,752.607,177.261,54.069,359.990,12.909,-0.036,0.0001,-0.2399,0.0000,0.9384,0.5000,0.0000,0.0000
52.541,Upwind,2807.404,0.684,2807.404,0.684,763.420,763.424,177.268,54.100,359.990,12.910,-0.036,0.0000,-0.2397,0.0000,0.9383,0.5000,0.0000,0.0000
52.749,Upwind,2825.548,0.681,2825.548,0.681,774.243,774.247,177.275,54.131,359.990,12.911,-0.036,0.0001,-0.2395,0.0000,0.9383,0.5000,0.0000,0.0000
52.945,Upwind,2843.695,0.679,2843.695,0.679,785.072,785.076,177.281,54.160,359.990,12.912,-0.035,0.0001,-0.2392,0.0000,0.9382,0.5000,0.0000,0.0000
53.145,Upwind,2861.845,0.676,2861.845,0.676,795.907,795.911,177.286,54.187,359.990,12.913,-0.035,0.0000,-0.2391,0.0000,0.9381,0.5000,0.0000,0.0000
53.338,Upwind,2879.998,0.673,2879.998,0.673,806.747,806.751,177.291,54.214,359.990,12.914,-0.035,0.0001,-0.2389,0.0000,0.9380,0.5000,0.0000,0.0000
53.540,Upwind,2898.154,0.671,2898.154,0.671,817.592,817.596,177.295,54.239,359.990,12.915,-0.034,0.0000,-0.2388,0.0000,0.9380,0.5000,0.0000,0.0000
53.749,Upwind,2916.314,0.668,2916.314,0.668,828.443,828.447,177.298,54.264,359.990,12.915,-0.034,0.0001,-0.2386,0.0000,0.9379,0.5000,0.0000,0.0000
53.945,Upwind,2934.476,0.665,2934.476,0.665,839.298,839.302,177.301,54.287,359.990,12.916,-0.034,0.0000,-0.2385,0.0000,0.9379,0.5000,0.0000,0.0000
54.152,Upwind,2954.155,0.662,2954.155,0.662,850.157,850.161,177.304,54.309,359.990,12.916,-0.034,0.0000,-0.2384,0.0000,0.9378,0.5000,0.0000,0.0000
54.348,Upwind,2970.810,0.660,2970.810,0.660,861.021,861.025,177.306,54.330,359.990,12.917,-0.033,0.0000,-0.2383,0.0000,0.9378,0.5000,0.0000,0.0000
54.544,Upwind,2988.981,0.657,2988.981,0.657,871.889,871.893,177.307,54.350,359.990,12.917,-0.033,0.0001,-0.2382,0.0000,0.9378,0.5000,0.0000,0.0000
54.744,Upwind,3007.155,0.654,3007.155,0.654,882.761,882.765,177.309,54.369,359.990,12.917,-0.033,0.0000,-0.2381,0.0000,0.9378,0.5000,0.0000,0.0000
54.940,Upwind,3025.331,0.651,3025.331,0.651,893.637,893.641,177.309,54.388,359.990,12.918,-0.033,0.0000,-0.2380,0.0000,0.9378,0.5000,0.0000,0.0000
55.138,Upwind,3043.511,0.648,3043.511,0.648,904.516,904.520,177.310,54.405,359.990,12.918,-0.032,0.0001,-0.2380,0.0000,0.9378,0.5000,0.0000,0.0000
55.338,Upwind,3061.693,0.645,3061.693,0.645,914.492,914.496,177.310,54.421,359.990,12.919,-0.032,0.0001,-0.2379,0.0000,0.9378,0.5000,0.0000,0.0000
55.553,Upwind,3081.394,0.642,3081.394,0.642,927.192,927.197,177.309,54.440,359.990,12.919,-0.032,0.0001,-0.2378,0.0000,0.9378,0.5000,0.0000,0.0000
55.750,Upwind,3098.066,0.640,3098.066,0.640,937.174,937.178,177.309,54.454,359.990,12.919,-0.032,0.0000,-0.2377,0.0000,0.9378,0.5000,0.0000,0.0000
55.939,Upwind,3116.256,0.637,3116.256,0.637,948.066,948.071,177.308,54.469,359.990,12.920,-0.032,0.0000,-0.2376,0.0000,0.9378,0.5000,0.0000,0.0000
56.150,Upwind,3134.449,0.634,3134.449,0.634,958.961,958.966,177.306,54.483,359.990,12.920,-0.031,0.0001,-0.2376,0.0000,0.9378,0.5000,0.0000,0.0000
56.342,Upwind,3152.645,0.631,3152.645,0.631,969.859,969.864,177.304,54.496,359.990,12.920,-0.031,0.0000,-0.2375,0.0000,0.9378,0.5000,0.0000,0.0000
56.542,Upwind,3170.843,0.629,3170.843,0.629,980.760,980.764,177.302,54.509,359.990,12.921,-0.031,0.0000,-0.2375,0.0000,0.9378,0.5000,0.0000,0.0000
56.738,Upwind,3189.044,0.626,3189.044,0.626,991.663,991.667,177.300,54.521,359.990,12.921,-0.031,0.0000,-0.2374,0.0000,0.9379,0.5000,0.0000,0.0000
56.951,Upwind,3207.247,0.623,3207.247,0.623,1002.568,1002.573,177.298,54.533,359.990,12.921,-0.031,0.0000,-0.2374,0.0000,0.9379,0.5000,0.0000,0.0000
57.138,Upwind,3225.453,0.620,3225.453,0.620,1012.567,1012.571,177.295,54.543,359.990,12.921,-0.030,0.0001,-0.2373,0.0000,0.9380,0.5000,0.0000,0.0000
57.337,Upwind,3243.662,0.617,3243.662,0.617,1024.386,1024.390,177.292,54.555,359.990,12.921,-0.030,0.0000,-0.2373,0.0000,0.9380,0.5000,0.0000,0.0000
57.543,Upwind,3261.873,0.615,3261.873,0.615,1035.298,1035.303,177.289,54.565,359.990,12.921,-0.030,0.0000,-0.2373,0.0000,0.9380,0.5000,0.0000,0.0000
57.742,Upwind,3280.086,0.612,3280.086,0.612,1046.212,1046.217,177.285,54.575,359.990,12.922,-0.030,0.0001,-0.2373,0.0000,0.9381,0.5000,0.0000,0.0000
57.939,Upwind,3298.302,0.609,3298.302,0.609,1057.127,1057.132,177.282,54.584,359.990,12.922,-0.030,0.0000,-0.2372,0.0000,0.9381,0.5000,0.0000,0.0000
58.154,Upwind,3318.039,0.606,3318.039,0.606,1068.955,1068.960,177.278,54.594,359.990,12.922,-0.030,0.0000,-0.2372,0.0000,0.9382,0.5000,0.0000,0.0000
58.349,Upwind,3334.741,0.604,3334.741,0.604,1078.965,1078.970,177.274,54.602,359.990,12.922,-0.030,0.0000,-0.2372,0.0000,0.9382,0.5000,0.0000,0.0000
58.544,Upwind,3352.964,0.601,3352.964,0.601,1089.886,1089.891,177.270,54.610,359.990,12.922,-0.029,0.0000,-0.2372,0.0000,0.9383,0.5000,0.0000,0.0000
58.741,Upwind,3371.190,0.598,3371.190,0.598,1100.808,1100.814,177.265,54.618,359.990,12.922,-0.029,0.0001,-0.2372,0.0000,0.9384,0.5000,0.0000,0.0000
58.940,Upwind,3389.418,0.596,3389.418,0.596,1111.733,1111.738,177.261,54.625,359.990,12.922,-0.029,0.0000,-0.2371,0.0000,0.9384,0.5000,0.0000,0.0000
59.150,Upwind,3407.648,0.593,3407.648,0.593,1122.658,1122.664,177.256,54.632,359.990,12.922,-0.029,0.0000,-0.2371,0.0000,0.9385,0.5000,0.0000,0.0000
59.344,Upwind,3425.881,0.590,3425.881,0.590,1133.586,1133.591,177.252,54.639,359.990,12.922,-0.029,0.0000,-0.2371,0.0000,0.9386,0.5000,0.0000,0.0000
59.545,Upwind,3444.116,0.588,3444.116,0.588,1144.514,1144.520,177.247,54.646,359.990,12.922,-0.029,0.0000,-0.2372,0.0000,0.9386,0.5000,0.0000,0.0000
59.745,Upwind,3462.354,0.585,3462.354,0.585,1155.444,1155.449,177.242,54.652,359.990,12.922,-0.029,0.0000,-0.2372,0.0000,0.9387,0.5000,0.0000,0.0000
59.948,Upwind,3480.594,0.583,3480.594,0.583,1166.375,1166.380,177.237,54.658,359.991,12.922,-0.029,0.0000,-0.2371,0.0000,0.9388,0.5000,0.0000,0.0000
60.156,Upwind,3500.356,0.580,3500.356,0.580,1178.218,1178.224,177.231,54.664,359.991,12.922,-0.029,0.0001,-0.2372,0.0000,0.9388,0.5000,0.0000,0.0000
60.339,Upwind,3517.081,0.578,3517.081,0.578,1188.240,1188.246,177.226,54.669,359.991,12.922,-0.029,0.0000,-0.2372,0.0000,0.9389,0.5000,0.0000,0.0000
60.551,Upwind,3535.328,0.575,3535.328,0.575,1199.175,1199.180,177.221,54.675,359.991,12.922,-0.029,0.0000,-0.2372,0.0000,0.9390,0.5000,0.0000,0.0000
60.739,Upwind,3553.577,0.573,3553.577,0.573,1210.110,1210.116,177.215,54.680,359.991,12.922,-0.028,0.0000,-0.2372,0.0000,0.9391,0.5000,0.0000,0.0000
60.949,Upwind,3571.828,0.570,3571.828,0.570,1221.046,1221.052,177.210,54.685,359.991,12.922,-0.028,0.0001,-0.2372,0.0000,0.9391,0.5000,0.0000,0.0000
61.141,Upwind,3590.082,0.568,3590.082,0.568,1231.984,1231.990,177.204,54.689,359.991,12.922,-0.028,0.0000,-0.2372,0.0000,0.9392,0.5000,0.0000,0.0000
61.350,Upwind,3608.338,0.565,3608.338,0.565,1243.834,1243.840,177.198,54.694,359.991,12.922,-0.028,0.0000,-0.2372,0.0000,0.9393,0.5000,0.0000,0.0000
61.554,Upwind,3628.118,0.563,3628.118,0.563,1254.773,1254.779,177.192,54.699,359.991,12.922,-0.028,0.0000,-0.2372,0.0000,0.9394,0.5000,0.0000,0.0000
61.746,Upwind,3644.858,0.561,3644.858,0.561,1264.801,1264.807,177.186,54.702,359.991,12.922,-0.028,0.0001,-0.2372,0.0000,0.9395,0.5000,0.0000,0.0000
61.940,Upwind,3663.121,0.558,3663.121,0.558,1275.742,1275.748,177.180,54.706,359.991,12.922,-0.028,0.0000,-0.2372,0.0000,0.9396,0.5000,0.0000,0.0000
62.145,Upwind,3681.386,0.556,3681.386,0.556,1286.684,1286.690,177.174,54.710,359.991,12.922,-0.028,0.0000,-0.2373,0.0000,0.9396,0.5000,0.0000,0.0000
62.352,Upwind,3701.176,0.553,3701.176,0.553,1298.538,1298.544,177.167,54.714,359.991,12.922,-0.028,0.0000,-0.2373,0.0000,0.9397,0.5000,0.0000,0.0000
62.552,Upwind,3719.446,0.551,3719.446,0.551,1309.481,1309.487,177.161,54.718,359.992,12.921,-0.028,0.0000,-0.2373,0.0000,0.9398,0.5000,0.0000,0.0000
62.754,Upwind,3737.718,0.549,3737.718,0.549,1319.513,1319.519,177.156,54.721,359.992,12.921,-0.028,0.0000,-0.2374,0.0000,0.9399,0.5000,0.0000,0.0000
62.946,Upwind,3754.470,0.547,3754.470,0.547,1330.457,1330.464,177.149,54.724,359.992,12.921,-0.028,0.0000,-0.2374,0.0000,0.9400,0.5000,0.0000,0.0000
63.144,Upwind,3772.746,0.545,3772.746,0.545,1341.402,1341.409,177.143,54.727,359.992,12.921,-0.028,0.0000,-0.2374,0.0000,0.9401,0.5000,0.0000,0.0000
63.338,Upwind,3791.025,0.543,3791.025,0.543,1352.348,1352.355,177.136,54.730,359.992,12.921,-0.028,0.0000,-0.2374,0.0000,0.9402,0.5000,0.0000,0.0000
63.553,Upwind,3810.830,0.540,3810.830,0.540,1364.206,1364.213,177.129,54.733,359.992,12.921,-0.028,0.0000,-0.2375,0.0000,0.9403,0.5000,0.0000,0.0000
63.745,Upwind,3827.590,0.538,3827.590,0.538,1374.241,1374.248,177.123,54.735,359.992,12.921,-0.028,0.0000,-0.2375,0.0000,0.9403,0.5000,0.0000,0.0000
63.946,Upwind,3845.876,0.536,3845.876,0.536,1385.188,1385.195,177.117,54.738,359.992,12.921,-0.028,0.0000,-0.2375,0.0000,0.9404,0.5000,0.0000,0.0000
64.140,Upwind,3864.164,0.534,3864.164,0.534,1396.136,1396.143,177.110,54.741,359.992,12.921,-0.028,0.0000,-0.2375,0.0000,0.9405,0.5000,0.0000,0.0000
64.355,Upwind,3883.978,0.532,3883.978,0.532,1407.997,1408.004,177.103,54.743,359.992,12.920,-0.028,0.0000,-0.2375,0.0000,0.9406,0.5000,0.0000,0.0000
64.550,Upwind,3900.746,0.530,3900.746,0.530,1418.946,1418.952,177.096,54.746,359.992,12.920,-0.028,0.0000,-0.2376,0.0000,0.9407,0.5000,0.0000,0.0000
64.739,Upwind,3919.041,0.528,3919.041,0.528,1428.982,1428.989,177.090,54.748,359.993,12.920,-0.028,0.0000,-0.2376,0.0000,0.9408,0.5000,0.0000,0.0000
64.950,Upwind,3937.338,0.526,3937.338,0.526,1439.932,1439.939,177.084,54.750,359.993,12.920,-0.028,0.0000,-0.2376,0.0000,0.9409,0.5000,0.0000,0.0000
65.146,Upwind,3955.637,0.525,3955.637,0.525,1450.882,1450.889,177.077,54.752,359.993,12.920,-0.028,0.0000,-0.2377,0.0000,0.9410,0.5000,0.0000,0.0000
65.338,Upwind,3973.938,0.523,3973.938,0.523,1461.833,1461.840,177.070,54.754,359.993,12.920,-0.028,0.0000,-0.2377,0.0000,0.9411,0.5000,0.0000,0.0000
65.543,Upwind,3992.242,0.521,3992.242,0.521,1472.784,1472.791,177.063,54.756,359.993,12.919,-0.028,0.0000,-0.2377,0.0000,0.9412,0.5000,0.0000,0.0000
65.746,Upwind,4010.547,0.519,4010.547,0.519,1483.735,1483.742,177.056,54.758,359.993,12.919,-0.028,0.0000,-0.2378,0.0000,0.9413,0.5000,0.0000,0.0000
65.945,Upwind,4028.855,0.517,4028.855,0.517,1494.687,1494.694,177.049,54.760,359.993,12.919,-0.028,0.0001,-0.2378,0.0000,0.9414,0.5000,0.0000,0.0000
66.138,Upwind,4047.166,0.516,4047.166,0.516,1505.639,1505.646,177.042,54.762,359.993,12.919,-0.028,0.0000,-0.2379,0.0000,0.9415,0.5000,0.0000,0.0000
66.347,Upwind,4065.478,0.514,4065.478,0.514,1516.592,1516.599,177.036,54.763,359.993,12.919,-0.028,0.0000,-0.2379,0.0000,0.9416,0.5000,0.0000,0.0000
66.539,Upwind,4083.793,0.512,4083.793,0.512,1527.544,1527.552,177.029,54.765,359.993,12.919,-0.028,0.0000,-0.2379,0.0000,0.9417,0.5000,0.0000,0.0000
66.739,Upwind,4102.110,0.510,4102.110,0.510,1538.498,1538.505,177.022,54.767,359.993,12.919,-0.028,0.0000,-0.2380,0.0000,0.9418,0.5000,0.0000,0.0000
66.946,Upwind,4120.429,0.509,4120.429,0.509,1549.451,1549.459,177.015,54.768,359.994,12.918,-0.028,0.0000,-0.2380,0.0000,0.9419,0.5000,0.0000,0.0000
67.141,Upwind,4138.750,0.507,4138.750,0.507,1560.405,1560.412,177.008,54.770,359.994,12.918,-0.028,0.0000,-0.2380,0.0000,0.9420,0.5000,0.0000,0.0000
67.352,Upwind,4158.601,0.506,4158.601,0.506,1571.359,1571.367,177.001,54.771,359.994,12.918,-0.028,0.0001,-0.2381,0.0000,0.9421,0.5000,0.0000,0.0000
67.539,Upwind,4175.400,0.504,4175.400,0.504,1582.313,1582.321,176.993,54.773,359.994,12.918,-0.028,0.0000,-0.2381,0.0000,0.9422,0.5000,0.0000,0.0000
67.751,Upwind,4193.728,0.503,4193.728,0.503,1593.268,1593.276,176.986,54.774,359.994,12.918,-0.028,0.0000,-0.2381,0.0000,0.9423,0.5000,0.0000,0.0000
67.944,Upwind,4212.058,0.501,4212.058,0.501,1604.223,1604.231,176.979,54.776,359.994,12.918,-0.028,0.0000,-0.2382,0.0000,0.9424,0.5000,0.0000,0.0000
68.139,Upwind,4230.390,0.500,4230.390,0.500,1615.178,1615.186,176.972,54.777,359.994,12.917,-0.028,0.0000,-0.2382,0.0000,0.9425,0.5000,0.0000,0.0000
68.351,Upwind,4248.725,0.498,4248.725,0.498,1626.134,1626.142,176.965,54.778,359.994,12.917,-0.028,0.0000,-0.2383,0.0000,0.9426,0.5000,0.0000,0.0000
68.538,Upwind,4267.062,0.497,4267.062,0.497,1635.264,1635.271,176.959,54.779,359.994,12.917,-0.028,0.0000,-0.2383,0.0000,0.9426,0.5000,0.0000,0.0000
68.751,Upwind,4286.929,0.495,4286.929,0.495,1648.046,1648.053,176.951,54.781,359.994,12.917,-0.028,0.0000,-0.2383,0.0000,0.9428,0.5000,0.0000,0.0000
68.948,Upwind,4303.742,0.494,4303.742,0.494,1659.002,1659.010,176.944,54.782,359.994,12.917,-0.028,0.0000,-0.2384,0.0000,0.9429,0.5000,0.0000,0.0000
69.152,Upwind,4323.615,0.493,4323.615,0.493,1669.958,1669.966,176.936,54.783,359.994,12.916,-0.028,0.0000,-0.2384,0.0000,0.9430,0.5000,0.0000,0.0000
69.346,Upwind,4340.432,0.492,4340.432,0.492,1680.915,1680.923,176.929,54.784,359.995,12.916,-0.028,0.0000,-0.2385,0.0000,0.9431,0.5000,0.0000,0.0000
69.550,Upwind,4358.779,0.490,4358.779,0.490,1691.872,1691.880,176.922,54.785,359.995,12.916,-0.028,0.0000,-0.2385,0.0000,0.9432,0.5000,0.0000,0.0000
69.902,Upwind,4453.612,0.484,4453.612,0.484,1694.611,1694.619,176.920,54.786,359.995,12.916,-0.028,0.0001,-0.2385,0.0000,0.9432,0.5000,0.0000,0.0000
70.078,Upwind,4470.443,0.483,4470.443,0.483,1750.312,1750.321,176.881,54.790,359.995,12.915,-0.028,0.0000,-0.2389,0.0000,0.9437,0.5000,0.0000,0.0000
70.175,Upwind,4479.624,0.483,4479.624,0.483,1762.183,1762.192,176.872,54.790,359.995,12.914,-0.028,0.0000,-0.2390,0.0000,0.9439,0.5000,0.0000,0.0000
70.339,Upwind,4493.397,0.482,4493.397,0.482,1772.228,1772.237,176.866,54.790,359.995,12.914,-0.028,0.0000,-0.2391,0.0000,0.9440,0.5000,0.0000,0.0000
70.556,Upwind,4513.294,0.481,4513.294,0.481,1783.186,1783.195,176.859,54.790,359.995,12.913,-0.028,0.0000,-0.2391,0.0000,0.9441,0.5000,0.0000,0.0000
70.761,Upwind,4533.193,0.480,4533.193,0.480,1795.057,1795.066,176.851,54.791,359.995,12.913,-0.028,0.0000,-0.2391,0.0000,0.9442,0.5000,0.0000,0.0000
70.943,Upwind,4550.033,0.479,4550.033,0.479,1805.102,1805.111,176.844,54.791,359.996,12.914,-0.028,0.0000,-0.2390,0.0000,0.9443,0.5000,0.0000,0.0000
71.154,Upwind,4568.406,0.478,4568.406,0.478,1816.974,1816.982,176.836,54.792,359.996,12.914,-0.028,0.0000,-0.2390,0.0000,0.9444,0.5000,0.0000,0.0000
71.339,Upwind,4585.250,0.477,4585.250,0.477,1827.019,1827.028,176.830,54.793,359.996,12.914,-0.028,0.0000,-0.2390,0.0000,0.9445,0.5000,0.0000,0.0000
71.549,Upwind,4605.159,0.476,4605.159,0.476,1838.891,1838.900,176.822,54.794,359.996,12.914,-0.028,0.0000,-0.2390,0.0000,0.9446,0.5000,0.0000,0.0000
71.743,Upwind,4623.538,0.475,4623.538,0.475,1848.936,1848.945,176.815,54.795,359.996,12.914,-0.028,0.0000,-0.2390,0.0000,0.9447,0.5000,0.0000,0.0000
71.938,Upwind,4640.388,0.474,4640.388,0.474,1859.896,1859.905,176.808,54.797,359.996,12.914,-0.028,0.0000,-0.2390,0.0000,0.9448,0.5000,0.0000,0.0000
72.140,Upwind,4658.772,0.473,4658.772,0.473,1870.855,1870.864,176.801,54.798,359.996,12.913,-0.028,0.0000,-0.2391,0.0000,0.9449,0.5000,0.0000,0.0000
72.368,Upwind,4680.222,0.473,4680.222,0.473,1880.901,1880.910,176.794,54.799,359.996,12.913,-0.028,0.0000,-0.2392,0.0000,0.9450,0.5000,0.0000,0.0000
72.537,Upwind,4695.546,0.472,4695.546,0.472,1892.775,1892.784,176.786,54.800,359.996,12.913,-0.028,0.0000,-0.2393,0.0000,0.9451,0.5000,0.0000,0.0000
72.748,Upwind,4715.469,0.471,4715.469,0.471,1904.648,1904.657,176.779,54.801,359.996,12.912,-0.028,0.0000,-0.2394,0.0000,0.9452,0.5000,0.0000,0.0000
# disengaged
