time_s,leg,north_m,east_m,along_m,cross_m,agl_ft,altitude_ft,speed_kts,vertical_speed_fps,heading_deg,pitch_deg,roll_deg,aileron_cmd,elevator_cmd,rudder_cmd,throttle_cmd,flaps_cmd,gear_cmd,brake_cmd
0.102,Upwind,0.259,0.000,0.000,0.000,3.691,3.691,1.737,0.000,0.000,0.454,0.000,0.0000,0.0122,0.0000,0.0000,0.5000,1.0000,1.0000
0.227,Upwind,0.344,0.000,0.084,0.000,3.691,3.691,0.939,0.015,0.000,0.416,0.000,0.0000,0.0311,0.0000,0.0000,0.5000,1.0000,1.0000
0.446,Upwind,0.357,0.000,0.098,0.000,3.704,3.704,0.045,0.061,0.000,0.316,0.000,0.0000,0.0527,0.0000,0.0000,0.5000,1.0000,1.0000
0.633,Upwind,0.355,0.000,0.096,0.000,3.700,3.700,0.062,-0.093,0.000,0.424,0.000,0.0000,0.0688,0.0000,0.0000,0.5000,1.0000,1.0000
0.837,Upwind,0.354,0.000,0.095,0.000,3.683,3.683,0.026,-0.042,0.000,0.480,0.000,0.0000,0.0665,0.0000,0.0000,0.5000,1.0000,1.0000
1.044,Upwind,0.355,0.000,0.096,0.000,3.685,3.685,0.032,0.035,0.000,0.457,0.000,0.0000,0.0613,0.0000,0.0848,0.5000,1.0000,0.0000
1.240,Upwind,0.359,0.000,0.100,0.000,3.691,3.691,0.037,0.019,0.000,0.441,0.000,0.0000,0.0618,0.0000,0.1829,0.5000,1.0000,0.0000
1.433,Upwind,0.363,0.000,0.103,0.000,3.692,3.692,0.047,-0.004,0.000,0.445,0.000,0.0000,0.0630,0.0000,0.2795,0.5000,1.0000,0.0000
1.627,Upwind,0.369,0.000,0.109,0.000,3.691,3.691,0.068,-0.006,0.000,0.451,0.000,0.0000,0.0632,0.0000,0.3767,0.5000,1.0000,0.0000
1.822,Upwind,0.378,0.000,0.118,0.000,3.690,3.690,0.100,0.002,0.000,0.451,0.000,0.0000,0.0629,0.0000,0.4738,0.5000,1.0000,0.0000
2.023,Upwind,0.390,0.000,0.131,0.000,3.691,3.691,0.141,0.002,0.000,0.449,0.000,0.0000,0.0628,0.0000,0.5744,0.5000,1.0000,0.0000
2.234,Upwind,0.409,0.000,0.150,0.000,3.691,3.691,0.207,0.000,0.000,0.449,0.000,0.0000,0.0629,0.0000,0.6799,0.5000,1.0000,0.0000
2.421,Upwind,0.435,0.000,0.175,0.000,3.691,3.691,0.280,-0.001,0.000,0.449,0.000,0.0000,0.0629,0.0000,0.7733,0.5000,1.0000,0.0000
2.623,Upwind,0.470,0.000,0.211,0.000,3.691,3.691,0.391,0.000,0.000,0.449,0.000,0.0000,0.0629,0.0000,0.8744,0.5000,1.0000,0.0000
2.823,Upwind,0.518,0.000,0.259,0.000,3.691,3.691,0.508,0.000,0.000,0.450,0.000,0.0000,0.0629,0.0000,0.9747,0.5000,1.0000,0.0000
3.032,Upwind,0.581,0.000,0.322,0.000,3.691,3.691,0.681,0.000,0.000,0.450,0.000,0.0000,0.0630,0.0000,1.0000,0.5000,1.0000,0.0000
3.233,Upwind,0.662,0.000,0.403,0.000,3.691,3.691,0.877,0.000,0.000,0.450,0.000,0.0000,0.0630,0.0000,1.0000,0.5000,1.0000,0.0000
3.421,Upwind,0.767,0.000,0.507,0.000,3.691,3.691,1.116,0.000,0.000,0.450,0.000,0.0000,0.0630,0.0000,1.0000,0.5000,1.0000,0.0000
3.623,Upwind,0.898,0.000,0.639,0.000,3.691,3.691,1.403,0.000,0.000,0.450,0.000,0.0000,0.0631,0.0000,1.0000,0.5000,1.0000,0.0000
3.824,Upwind,1.063,0.000,0.803,0.000,3.691,3.691,1.746,0.000,0.000,0.451,0.000,0.0000,0.0631,0.0000,1.0000,0.5000,1.0000,0.0000
4.031,Upwind,1.266,0.000,1.007,0.000,3.691,3.691,2.153,0.000,0.000,0.451,0.000,0.0000,0.0632,0.0000,1.0000,0.5000,1.0000,0.0000
4.226,Upwind,1.516,0.000,1.257,0.000,3.691,3.691,2.632,0.000,0.000,0.451,0.000,0.0000,0.0632,0.0000,1.0000,0.5000,1.0000,0.0000
4.423,Upwind,1.820,0.000,1.560,0.000,3.691,3.691,3.191,0.000,0.000,0.452,0.000,0.0000,0.0633,0.0000,1.0000,0.5000,1.0000,0.0000
4.631,Upwind,2.186,0.000,1.927,0.000,3.691,3.691,3.837,0.000,0.000,0.452,0.000,0.0000,0.0633,0.0000,1.0000,0.5000,1.0000,0.0000
4.835,Upwind,2.665,0.000,2.405,0.000,3.691,3.691,4.580,0.000,0.000,0.453,0.000,0.0000,0.0634,0.0000,1.0000,0.5000,1.0000,0.0000
5.039,Upwind,3.193,0.000,2.934,0.000,3.691,3.691,5.425,0.000,0.000,0.453,0.000,0.0000,0.0635,0.0000,1.0000,0.5000,1.0000,0.0000
5.230,Upwind,3.760,0.000,3.501,0.000,3.691,3.691,6.381,0.000,0.000,0.454,0.000,0.0000,0.0635,0.0000,1.0000,0.5000,1.0000,0.0000
5.426,Upwind,4.480,0.000,4.221,0.000,3.691,3.691,7.453,0.000,0.000,0.454,0.000,0.0000,0.0636,0.0000,1.0000,0.5000,1.0000,0.0000
5.626,Upwind,5.318,0.000,5.058,0.000,3.691,3.691,8.648,0.001,0.000,0.455,0.000,0.0000,0.0637,0.0000,1.0000,0.5000,1.0000,0.0000
5.834,Upwind,6.371,0.000,6.112,0.000,3.691,3.691,9.931,0.001,0.000,0.455,0.000,0.0000,0.0637,0.0000,1.0000,0.5000,1.0000,0.0000
6.025,Upwind,7.383,0.000,7.124,0.000,3.691,3.691,11.216,0.001,0.000,0.455,0.000,0.0000,0.0636,0.0000,1.0000,0.5000,1.0000,0.0000
6.237,Upwind,8.723,0.000,8.464,0.000,3.692,3.692,12.499,0.001,0.000,0.454,0.000,0.0000,0.0636,0.0000,1.0000,0.5000,1.0000,0.0000
6.435,Upwind,10.097,0.000,9.838,0.000,3.692,3.692,13.782,0.001,0.000,0.454,0.000,0.0000,0.0635,0.0000,1.0000,0.5000,1.0000,0.0000
6.634,Upwind,11.473,0.000,11.213,0.000,3.692,3.692,15.064,0.001,0.000,0.454,0.000,0.0000,0.0635,0.0000,1.0000,0.5000,1.0000,0.0000
6.829,Upwind,13.099,0.000,12.840,0.000,3.692,3.692,16.238,0.001,0.000,0.453,0.000,0.0000,0.0634,0.0000,1.0000,0.5000,1.0000,0.0000
7.026,Upwind,14.858,0.000,14.599,0.000,3.693,3.693,17.624,0.002,0.000,0.453,0.000,0.0000,0.0634,0.0000,1.0000,0.5000,1.0000,0.0000
7.239,Upwind,16.911,0.000,16.652,0.000,3.693,3.693,19.009,0.002,0.000,0.453,0.000,0.0000,0.0633,0.0000,1.0000,0.5000,1.0000,0.0000
7.432,Upwind,18.944,0.000,18.685,0.000,3.693,3.693,20.179,0.002,0.000,0.452,0.000,0.0000,0.0632,0.0000,1.0000,0.5000,1.0000,0.0000
7.623,Upwind,20.922,0.000,20.663,0.000,3.694,3.694,21.455,0.002,0.000,0.452,0.000,0.0000,0.0632,0.0000,1.0000,0.5000,1.0000,0.0000
7.822,Upwind,23.207,0.000,22.947,0.000,3.694,3.694,22.730,0.002,0.000,0.451,0.000,0.0000,0.0631,0.0000,1.0000,0.5000,1.0000,0.0000
8.025,Upwind,25.622,0.000,25.363,0.000,3.694,3.694,24.004,0.002,0.000,0.450,0.000,0.0000,0.0630,0.0000,1.0000,0.5000,1.0000,0.0000
8.230,Upwind,28.168,0.000,27.909,0.000,3.695,3.695,25.276,0.003,0.000,0.450,0.000,0.0000,0.0629,0.0000,1.0000,0.5000,1.0000,0.0000
8.442,Upwind,31.074,0.000,30.815,0.000,3.695,3.695,26.547,0.003,0.000,0.449,0.000,0.0000,0.0628,0.0000,1.0000,0.5000,1.0000,0.0000
8.637,Upwind,33.893,0.000,33.633,0.000,3.696,3.696,27.923,0.003,0.000,0.448,0.000,0.0000,0.0627,0.0000,1.0000,0.5000,1.0000,0.0000
8.829,Upwind,36.591,0.000,36.332,0.000,3.697,3.697,29.191,0.003,0.000,0.448,0.000,0.0000,0.0626,0.0000,1.0000,0.5000,1.0000,0.0000
9.030,Upwind,39.660,0.000,39.401,0.000,3.697,3.697,30.458,0.003,0.000,0.447,0.000,0.0000,0.0625,0.0000,1.0000,0.5000,1.0000,0.0000
9.225,Upwind,42.859,0.000,42.600,0.000,3.698,3.698,31.618,0.003,0.000,0.446,0.000,0.0000,0.0624,0.0000,1.0000,0.5000,1.0000,0.0000
9.431,Upwind,46.188,0.001,45.929,0.001,3.699,3.699,32.988,0.004,0.000,0.445,0.000,0.0000,0.0622,0.0000,1.0000,0.5000,1.0000,0.0000
9.622,Upwind,49.647,0.001,49.388,0.001,3.699,3.699,34.146,0.004,0.000,0.444,0.000,0.0000,0.0621,0.0000,1.0000,0.5000,1.0000,0.0000
9.828,Upwind,53.236,0.001,52.977,0.001,3.700,3.700,35.407,0.004,0.000,0.443,0.000,0.0000,0.0619,0.0000,1.0000,0.5000,1.0000,0.0000
10.029,Upwind,56.955,0.001,56.696,0.001,3.701,3.701,36.667,0.004,0.000,0.442,0.000,0.0000,0.0617,0.0000,1.0000,0.5000,1.0000,0.0000
10.226,Upwind,60.804,0.001,60.544,0.001,3.702,3.702,37.925,0.005,0.000,0.441,0.000,0.0000,0.0616,0.0000,1.0000,0.5000,1.0000,0.0000
10.432,Upwind,64.781,0.001,64.522,0.001,3.703,3.703,39.286,0.005,0.000,0.439,0.000,0.0000,0.0614,0.0000,1.0000,0.5000,1.0000,0.0000
10.632,Upwind,68.888,0.001,68.629,0.001,3.704,3.704,40.541,0.005,0.000,0.438,0.000,0.0000,0.0612,0.0000,1.0000,0.5000,1.0000,0.0000
10.829,Upwind,73.124,0.001,72.865,0.001,3.705,3.705,41.690,0.005,0.000,0.437,0.000,0.0000,0.0610,0.0000,1.0000,0.5000,1.0000,0.0000
11.034,Upwind,77.489,0.001,77.230,0.001,3.706,3.706,43.046,0.006,0.000,0.435,0.000,0.0000,0.0608,0.0000,1.0000,0.5000,1.0000,0.0000
11.224,Upwind,81.982,0.001,81.723,0.001,3.707,3.707,44.192,0.006,0.000,0.434,0.000,0.0000,0.0606,0.0000,1.0000,0.5000,1.0000,0.0000
11.430,Upwind,86.604,0.002,86.345,0.002,3.708,3.708,45.544,0.006,0.000,0.432,0.000,-0.0001,0.0603,0.0000,1.0000,0.5000,1.0000,0.0000
11.626,Upwind,91.355,0.002,91.095,0.002,3.709,3.709,46.687,0.006,0.000,0.431,0.000,-0.0001,0.0601,0.0000,1.0000,0.5000,1.0000,0.0000
11.834,Upwind,96.645,0.002,96.386,0.002,3.711,3.711,47.931,0.007,0.000,0.429,0.000,-0.0001,0.0599,0.0000,1.0000,0.5000,1.0000,0.0000
12.030,Upwind,101.240,0.002,100.980,0.002,3.712,3.712,49.174,0.007,0.000,0.427,0.000,-0.0001,0.0596,0.0000,1.0000,0.5000,1.0000,0.0000
12.224,Upwind,106.374,0.002,106.114,0.002,3.714,3.714,50.415,0.007,0.001,0.425,0.000,-0.0001,0.0594,0.0000,1.0000,0.5000,1.0000,0.0000
12.425,Upwind,111.635,0.002,111.376,0.002,3.715,3.715,51.653,0.008,0.001,0.423,0.000,-0.0001,0.0591,0.0000,1.0000,0.5000,1.0000,0.0000
12.632,Upwind,117.024,0.003,116.765,0.003,3.717,3.717,52.993,0.009,0.001,0.421,0.000,-0.0001,0.0587,0.0000,1.0000,0.5000,1.0000,0.0000
12.825,Upwind,122.541,0.003,122.281,0.003,3.719,3.719,54.124,0.009,0.001,0.419,0.000,-0.0001,0.0584,0.0000,1.0000,0.5000,1.0000,0.0000
13.024,Upwind,128.184,0.003,127.924,0.003,3.720,3.720,55.357,0.010,0.001,0.416,0.000,-0.0001,0.0581,0.0000,1.0000,0.5000,1.0000,0.0000
13.222,Upwind,133.953,0.003,133.694,0.003,3.722,3.722,56.586,0.010,0.001,0.414,0.000,-0.0001,0.0577,0.0000,1.0000,0.5000,1.0000,0.0000
13.427,Upwind,139.849,0.003,139.590,0.003,3.724,3.724,57.814,0.010,0.001,0.411,0.000,-0.0001,0.0573,0.0000,1.0000,0.5000,1.0000,0.0000
13.622,Upwind,145.872,0.004,145.612,0.004,3.726,3.726,59.039,0.011,0.001,0.409,0.000,-0.0001,0.0570,0.0000,1.0000,0.5000,1.0000,0.0000
13.825,Upwind,152.020,0.004,151.760,0.004,3.729,3.729,60.262,0.011,0.001,0.406,0.000,-0.0001,0.0566,0.0000,1.0000,0.5000,1.0000,0.0000
14.029,Upwind,158.294,0.004,158.034,0.004,3.731,3.731,61.482,0.012,0.001,0.403,0.000,-0.0001,0.0561,0.0000,1.0000,0.5000,1.0000,0.0000
14.231,Upwind,164.693,0.005,164.433,0.005,3.733,3.733,62.801,0.011,0.001,0.400,0.000,-0.0002,0.0557,0.0000,1.0000,0.5000,1.0000,0.0000
14.426,Upwind,171.217,0.005,170.958,0.005,3.735,3.735,63.915,0.009,0.001,0.397,0.000,-0.0002,0.0554,0.0000,1.0000,0.5000,1.0000,0.0000
14.622,Upwind,177.866,0.005,177.607,0.005,3.737,3.737,65.128,0.009,0.001,0.395,0.000,-0.0002,0.0551,0.0000,1.0000,0.5000,1.0000,0.0000
14.832,Upwind,184.640,0.006,184.381,0.006,3.739,3.739,66.339,0.009,0.002,0.393,0.000,-0.0002,0.0548,0.0000,1.0000,0.5000,1.0000,0.0000
15.030,Upwind,191.539,0.006,191.280,0.006,3.740,3.740,67.548,0.009,0.002,0.391,0.000,-0.0002,0.0545,0.0000,1.0000,0.5000,1.0000,0.0000
15.229,Upwind,198.562,0.007,198.302,0.007,3.742,3.742,68.755,0.009,0.002,0.388,0.000,-0.0002,0.0541,0.0000,1.0000,0.5000,1.0000,0.0000
15.423,Upwind,205.708,0.007,205.449,0.007,3.744,3.744,69.959,0.009,0.002,0.386,0.000,-0.0002,0.0538,0.0000,1.0000,0.5000,1.0000,0.0000
15.622,Upwind,212.979,0.008,212.719,0.008,3.746,3.746,71.161,0.009,0.002,0.384,0.000,-0.0002,0.0535,0.0000,1.0000,0.5000,1.0000,0.0000
15.825,Upwind,220.373,0.008,220.114,0.008,3.748,3.748,72.361,0.010,0.002,0.381,0.000,-0.0003,0.0531,0.0000,1.0000,0.5000,1.0000,0.0000
16.021,Upwind,227.890,0.009,227.631,0.009,3.750,3.750,73.559,0.010,0.002,0.379,0.000,-0.0003,0.0528,0.0000,1.0000,0.5000,1.0000,0.0000
16.223,Upwind,235.531,0.009,235.271,0.009,3.752,3.752,74.754,0.010,0.002,0.376,0.000,-0.0003,0.0524,0.0000,1.0000,0.5000,1.0000,0.0000
16.426,Upwind,243.294,0.010,243.035,0.010,3.754,3.754,75.947,0.010,0.003,0.374,0.000,-0.0003,0.0521,0.0000,1.0000,0.5000,1.0000,0.0000
16.621,Upwind,251.180,0.011,250.921,0.011,3.756,3.756,77.137,0.010,0.003,0.371,0.000,-0.0003,0.0517,0.0000,1.0000,0.5000,1.0000,0.0000
16.829,Upwind,259.188,0.011,258.929,0.011,3.758,3.758,78.325,0.010,0.003,0.369,0.000,-0.0004,0.0513,0.0000,1.0000,0.5000,1.0000,0.0000
17.029,Upwind,267.319,0.012,267.059,0.012,3.760,3.760,79.511,0.010,0.003,0.366,0.000,-0.0004,0.0510,0.0000,1.0000,0.5000,1.0000,0.0000
17.229,Upwind,275.571,0.013,275.311,0.013,3.762,3.762,80.694,0.011,0.003,0.363,0.000,-0.0004,0.0506,0.0000,1.0000,0.5000,1.0000,0.0000
17.428,Upwind,283.944,0.014,283.685,0.014,3.764,3.764,81.874,0.011,0.003,0.361,0.000,-0.0004,0.0502,0.0000,1.0000,0.5000,1.0000,0.0000
17.622,Upwind,292.440,0.015,292.180,0.015,3.766,3.766,83.053,0.011,0.004,0.358,0.000,-0.0004,0.0498,0.0000,1.0000,0.5000,1.0000,0.0000
17.821,Upwind,301.056,0.015,300.796,0.015,3.768,3.768,84.228,0.011,0.004,0.355,0.000,-0.0005,0.0494,0.0000,1.0000,0.5000,1.0000,0.0000
18.021,Upwind,309.793,0.016,309.533,0.016,3.770,3.770,85.402,0.011,0.004,0.352,0.000,-0.0005,0.0490,0.0000,1.0000,0.5000,1.0000,0.0000
18.222,Upwind,318.650,0.017,318.391,0.017,3.772,3.772,86.572,0.011,0.004,0.350,0.000,-0.0005,0.0487,0.0000,1.0000,0.5000,1.0000,0.0000
18.421,Upwind,327.628,0.018,327.369,0.018,3.775,3.775,87.740,0.011,0.005,0.347,0.000,-0.0005,0.0483,0.0000,1.0000,0.5000,1.0000,0.0000
18.632,Upwind,336.726,0.020,336.467,0.020,3.777,3.777,88.906,0.011,0.005,0.344,0.000,-0.0006,0.0478,0.0000,1.0000,0.5000,1.0000,0.0000
18.828,Upwind,345.944,0.021,345.684,0.021,3.779,3.779,90.069,0.011,0.005,0.341,0.000,-0.0006,0.0474,0.0000,1.0000,0.5000,1.0000,0.0000
19.025,Upwind,355.281,0.022,355.022,0.022,3.781,3.781,91.229,0.012,0.005,0.338,0.000,-0.0006,0.0470,0.0000,1.0000,0.5000,1.0000,0.0000
19.228,Upwind,364.737,0.023,364.478,0.023,3.784,3.784,92.387,0.012,0.006,0.335,0.000,-0.0007,0.0466,0.0000,1.0000,0.5000,1.0000,0.0000
19.430,Upwind,374.313,0.025,374.054,0.025,3.786,3.786,93.638,0.012,0.006,0.332,0.000,-0.0007,0.0462,0.0000,1.0000,0.5000,1.0000,0.0000
19.622,Upwind,384.007,0.026,383.748,0.026,3.788,3.788,94.695,0.012,0.006,0.329,0.000,-0.0007,0.0458,0.0000,1.0000,0.5000,1.0000,0.0000
19.820,Upwind,393.819,0.028,393.560,0.028,3.791,3.791,95.749,0.012,0.006,0.326,0.000,-0.0008,0.0454,0.0000,1.0000,0.5000,1.0000,0.0000
20.024,Upwind,403.750,0.029,403.491,0.029,3.793,3.793,96.991,0.012,0.007,0.323,0.000,-0.0008,0.0449,0.0000,1.0000,0.5000,1.0000,0.0000
20.223,Upwind,413.799,0.031,413.539,0.031,3.796,3.796,98.136,0.012,0.007,0.320,0.000,-0.0008,0.0445,0.0000,1.0000,0.5000,1.0000,0.0000
20.420,Upwind,423.965,0.033,423.705,0.033,3.798,3.798,99.277,0.012,0.007,0.317,0.000,-0.0009,0.0440,0.0000,1.0000,0.5000,1.0000,0.0000
20.631,Upwind,434.248,0.034,433.989,0.034,3.801,3.801,100.416,0.012,0.008,0.314,0.000,-0.0009,0.0436,0.0000,1.0000,0.5000,1.0000,0.0000
20.832,Upwind,444.649,0.036,444.389,0.036,3.803,3.803,101.458,0.013,0.008,0.311,0.000,-0.0010,0.0432,0.0000,1.0000,0.5000,1.0000,0.0000
21.026,Upwind,455.166,0.038,454.906,0.038,3.805,3.806,102.686,0.013,0.008,0.307,0.000,-0.0010,0.0427,0.0000,1.0000,0.5000,1.0000,0.0000
21.227,Upwind,465.799,0.040,465.540,0.040,3.808,3.808,103.816,0.013,0.009,0.304,0.000,-0.0011,0.0423,0.0000,1.0000,0.5000,1.0000,0.0000
21.425,Upwind,476.549,0.042,476.290,0.042,3.811,3.811,104.944,0.013,0.009,0.301,0.000,-0.0011,0.0418,0.0000,1.0000,0.5000,1.0000,0.0000
21.633,Upwind,487.415,0.045,487.155,0.045,3.813,3.813,106.069,0.013,0.009,0.298,0.000,-0.0011,0.0414,0.0000,1.0000,0.5000,1.0000,0.0000
21.834,Upwind,498.396,0.047,498.137,0.047,3.816,3.816,107.191,0.013,0.010,0.294,0.000,-0.0012,0.0409,0.0000,1.0000,0.5000,1.0000,0.0000
22.026,Upwind,509.493,0.049,509.233,0.049,3.818,3.818,108.311,0.013,0.010,0.291,0.000,-0.0012,0.0404,0.0000,1.0000,0.5000,1.0000,0.0000
22.222,Upwind,520.704,0.052,520.445,0.052,3.821,3.821,109.427,0.013,0.011,0.288,0.000,-0.0013,0.0400,0.0000,1.0000,0.5000,1.0000,0.0000
22.428,Upwind,532.030,0.055,531.771,0.055,3.824,3.824,110.541,0.013,0.011,0.285,0.000,-0.0013,0.0395,0.0000,1.0000,0.5000,1.0000,0.0000
22.627,Upwind,543.471,0.057,543.212,0.057,3.826,3.826,111.651,0.013,0.011,0.281,0.000,-0.0014,0.0390,0.0000,1.0000,0.5000,1.0000,0.0000
22.834,Upwind,555.026,0.060,554.766,0.060,3.829,3.829,112.759,0.013,0.012,0.278,-0.001,-0.0014,0.0386,0.0000,1.0000,0.5000,1.0000,0.0000
23.031,Upwind,566.694,0.063,566.435,0.063,3.832,3.832,113.864,0.014,0.012,0.274,-0.001,-0.0015,0.0381,0.0000,1.0000,0.5000,1.0000,0.0000
23.237,Upwind,579.463,0.067,579.204,0.067,3.834,3.834,115.058,0.014,0.013,0.271,-0.001,-0.0016,0.0376,0.0000,1.0000,0.5000,1.0000,0.0000
23.432,Upwind,590.372,0.069,590.112,0.069,3.837,3.837,116.065,0.014,0.013,0.268,-0.001,-0.0016,0.0371,0.0000,1.0000,0.5000,1.0000,0.0000
23.636,Upwind,603.386,0.073,603.126,0.073,3.840,3.840,117.161,0.014,0.014,0.264,-0.001,-0.0017,0.0366,0.0000,1.0000,0.5000,1.0000,0.0000
23.836,Upwind,615.516,0.077,615.256,0.077,3.843,3.843,118.345,0.014,0.014,0.260,-0.001,-0.0017,0.0361,0.0000,1.0000,0.5000,1.0000,0.0000
24.024,Upwind,626.734,0.080,626.474,0.080,3.845,3.845,119.344,0.014,0.014,0.257,-0.001,-0.0018,0.0357,0.0000,1.0000,0.5000,1.0000,0.0000
24.226,Upwind,639.079,0.084,638.820,0.084,3.848,3.848,120.432,0.014,0.015,0.254,-0.001,-0.0019,0.0352,0.0000,1.0000,0.5000,1.0000,0.0000
24.421,Upwind,651.536,0.087,651.276,0.087,3.851,3.851,121.516,0.014,0.015,0.250,-0.001,-0.0019,0.0347,0.0000,1.0000,0.5000,1.0000,0.0000
24.630,Upwind,664.104,0.091,663.844,0.091,3.854,3.854,122.597,0.014,0.016,0.247,-0.001,-0.0020,0.0342,0.0000,1.0000,0.5000,1.0000,0.0000
24.821,Upwind,676.783,0.096,676.524,0.096,3.856,3.856,123.675,0.014,0.016,0.243,-0.001,-0.0020,0.0337,0.0000,1.0000,0.5000,1.0000,0.0000
25.028,Upwind,689.573,0.100,689.314,0.100,3.859,3.859,124.750,0.014,0.017,0.240,-0.001,-0.0021,0.0332,0.0000,1.0000,0.5000,1.0000,0.0000
25.225,Upwind,702.473,0.104,702.214,0.104,3.862,3.862,125.822,0.014,0.017,0.236,-0.001,-0.0022,0.0327,0.0000,1.0000,0.5000,1.0000,0.0000
25.424,Upwind,715.484,0.109,715.224,0.109,3.865,3.865,126.891,0.014,0.018,0.233,-0.001,-0.0023,0.0322,0.0000,1.0000,0.5000,1.0000,0.0000
25.633,Upwind,728.604,0.114,728.345,0.114,3.868,3.868,127.957,0.015,0.018,0.229,-0.001,-0.0023,0.0317,0.0000,1.0000,0.5000,1.0000,0.0000
25.832,Upwind,741.834,0.119,741.575,0.119,3.871,3.871,129.020,0.015,0.019,0.225,-0.001,-0.0024,0.0312,0.0000,1.0000,0.5000,1.0000,0.0000
26.035,Upwind,756.289,0.124,756.030,0.124,3.874,3.874,130.168,0.015,0.019,0.221,-0.002,-0.0025,0.0306,0.0000,1.0000,0.5000,1.0000,0.0000
26.234,Upwind,768.621,0.129,768.361,0.129,3.877,3.877,131.136,0.015,0.020,0.218,-0.002,-0.0025,0.0302,0.0000,1.0000,0.5000,1.0000,0.0000
26.439,Upwind,783.312,0.135,783.052,0.135,3.879,3.880,132.190,0.015,0.021,0.215,-0.002,-0.0026,0.0297,0.0000,1.0000,0.5000,1.0000,0.0000
26.632,Upwind,795.842,0.140,795.583,0.140,3.882,3.882,133.241,0.015,0.021,0.211,-0.002,-0.0027,0.0292,0.0000,1.0000,0.5000,1.0000,0.0000
26.823,Upwind,809.614,0.146,809.355,0.146,3.885,3.885,134.289,0.015,0.022,0.207,-0.002,-0.0028,0.0286,0.0000,1.0000,0.5000,1.0000,0.0000
27.030,Upwind,823.495,0.152,823.235,0.152,3.888,3.888,135.334,0.015,0.022,0.204,-0.002,-0.0029,0.0281,0.0000,1.0000,0.5000,1.0000,0.0000
27.236,Upwind,838.653,0.158,838.393,0.158,3.892,3.892,136.464,0.015,0.023,0.200,-0.002,-0.0029,0.0276,0.0000,1.0000,0.5000,1.0000,0.0000
27.429,Upwind,851.577,0.164,851.318,0.164,3.894,3.894,137.417,0.015,0.023,0.196,-0.002,-0.0030,0.0271,0.0000,1.0000,0.5000,1.0000,0.0000
27.629,Upwind,865.779,0.171,865.520,0.171,3.897,3.897,138.455,0.015,0.024,0.192,-0.002,-0.0031,0.0266,0.0000,1.0000,0.5000,1.0000,0.0000
27.820,Upwind,880.087,0.177,879.828,0.177,3.900,3.900,139.489,0.015,0.024,0.189,-0.002,-0.0032,0.0260,0.0000,1.0000,0.5000,1.0000,0.0000
28.022,Upwind,894.502,0.184,894.242,0.184,3.903,3.903,140.522,0.015,0.025,0.185,-0.003,-0.0033,0.0255,0.0000,1.0000,0.5000,1.0000,0.0000
28.222,Upwind,909.022,0.191,908.763,0.191,3.906,3.906,141.551,0.015,0.026,0.181,-0.003,-0.0034,0.0250,0.0000,1.0000,0.5000,1.0000,0.0000
28.431,Upwind,923.649,0.198,923.389,0.198,3.909,3.909,142.578,0.015,0.026,0.177,-0.003,-0.0034,0.0245,0.0000,1.0000,0.5000,1.0000,0.0000
28.623,Upwind,938.381,0.206,938.121,0.206,3.913,3.913,143.602,0.015,0.027,0.174,-0.003,-0.0035,0.0239,0.0000,1.0000,0.5000,1.0000,0.0000
28.831,Upwind,953.218,0.214,952.958,0.214,3.916,3.916,144.623,0.015,0.027,0.170,-0.003,-0.0036,0.0234,0.0000,1.0000,0.5000,1.0000,0.0000
29.025,Upwind,968.160,0.222,967.900,0.221,3.919,3.919,145.642,0.016,0.028,0.166,-0.003,-0.0037,0.0229,0.0000,1.0000,0.5000,1.0000,0.0000
29.223,Upwind,983.206,0.230,982.947,0.230,3.922,3.922,146.658,0.016,0.028,0.162,-0.003,-0.0038,0.0223,0.0000,1.0000,0.5000,1.0000,0.0000
29.427,Upwind,998.357,0.238,998.098,0.238,3.925,3.925,147.671,0.016,0.029,0.159,-0.003,-0.0039,0.0218,0.0000,1.0000,0.5000,1.0000,0.0000
29.626,Upwind,1013.612,0.246,1013.353,0.246,3.928,3.928,148.681,0.016,0.030,0.155,-0.004,-0.0040,0.0213,0.0000,1.0000,0.5000,1.0000,0.0000
29.822,Upwind,1028.971,0.255,1028.712,0.255,3.931,3.931,149.689,0.016,0.030,0.151,-0.004,-0.0041,0.0207,0.0000,1.0000,0.5000,1.0000,0.0000
30.024,Upwind,1044.434,0.264,1044.175,0.264,3.934,3.934,150.694,0.012,0.031,0.148,-0.004,-0.0042,-0.0487,0.0000,1.0000,0.5000,1.0000,0.0000
30.236,Upwind,1061.301,0.274,1061.042,0.274,3.935,3.935,151.693,-0.001,0.032,0.158,-0.004,-0.0043,-0.1443,0.0000,1.0000,0.5000,1.0000,0.0000
30.434,Upwind,1075.667,0.283,1075.408,0.283,3.934,3.934,152.766,-0.009,0.032,0.179,-0.004,-0.0044,-0.2336,0.0000,1.0000,0.5000,1.0000,0.0000
30.626,Upwind,1091.436,0.292,1091.177,0.292,3.933,3.933,153.667,-0.005,0.033,0.195,-0.004,-0.0045,-0.3198,0.0000,1.0000,0.5000,1.0000,0.0000
30.821,Upwind,1107.306,0.302,1107.047,0.302,3.932,3.932,154.641,-0.002,0.033,0.211,-0.005,-0.0046,-0.4076,0.0000,1.0000,0.5000,1.0000,0.0000
31.023,Upwind,1123.276,0.312,1123.017,0.312,3.933,3.933,155.607,0.014,0.034,0.235,-0.005,-0.0047,-0.4986,0.0000,1.0000,0.5000,1.0000,0.0000
31.231,Upwind,1139.345,0.323,1139.086,0.323,3.938,3.938,156.564,0.043,0.035,0.310,-0.005,-0.0048,-0.5920,0.0000,1.0000,0.5000,1.0000,0.0000
31.420,Upwind,1155.511,0.333,1155.252,0.333,3.951,3.951,157.511,0.090,0.036,0.481,-0.005,-0.0050,-0.6500,0.0000,1.0000,0.5000,1.0000,0.0000
31.627,Upwind,1171.774,0.344,1171.515,0.344,3.976,3.976,158.450,0.155,0.036,0.779,-0.005,-0.0051,-0.6500,0.0000,1.0000,0.5000,1.0000,0.0000
31.826,Upwind,1188.134,0.355,1187.875,0.355,4.013,4.013,159.382,0.215,0.037,1.198,-0.005,-0.0052,-0.6500,0.0000,1.0000,0.5000,1.0000,0.0000
32.032,Upwind,1204.589,0.367,1204.330,0.367,4.061,4.061,160.306,0.265,0.038,1.729,-0.005,-0.0053,-0.6500,0.0000,1.0000,0.5000,1.0000,0.0000
32.232,Upwind,1221.138,0.378,1220.879,0.378,4.124,4.124,161.295,0.314,0.039,2.420,-0.006,-0.0054,-0.6500,0.0000,1.0000,0.5000,1.0000,0.0000
32.430,Upwind,1237.781,0.390,1237.522,0.390,4.185,4.185,162.122,0.351,0.040,3.089,-0.006,-0.0056,-0.6500,0.0000,1.0000,0.5000,1.0000,0.0000
32.628,Upwind,1254.516,0.402,1254.257,0.402,4.259,4.259,163.009,0.413,0.040,3.898,-0.006,-0.0055,-0.6500,0.0000,1.0000,0.5000,1.0000,0.0000
32.833,Upwind,1271.341,0.415,1271.082,0.415,4.395,4.395,163.944,0.946,0.041,4.842,-0.012,-0.0051,-0.6500,0.0000,1.0000,0.5000,1.0000,0.0000
33.031,Upwind,1288.253,0.428,1287.994,0.428,4.646,4.646,164.705,1.853,0.042,5.662,-0.021,-0.0046,-0.6500,0.0000,1.0000,0.5000,1.0000,0.0000
33.223,Upwind,1305.247,0.440,1304.988,0.440,5.151,5.151,165.497,3.265,0.042,6.547,-0.034,-0.0041,-0.6500,0.0000,1.0000,0.5000,1.0000,0.0000
33.421,Upwind,1322.320,0.453,1322.061,0.453,5.976,5.976,166.247,5.045,0.042,7.401,-0.049,-0.0035,-0.6500,0.0000,1.0000,0.5000,1.0000,0.0000
33.622,Upwind,1339.464,0.466,1339.205,0.466,7.188,7.188,166.949,7.110,0.042,8.209,-0.065,-0.0029,-0.6500,0.0000,1.0000,0.5000,1.0000,0.0000
33.826,Upwind,1356.675,0.479,1356.416,0.479,8.833,8.833,167.601,9.372,0.041,8.963,-0.080,-0.0023,-0.6500,0.0000,1.0000,0.5000,1.0000,0.0000
34.032,Upwind,1373.946,0.491,1373.687,0.491,11.142,11.142,168.249,11.963,0.039,9.716,-0.095,-0.0017,-0.6500,0.0000,1.0000,0.5000,1.0000,0.0000
34.232,Upwind,1391.270,0.503,1391.011,0.503,13.544,13.544,168.751,14.248,0.038,10.305,-0.106,-0.0013,-0.6500,0.0000,1.0000,0.5000,1.0000,0.0000
34.424,Upwind,1408.640,0.514,1408.381,0.514,16.647,16.647,169.250,16.789,0.035,10.901,-0.116,-0.0008,-0.6434,0.0000,1.0000,0.5000,1.0000,0.0000
34.621,Upwind,1426.050,0.525,1425.791,0.525,20.261,20.261,169.703,19.352,0.032,11.451,-0.124,-0.0003,-0.6138,0.0001,1.0000,0.5000,1.0000,0.0000
34.825,Upwind,1443.495,0.534,1443.236,0.534,24.386,24.386,170.112,21.896,0.028,11.949,-0.130,0.0001,-0.5832,0.0001,1.0000,0.5000,1.0000,0.0000
35.027,Upwind,1460.969,0.543,1460.710,0.543,29.017,29.017,170.480,24.398,0.024,12.388,-0.134,0.0005,-0.5529,0.0001,1.0000,0.5000,1.0000,0.0000
35.231,Upwind,1478.467,0.551,1478.208,0.551,34.141,34.141,170.811,26.827,0.019,12.762,-0.135,0.0008,-0.5224,0.0001,1.0000,0.5000,1.0000,0.0000
35.430,Upwind,1495.985,0.559,1495.726,0.558,39.742,39.742,171.110,29.174,0.014,13.070,-0.135,0.0011,-0.4925,0.0001,1.0000,0.5000,1.0000,0.0000
35.623,Upwind,1513.519,0.565,1513.260,0.565,45.803,45.803,171.380,31.418,0.010,13.311,-0.133,0.0014,-0.4635,0.0001,1.0000,0.5000,1.0000,0.0000
35.831,Upwind,1531.067,0.570,1530.808,0.570,52.862,52.862,171.644,33.713,0.005,13.499,-0.129,0.0016,-0.4323,0.0001,1.0000,0.5000,1.0000,0.0000
36.026,Upwind,1548.625,0.575,1548.366,0.575,59.210,59.211,171.848,35.525,0.001,13.601,-0.125,0.0018,-0.4031,0.0001,1.0000,0.5000,1.0000,0.0000
36.228,Upwind,1566.194,0.579,1565.935,0.579,66.501,66.501,172.055,37.354,359.997,13.656,-0.119,0.0018,-0.3728,0.0001,1.0000,0.5000,1.0000,0.0000
36.422,Upwind,1583.771,0.582,1583.512,0.582,74.141,74.142,172.249,39.024,359.994,13.655,-0.113,0.0019,-0.3437,0.0001,1.0000,0.5000,1.0000,0.0000
36.629,Upwind,1601.357,0.584,1601.098,0.584,82.099,82.099,172.435,40.520,359.992,13.602,-0.106,0.0018,-0.3127,0.0000,1.0000,0.5000,1.0000,0.0000
36.838,Upwind,1620.419,0.586,1620.160,0.586,91.036,91.036,172.632,41.940,359.990,13.490,-0.098,0.0017,-0.2813,0.0000,1.0000,0.5000,1.0000,0.0000
37.022,Upwind,1636.558,0.586,1636.299,0.586,98.822,98.822,172.796,42.972,359.989,13.353,-0.092,0.0016,-0.2538,0.0000,1.0000,0.5000,1.0000,0.0000
37.229,Upwind,1654.175,0.587,1653.916,0.587,107.514,107.514,172.975,43.921,359.988,13.161,-0.085,0.0014,-0.2227,0.0000,0.9986,0.5000,1.0000,0.0000
37.420,Upwind,1671.805,0.587,1671.546,0.587,116.377,116.378,173.151,44.678,359.988,12.931,-0.078,0.0012,-0.2585,0.0000,0.9961,0.5000,1.0000,0.0000
37.631,Upwind,1689.450,0.587,1689.191,0.587,125.371,125.372,173.320,45.225,359.988,12.694,-0.072,0.0009,-0.3084,0.0000,0.9937,0.5000,1.0000,0.0000
37.823,Upwind,1707.110,0.586,1706.851,0.586,134.455,134.456,173.485,45.593,359.989,12.498,-0.067,0.0007,-0.3456,0.0000,0.9914,0.5000,1.0000,0.0000
38.028,Upwind,1724.786,0.585,1724.527,0.585,143.600,143.600,173.645,45.836,359.990,12.373,-0.062,0.0005,-0.3652,0.0000,0.9891,0.5000,1.0000,0.0000
38.223,Upwind,1742.479,0.584,1742.220,0.584,152.785,152.786,173.799,46.017,359.990,12.331,-0.058,0.0003,-0.3667,0.0000,0.9870,0.5000,0.0000,0.0000
38.423,Upwind,1760.189,0.582,1759.930,0.582,162.006,162.007,173.947,46.193,359.991,12.364,-0.054,0.0001,-0.3530,0.0000,0.9849,0.5000,0.0000,0.0000
38.622,Upwind,1777.914,0.581,1777.655,0.581,171.265,171.266,174.090,46.406,359.992,12.454,-0.051,0.0000,-0.3293,0.0000,0.9829,0.5000,0.0000,0.0000
38.826,Upwind,1795.654,0.579,1795.395,0.579,180.572,180.573,174.227,46.678,359.992,12.574,-0.049,-0.0001,-0.3017,0.0000,0.9810,0.5000,0.0000,0.0000
39.032,Upwind,1813.407,0.577,1813.148,0.577,190.724,190.725,174.366,47.042,359.992,12.707,-0.047,-0.0002,-0.2757,0.0000,0.9790,0.5000,0.0000,0.0000
39.233,Upwind,1831.172,0.575,1830.913,0.575,200.171,200.172,174.487,47.429,359.993,12.811,-0.046,-0.0002,-0.2532,0.0000,0.9773,0.5000,0.0000,0.0000
39.432,Upwind,1848.947,0.573,1848.688,0.573,209.698,209.699,174.601,47.842,359.993,12.882,-0.045,-0.0003,-0.2411,0.0000,0.9757,0.5000,0.0000,0.0000
39.628,Upwind,1866.733,0.571,1866.474,0.571,218.503,218.504,174.701,48.219,359.993,12.914,-0.044,-0.0003,-0.2377,0.0000,0.9743,0.5000,0.0000,0.0000
39.829,Upwind,1884.528,0.569,1884.269,0.569,228.187,228.188,174.804,48.609,359.993,12.915,-0.044,-0.0002,-0.2402,0.0000,0.9729,0.5000,0.0000,0.0000
40.021,Upwind,1902.333,0.566,1902.074,0.566,237.944,237.945,174.904,48.959,359.992,12.891,-0.044,-0.0002,-0.2475,0.0000,0.9715,0.5000,0.0000,0.0000
40.232,Upwind,1920.147,0.564,1919.888,0.564,248.588,248.589,175.009,49.284,359.992,12.848,-0.044,-0.0002,-0.2576,0.0000,0.9700,0.5000,0.0000,0.0000
40.421,Upwind,1937.971,0.562,1937.712,0.562,257.645,257.646,175.096,49.513,359.992,12.809,-0.044,-0.0001,-0.2658,0.0000,0.9688,0.5000,0.0000,0.0000
40.630,Upwind,1955.805,0.559,1955.546,0.559,267.569,267.571,175.189,49.723,359.991,12.773,-0.044,0.0000,-0.2726,0.0000,0.9675,0.5000,0.0000,0.0000
40.823,Upwind,1973.649,0.557,1973.390,0.557,277.532,277.534,175.280,49.902,359.991,12.750,-0.044,0.0000,-0.2762,0.0000,0.9662,0.5000,0.0000,0.0000
41.035,Upwind,1992.992,0.554,1992.733,0.554,288.363,288.365,175.376,50.074,359.990,12.743,-0.044,0.0001,-0.2763,0.0000,0.9648,0.5000,0.0000,0.0000
41.224,Upwind,2009.368,0.551,2009.109,0.551,297.556,297.558,175.456,50.213,359.990,12.750,-0.043,0.0001,-0.2738,0.0000,0.9637,0.5000,0.0000,0.0000
41.422,Upwind,2027.243,0.549,2026.984,0.549,307.614,307.615,175.541,50.366,359.989,12.767,-0.043,0.0002,-0.2692,0.0000,0.9625,0.5000,0.0000,0.0000
41.625,Upwind,2045.128,0.546,2044.869,0.546,317.703,317.704,175.625,50.524,359.989,12.790,-0.043,0.0002,-0.2637,0.0000,0.9614,0.5000,0.0000,0.0000
41.826,Upwind,2063.022,0.543,2062.763,0.543,327.824,327.826,175.706,50.690,359.988,12.815,-0.042,0.0002,-0.2585,0.0000,0.9602,0.5000,0.0000,0.0000
42.032,Upwind,2080.926,0.540,2080.667,0.540,338.827,338.829,175.791,50.876,359.988,12.838,-0.041,0.0002,-0.2541,0.0000,0.9590,0.5000,0.0000,0.0000
42.228,Upwind,2098.838,0.537,2098.579,0.537,348.169,348.170,175.861,51.034,359.988,12.851,-0.041,0.0003,-0.2517,0.0000,0.9581,0.5000,0.0000,0.0000
42.431,Upwind,2116.759,0.534,2116.500,0.534,358.392,358.394,175.936,51.203,359.987,12.859,-0.040,0.0003,-0.2506,0.0000,0.9570,0.5000,0.0000,0.0000
42.628,Upwind,2134.690,0.531,2134.431,0.531,368.649,368.651,176.010,51.365,359.987,12.861,-0.039,0.0002,-0.2508,0.0000,0.9560,0.5000,0.0000,0.0000
42.826,Upwind,2152.628,0.527,2152.369,0.527,378.938,378.940,176.082,51.517,359.987,12.857,-0.038,0.0002,-0.2520,0.0000,0.9550,0.5000,0.0000,0.0000
43.034,Upwind,2170.576,0.524,2170.317,0.524,390.116,390.118,176.159,51.668,359.987,12.850,-0.037,0.0002,-0.2537,0.0000,0.9539,0.5000,0.0000,0.0000
43.227,Upwind,2188.532,0.521,2188.273,0.521,399.599,399.601,176.223,51.784,359.987,12.843,-0.036,0.0002,-0.2552,0.0000,0.9530,0.5000,0.0000,0.0000
43.423,Upwind,2206.497,0.517,2206.238,0.517,409.968,409.970,176.291,51.901,359.987,12.837,-0.035,0.0002,-0.2564,0.0000,0.9520,0.5000,0.0000,0.0000
43.629,Upwind,2224.470,0.514,2224.211,0.514,420.359,420.361,176.355,52.008,359.987,12.833,-0.034,0.0001,-0.2569,0.0000,0.9511,0.5000,0.0000,0.0000
43.839,Upwind,2243.950,0.510,2243.691,0.510,431.640,431.642,176.422,52.118,359.987,12.833,-0.033,0.0001,-0.2565,0.0000,0.9502,0.5000,0.0000,0.0000
44.030,Upwind,2260.441,0.507,2260.182,0.507,441.203,441.205,176.475,52.207,359.987,12.836,-0.032,0.0001,-0.2556,0.0000,0.9494,0.5000,0.0000,0.0000
44.222,Upwind,2278.438,0.504,2278.179,0.504,451.653,451.656,176.531,52.302,359.987,12.842,-0.032,0.0001,-0.2541,0.0000,0.9487,0.5000,0.0000,0.0000
44.423,Upwind,2296.443,0.500,2296.184,0.500,462.123,462.126,176.583,52.397,359.987,12.849,-0.031,0.0001,-0.2524,0.0000,0.9479,0.5000,0.0000,0.0000
44.630,Upwind,2314.455,0.497,2314.196,0.497,472.612,472.614,176.632,52.492,359.987,12.857,-0.030,0.0001,-0.2507,0.0000,0.9472,0.5000,0.0000,0.0000
44.826,Upwind,2332.473,0.493,2332.214,0.493,483.120,483.122,176.679,52.587,359.988,12.865,-0.030,0.0000,-0.2491,0.0000,0.9466,0.5000,0.0000,0.0000
45.033,Upwind,2350.498,0.490,2350.239,0.490,494.525,494.527,176.727,52.689,359.988,12.871,-0.029,0.0000,-0.2478,0.0000,0.9459,0.5000,0.0000,0.0000
45.227,Upwind,2368.530,0.486,2368.271,0.486,504.192,504.195,176.765,52.773,359.988,12.875,-0.029,0.0000,-0.2471,0.0000,0.9454,0.5000,0.0000,0.0000
45.422,Upwind,2386.567,0.483,2386.308,0.483,514.756,514.758,176.804,52.861,359.988,12.878,-0.028,0.0000,-0.2466,0.0000,0.9448,0.5000,0.0000,0.0000
45.624,Upwind,2404.610,0.480,2404.351,0.480,525.336,525.339,176.841,52.946,359.988,12.880,-0.028,0.0001,-0.2464,0.0000,0.9443,0.5000,0.0000,0.0000
45.829,Upwind,2422.659,0.476,2422.400,0.476,535.934,535.936,176.876,53.026,359.988,12.880,-0.028,0.0000,-0.2463,0.0000,0.9438,0.5000,0.0000,0.0000
46.030,Upwind,2440.714,0.473,2440.455,0.473,546.546,546.549,176.909,53.101,359.988,12.881,-0.028,0.0000,-0.2462,0.0000,0.9433,0.5000,0.0000,0.0000
46.229,Upwind,2458.774,0.470,2458.515,0.470,557.174,557.176,176.940,53.172,359.988,12.881,-0.028,0.0001,-0.2461,0.0000,0.9429,0.5000,0.0000,0.0000
46.423,Upwind,2476.839,0.466,2476.580,0.466,567.815,567.818,176.969,53.240,359.988,12.882,-0.027,0.0000,-0.2459,0.0000,0.9425,0.5000,0.0000,0.0000
46.630,Upwind,2494.909,0.463,2494.650,0.463,578.469,578.472,176.997,53.304,359.988,12.883,-0.027,0.0001,-0.2455,0.0000,0.9421,0.5000,0.0000,0.0000
46.822,Upwind,2512.984,0.460,2512.725,0.460,589.136,589.139,177.023,53.365,359.988,12.885,-0.027,0.0001,-0.2450,0.0000,0.9418,0.5000,0.0000,0.0000
47.032,Upwind,2531.064,0.457,2530.805,0.457,599.815,599.818,177.047,53.424,359.988,12.888,-0.027,0.0000,-0.2445,0.0000,0.9414,0.5000,0.0000,0.0000
47.225,Upwind,2549.149,0.454,2548.890,0.454,610.506,610.509,177.070,53.482,359.989,12.890,-0.027,0.0000,-0.2439,0.0000,0.9411,0.5000,0.0000,0.0000
47.431,Upwind,2567.238,0.450,2566.979,0.450,622.100,622.103,177.093,53.542,359.989,12.893,-0.027,0.0000,-0.2433,0.0000,0.9408,0.5000,0.0000,0.0000
47.624,Upwind,2585.332,0.447,2585.073,0.447,631.921,631.924,177.111,53.592,359.989,12.895,-0.026,0.0000,-0.2428,0.0000,0.9405,0.5000,0.0000,0.0000
47.829,Upwind,2603.430,0.444,2603.171,0.444,642.644,642.647,177.130,53.644,359.989,12.898,-0.026,0.0000,-0.2424,0.0000,0.9403,0.5000,0.0000,0.0000
48.027,Upwind,2621.532,0.441,2621.273,0.441,653.378,653.381,177.147,53.694,359.989,12.899,-0.026,0.0000,-0.2420,0.0000,0.9400,0.5000,0.0000,0.0000
48.222,Upwind,2639.639,0.438,2639.380,0.438,664.121,664.125,177.163,53.742,359.989,12.901,-0.026,0.0000,-0.2417,0.0000,0.9398,0.5000,0.0000,0.0000
48.425,Upwind,2657.749,0.435,2657.490,0.435,674.875,674.878,177.178,53.789,359.989,12.902,-0.026,0.0000,-0.2415,0.0000,0.9396,0.5000,0.0000,0.0000
48.623,Upwind,2675.863,0.432,2675.604,0.432,685.637,685.640,177.192,53.832,359.989,12.903,-0.026,0.0000,-0.2413,0.0000,0.9394,0.5000,0.0000,0.0000
48.830,Upwind,2693.981,0.429,2693.722,0.429,696.407,696.411,177.205,53.874,359.989,12.904,-0.026,0.0000,-0.2411,0.0000,0.9392,0.5000,0.0000,0.0000
49.036,Upwind,2713.613,0.426,2713.354,0.426,707.186,707.190,177.217,53.914,359.990,12.905,-0.026,0.0001,-0.2409,0.0000,0.9390,0.5000,0.0000,0.0000
49.232,Upwind,2730.228,0.424,2729.969,0.424,717.973,717.976,177.228,53.952,359.990,12.906,-0.026,0.0000,-0.2407,0.0000,0.9389,0.5000,0.0000,0.0000
49.424,Upwind,2748.357,0.421,2748.098,0.421,728.767,728.770,177.238,53.988,359.990,12.907,-0.026,0.0000,-0.2405,0.0000,0.9387,0.5000,0.0000,0.0000
49.630,Upwind,2766.490,0.418,2766.231,0.418,739.568,739.571,177.247,54.023,359.990,12.908,-0.026,0.0000,-0.2402,0.0000,0.9386,0.5000,0.0000,0.0000
49.822,Upwind,2784.626,0.416,2784.367,0.416,750.376,750.379,177.256,54.056,359.990,12.909,-0.026,0.0000,-0.2400,0.0000,0.9385,0.5000,0.0000,0.0000
50.034,Upwind,2802.765,0.413,2802.506,0.413,761.190,761.194,177.263,54.088,359.990,12.910,-0.026,0.0000,-0.2398,0.0000,0.9384,0.5000,0.0000,0.0000
50.226,Upwind,2820.908,0.410,2820.649,0.410,772.011,772.014,177.270,54.118,359.990,12.911,-0.026,0.0000,-0.2396,0.0000,0.9383,0.5000,0.0000,0.0000
50.433,Upwind,2839.054,0.408,2838.795,0.408,782.837,782.841,177.276,54.148,359.990,12.912,-0.026,0.0000,-0.2393,0.0000,0.9382,0.5000,0.0000,0.0000
50.630,Upwind,2857.203,0.405,2856.944,0.405,794.572,794.576,177.282,54.178,359.991,12.913,-0.026,0.0000,-0.2392,0.0000,0.9381,0.5000,0.0000,0.0000
50.820,Upwind,2875.355,0.403,2875.096,0.403,804.507,804.511,177.287,54.203,359.991,12.913,-0.026,0.0001,-0.2390,0.0000,0.9381,0.5000,0.0000,0.0000
51.039,Upwind,2895.023,0.400,2894.764,0.400,815.350,815.354,177.291,54.229,359.991,12.914,-0.026,0.0000,-0.2389,0.0000,0.9380,0.5000,0.0000,0.0000
51.224,Upwind,2911.669,0.398,2911.410,0.398,826.199,826.203,177.295,54.253,359.991,12.915,-0.026,0.0000,-0.2387,0.0000,0.9379,0.5000,0.0000,0.0000
51.424,Upwind,2929.830,0.395,2929.571,0.395,837.052,837.056,177.298,54.277,359.991,12.915,-0.026,0.0000,-0.2386,0.0000,0.9379,0.5000,0.0000,0.0000
51.632,Upwind,2947.995,0.393,2947.736,0.393,847.909,847.913,177.301,54.299,359.991,12.916,-0.026,0.0000,-0.2385,0.0000,0.9379,0.5000,0.0000,0.0000
51.831,Upwind,2966.162,0.391,2965.903,0.391,859.676,859.681,177.303,54.322,359.991,12.916,-0.026,0.0000,-0.2384,0.0000,0.9378,0.5000,0.0000,0.0000
52.033,Upwind,2984.332,0.388,2984.073,0.388,870.543,870.547,177.305,54.343,359.991,12.917,-0.026,0.0000,-0.2383,0.0000,0.9378,0.5000,0.0000,0.0000
52.232,Upwind,3002.505,0.386,3002.246,0.386,881.413,881.418,177.306,54.362,359.992,12.917,-0.026,0.0000,-0.2382,0.0000,0.9378,0.5000,0.0000,0.0000
52.429,Upwind,3020.681,0.384,3020.422,0.384,891.381,891.386,177.307,54.379,359.992,12.918,-0.026,0.0000,-0.2381,0.0000,0.9378,0.5000,0.0000,0.0000
52.622,Upwind,3038.860,0.382,3038.601,0.382,902.259,902.263,177.307,54.397,359.992,12.918,-0.026,0.0000,-0.2380,0.0000,0.9378,0.5000,0.0000,0.0000
52.831,Upwind,3057.042,0.380,3056.783,0.380,913.140,913.144,177.307,54.414,359.992,12.918,-0.026,0.0000,-0.2379,0.0000,0.9378,0.5000,0.0000,0.0000
53.025,Upwind,3075.226,0.378,3074.967,0.378,924.024,924.029,177.307,54.430,359.992,12.919,-0.026,0.0000,-0.2378,0.0000,0.9378,0.5000,0.0000,0.0000
53.224,Upwind,3093.413,0.375,3093.154,0.375,934.912,934.917,177.307,54.446,359.992,12.919,-0.026,0.0000,-0.2378,0.0000,0.9378,0.5000,0.0000,0.0000
53.423,Upwind,3111.603,0.373,3111.344,0.373,945.803,945.807,177.306,54.461,359.992,12.920,-0.026,0.0000,-0.2377,0.0000,0.9378,0.5000,0.0000,0.0000
53.631,Upwind,3129.795,0.371,3129.536,0.371,957.604,957.609,177.304,54.477,359.992,12.920,-0.026,0.0000,-0.2376,0.0000,0.9378,0.5000,0.0000,0.0000
53.824,Upwind,3147.990,0.370,3147.731,0.370,967.593,967.597,177.303,54.489,359.993,12.920,-0.026,0.0000,-0.2376,0.0000,0.9378,0.5000,0.0000,0.0000
54.035,Upwind,3167.704,0.367,3167.445,0.367,978.492,978.497,177.301,54.502,359.993,12.920,-0.026,0.0000,-0.2375,0.0000,0.9379,0.5000,0.0000,0.0000
54.227,Upwind,3184.387,0.366,3184.128,0.366,989.394,989.398,177.299,54.515,359.993,12.921,-0.026,0.0000,-0.2375,0.0000,0.9379,0.5000,0.0000,0.0000
54.423,Upwind,3202.590,0.364,3202.331,0.364,1000.298,1000.302,177.296,54.527,359.993,12.921,-0.026,0.0000,-0.2374,0.0000,0.9379,0.5000,0.0000,0.0000
54.632,Upwind,3220.795,0.362,3220.536,0.362,1012.113,1012.118,177.293,54.539,359.993,12.921,-0.026,0.0000,-0.2374,0.0000,0.9380,0.5000,0.0000,0.0000
54.823,Upwind,3239.003,0.360,3238.744,0.360,1022.113,1022.118,177.291,54.549,359.993,12.921,-0.026,0.0000,-0.2374,0.0000,0.9380,0.5000,0.0000,0.0000
55.023,Upwind,3257.213,0.359,3256.954,0.359,1033.023,1033.028,177.288,54.559,359.993,12.921,-0.027,0.0000,-0.2373,0.0000,0.9380,0.5000,0.0000,0.0000
55.226,Upwind,3275.426,0.357,3275.167,0.357,1043.936,1043.941,177.284,54.569,359.993,12.921,-0.027,0.0000,-0.2373,0.0000,0.9381,0.5000,0.0000,0.0000
55.425,Upwind,3293.641,0.355,3293.382,0.355,1054.851,1054.856,177.281,54.579,359.993,12.921,-0.027,0.0000,-0.2373,0.0000,0.9381,0.5000,0.0000,0.0000
55.628,Upwind,3311.859,0.354,3311.600,0.354,1065.768,1065.773,177.277,54.588,359.994,12.922,-0.027,0.0000,-0.2373,0.0000,0.9382,0.5000,0.0000,0.0000
55.821,Upwind,3330.079,0.352,3329.820,0.352,1076.686,1076.691,177.273,54.597,359.994,12.922,-0.027,0.0000,-0.2372,0.0000,0.9382,0.5000,0.0000,0.0000
56.025,Upwind,3348.302,0.350,3348.043,0.350,1087.606,1087.611,177.269,54.605,359.994,12.922,-0.027,0.0000,-0.2372,0.0000,0.9383,0.5000,0.0000,0.0000
56.220,Upwind,3366.527,0.349,3366.268,0.349,1098.528,1098.533,177.265,54.613,359.994,12.922,-0.027,0.0000,-0.2372,0.0000,0.9384,0.5000,0.0000,0.0000
56.421,Upwind,3384.754,0.347,3384.495,0.347,1109.451,1109.456,177.260,54.620,359.994,12.922,-0.027,0.0000,-0.2372,0.0000,0.9384,0.5000,0.0000,0.0000
56.626,Upwind,3402.984,0.346,3402.725,0.346,1120.376,1120.381,177.256,54.628,359.994,12.922,-0.027,0.0000,-0.2372,0.0000,0.9385,0.5000,0.0000,0.0000
56.832,Upwind,3421.216,0.345,3420.957,0.345,1131.302,1131.308,177.251,54.635,359.994,12.922,-0.027,0.0000,-0.2372,0.0000,0.9386,0.5000,0.0000,0.0000
57.028,Upwind,3439.451,0.343,3439.192,0.343,1142.230,1142.235,177.247,54.641,359.994,12.922,-0.027,0.0000,-0.2372,0.0000,0.9386,0.5000,0.0000,0.0000
57.230,Upwind,3457.688,0.342,3457.429,0.342,1153.159,1153.164,177.242,54.648,359.994,12.922,-0.027,0.0000,-0.2372,0.0000,0.9387,0.5000,0.0000,0.0000
57.431,Upwind,3475.927,0.340,3475.668,0.340,1164.089,1164.094,177.237,54.654,359.994,12.922,-0.027,0.0000,-0.2372,0.0000,0.9388,0.5000,0.0000,0.0000
57.626,Upwind,3494.169,0.339,3493.910,0.339,1175.020,1175.026,177.231,54.660,359.995,12.922,-0.027,0.0000,-0.2372,0.0000,0.9388,0.5000,0.0000,0.0000
57.828,Upwind,3512.413,0.338,3512.154,0.338,1185.952,1185.958,177.226,54.665,359.995,12.922,-0.027,0.0000,-0.2372,0.0000,0.9389,0.5000,0.0000,0.0000
58.024,Upwind,3530.659,0.337,3530.400,0.337,1196.886,1196.892,177.221,54.671,359.995,12.922,-0.027,0.0000,-0.2372,0.0000,0.9390,0.5000,0.0000,0.0000
58.223,Upwind,3548.908,0.335,3548.649,0.335,1207.821,1207.827,177.215,54.676,359.995,12.922,-0.027,0.0000,-0.2372,0.0000,0.9391,0.5000,0.0000,0.0000
58.421,Upwind,3567.159,0.334,3566.900,0.334,1218.756,1218.762,177.210,54.681,359.995,12.922,-0.027,0.0000,-0.2372,0.0000,0.9391,0.5000,0.0000,0.0000
58.628,Upwind,3585.412,0.333,3585.153,0.333,1229.693,1229.699,177.204,54.686,359.995,12.922,-0.027,0.0000,-0.2372,0.0000,0.9392,0.5000,0.0000,0.0000
58.825,Upwind,3603.668,0.332,3603.409,0.332,1240.631,1240.637,177.198,54.691,359.995,12.922,-0.028,0.0000,-0.2372,0.0000,0.9393,0.5000,0.0000,0.0000
59.033,Upwind,3621.925,0.331,3621.666,0.331,1252.481,1252.487,177.192,54.696,359.995,12.922,-0.028,0.0000,-0.2372,0.0000,0.9394,0.5000,0.0000,0.0000
59.230,Upwind,3640.186,0.330,3639.927,0.330,1262.509,1262.515,177.187,54.699,359.995,12.922,-0.028,0.0000,-0.2373,0.0000,0.9395,0.5000,0.0000,0.0000
59.422,Upwind,3658.448,0.329,3658.189,0.329,1273.449,1273.455,177.181,54.703,359.995,12.922,-0.028,0.0000,-0.2373,0.0000,0.9395,0.5000,0.0000,0.0000
59.627,Upwind,3676.713,0.328,3676.454,0.328,1284.390,1284.396,177.175,54.707,359.996,12.921,-0.028,0.0000,-0.2373,0.0000,0.9396,0.5000,0.0000,0.0000
59.834,Upwind,3696.502,0.327,3696.243,0.327,1295.332,1295.338,177.169,54.711,359.996,12.921,-0.028,0.0000,-0.2373,0.0000,0.9397,0.5000,0.0000,0.0000
60.023,Upwind,3713.249,0.326,3712.990,0.326,1306.274,1306.281,177.162,54.714,359.996,12.921,-0.028,0.0000,-0.2374,0.0000,0.9398,0.5000,0.0000,0.0000
60.231,Upwind,3731.521,0.325,3731.262,0.325,1317.217,1317.224,177.156,54.718,359.996,12.921,-0.028,0.0000,-0.2374,0.0000,0.9399,0.5000,0.0000,0.0000
60.428,Upwind,3749.795,0.324,3749.536,0.324,1328.161,1328.168,177.150,54.721,359.996,12.921,-0.028,0.0000,-0.2374,0.0000,0.9400,0.5000,0.0000,0.0000
60.625,Upwind,3768.071,0.323,3767.812,0.323,1339.106,1339.112,177.144,54.724,359.996,12.921,-0.028,0.0000,-0.2374,0.0000,0.9401,0.5000,0.0000,0.0000
60.827,Upwind,3786.349,0.322,3786.090,0.322,1350.051,1350.057,177.137,54.727,359.996,12.921,-0.028,0.0000,-0.2374,0.0000,0.9402,0.5000,0.0000,0.0000
61.020,Upwind,3804.630,0.322,3804.371,0.322,1360.996,1361.003,177.131,54.730,359.996,12.921,-0.028,0.0000,-0.2375,0.0000,0.9402,0.5000,0.0000,0.0000
61.234,Upwind,3822.913,0.321,3822.654,0.321,1371.943,1371.949,177.124,54.733,359.996,12.921,-0.028,0.0000,-0.2375,0.0000,0.9403,0.5000,0.0000,0.0000
61.427,Upwind,3841.198,0.320,3840.939,0.320,1382.890,1382.896,177.118,54.736,359.996,12.921,-0.028,0.0000,-0.2375,0.0000,0.9404,0.5000,0.0000,0.0000
61.624,Upwind,3859.486,0.319,3859.227,0.319,1393.837,1393.844,177.111,54.738,359.996,12.920,-0.028,0.0000,-0.2375,0.0000,0.9405,0.5000,0.0000,0.0000
61.827,Upwind,3877.775,0.319,3877.516,0.319,1404.785,1404.791,177.105,54.741,359.996,12.920,-0.028,0.0000,-0.2376,0.0000,0.9406,0.5000,0.0000,0.0000
62.033,Upwind,3896.067,0.318,3895.808,0.318,1416.645,1416.652,177.097,54.743,359.997,12.920,-0.028,0.0000,-0.2376,0.0000,0.9407,0.5000,0.0000,0.0000
62.222,Upwind,3914.361,0.317,3914.102,0.317,1426.682,1426.689,177.091,54.746,359.997,12.920,-0.028,0.0000,-0.2376,0.0000,0.9408,0.5000,0.0000,0.0000
62.432,Upwind,3932.658,0.317,3932.399,0.317,1438.544,1438.551,177.084,54.748,359.997,12.920,-0.028,0.0000,-0.2377,0.0000,0.9409,0.5000,0.0000,0.0000
62.628,Upwind,3950.956,0.316,3950.697,0.316,1448.581,1448.588,177.078,54.750,359.997,12.920,-0.028,0.0000,-0.2377,0.0000,0.9410,0.5000,0.0000,0.0000
62.830,Upwind,3969.257,0.316,3968.998,0.316,1460.444,1460.451,177.071,54.752,359.997,12.920,-0.028,0.0000,-0.2377,0.0000,0.9411,0.5000,0.0000,0.0000
63.022,Upwind,3987.560,0.315,3987.301,0.315,1470.482,1470.489,177.064,54.754,359.997,12.919,-0.028,0.0000,-0.2378,0.0000,0.9412,0.5000,0.0000,0.0000
63.233,Upwind,4005.866,0.315,4005.607,0.315,1482.345,1482.352,177.057,54.756,359.997,12.919,-0.029,0.0000,-0.2378,0.0000,0.9413,0.5000,0.0000,0.0000
63.420,Upwind,4024.173,0.314,4023.914,0.314,1492.384,1492.391,177.051,54.758,359.997,12.919,-0.029,0.0000,-0.2378,0.0000,0.9414,0.5000,0.0000,0.0000
63.622,Upwind,4042.483,0.314,4042.224,0.314,1503.336,1503.343,177.044,54.760,359.997,12.919,-0.029,-0.0001,-0.2379,0.0000,0.9415,0.5000,0.0000,0.0000
63.830,Upwind,4060.795,0.313,4060.536,0.313,1515.201,1515.208,177.036,54.762,359.997,12.919,-0.029,0.0000,-0.2379,0.0000,0.9416,0.5000,0.0000,0.0000
64.031,Upwind,4079.109,0.313,4078.850,0.313,1526.153,1526.160,177.029,54.764,359.997,12.919,-0.029,0.0000,-0.2379,0.0000,0.9417,0.5000,0.0000,0.0000
64.221,Upwind,4097.426,0.312,4097.167,0.312,1536.193,1536.201,177.023,54.765,359.997,12.918,-0.029,0.0000,-0.2380,0.0000,0.9418,0.5000,0.0000,0.0000
64.428,Upwind,4115.744,0.312,4115.485,0.312,1547.146,1547.154,177.016,54.767,359.997,12.918,-0.029,-0.0001,-0.2380,0.0000,0.9419,0.5000,0.0000,0.0000
64.631,Upwind,4134.065,0.312,4133.806,0.312,1558.100,1558.107,177.009,54.768,359.998,12.918,-0.029,-0.0001,-0.2380,0.0000,0.9420,0.5000,0.0000,0.0000
64.830,Upwind,4152.388,0.311,4152.129,0.311,1569.966,1569.974,177.001,54.770,359.998,12.918,-0.030,0.0000,-0.2381,0.0000,0.9421,0.5000,0.0000,0.0000
65.027,Upwind,4170.714,0.311,4170.455,0.311,1580.008,1580.015,176.995,54.771,359.998,12.918,-0.030,0.0000,-0.2381,0.0000,0.9421,0.5000,0.0000,0.0000
65.223,Upwind,4189.041,0.311,4188.782,0.311,1590.962,1590.970,176.988,54.773,359.998,12.918,-0.030,0.0000,-0.2382,0.0000,0.9422,0.5000,0.0000,0.0000
65.432,Upwind,4207.371,0.310,4207.112,0.310,1602.830,1602.837,176.980,54.774,359.998,12.917,-0.030,0.0000,-0.2382,0.0000,0.9424,0.5000,0.0000,0.0000
65.627,Upwind,4225.703,0.310,4225.444,0.310,1612.872,1612.879,176.974,54.776,359.998,12.917,-0.030,0.0000,-0.2382,0.0000,0.9424,0.5000,0.0000,0.0000
65.821,Upwind,4244.037,0.310,4243.778,0.310,1623.827,1623.835,176.967,54.777,359.998,12.917,-0.030,0.0000,-0.2383,0.0000,0.9425,0.5000,0.0000,0.0000
66.021,Upwind,4262.374,0.310,4262.115,0.310,1634.782,1634.790,176.960,54.778,359.998,12.917,-0.030,0.0000,-0.2383,0.0000,0.9426,0.5000,0.0000,0.0000
66.225,Upwind,4280.712,0.309,4280.453,0.309,1645.738,1645.746,176.952,54.780,359.998,12.917,-0.030,-0.0001,-0.2383,0.0000,0.9427,0.5000,0.0000,0.0000
66.421,Upwind,4299.053,0.309,4298.794,0.309,1656.694,1656.702,176.945,54.781,359.998,12.917,-0.030,0.0000,-0.2384,0.0000,0.9428,0.5000,0.0000,0.0000
66.620,Upwind,4317.396,0.309,4317.137,0.309,1667.650,1667.658,176.938,54.782,359.998,12.916,-0.030,0.0000,-0.2384,0.0000,0.9429,0.5000,0.0000,0.0000
66.830,Upwind,4335.742,0.309,4335.483,0.309,1679.520,1679.528,176.930,54.783,359.998,12.916,-0.030,0.0000,-0.2385,0.0000,0.9431,0.5000,0.0000,0.0000
67.029,Upwind,4354.089,0.309,4353.830,0.309,1689.563,1689.572,176.924,54.784,359.998,12.916,-0.031,0.0000,-0.2385,0.0000,0.9431,0.5000,0.0000,0.0000
67.222,Upwind,4372.439,0.308,4372.180,0.308,1700.520,1700.528,176.917,54.785,359.998,12.916,-0.031,0.0000,-0.2385,0.0000,0.9433,0.5000,0.0000,0.0000
67.430,Upwind,4390.791,0.308,4390.532,0.308,1712.391,1712.399,176.909,54.787,359.998,12.916,-0.031,0.0000,-0.2386,0.0000,0.9434,0.5000,0.0000,0.0000
67.628,Upwind,4409.145,0.308,4408.886,0.308,1722.435,1722.443,176.902,54.788,359.998,12.915,-0.031,0.0000,-0.2386,0.0000,0.9435,0.5000,0.0000,0.0000
67.825,Upwind,4427.501,0.308,4427.242,0.308,1733.392,1733.401,176.895,54.789,359.998,12.915,-0.031,0.0000,-0.2387,0.0000,0.9436,0.5000,0.0000,0.0000
68.022,Upwind,4445.860,0.308,4445.601,0.308,1744.350,1744.359,176.888,54.790,359.998,12.915,-0.031,0.0000,-0.2387,0.0000,0.9437,0.5000,0.0000,0.0000
68.241,Upwind,4465.751,0.308,4465.492,0.308,1755.308,1755.317,176.881,54.791,359.998,12.915,-0.031,0.0000,-0.2388,0.0000,0.9438,0.5000,0.0000,0.0000
68.428,Upwind,4482.584,0.308,4482.325,0.308,1766.266,1766.275,176.873,54.792,359.998,12.915,-0.031,0.0000,-0.2388,0.0000,0.9439,0.5000,0.0000,0.0000
68.629,Upwind,4500.949,0.308,4500.690,0.308,1777.225,1777.233,176.866,54.793,359.998,12.915,-0.031,0.0000,-0.2388,0.0000,0.9440,0.5000,0.0000,0.0000
68.830,Upwind,4519.316,0.307,4519.057,0.307,1789.096,1789.105,176.858,54.794,359.998,12.914,-0.031,0.0000,-0.2389,0.0000,0.9441,0.5000,0.0000,0.0000
69.028,Upwind,4537.686,0.307,4537.427,0.307,1799.142,1799.151,176.851,54.794,359.998,12.914,-0.031,-0.0001,-0.2389,0.0000,0.9442,0.5000,0.0000,0.0000
69.228,Upwind,4556.058,0.307,4555.799,0.307,1810.101,1810.110,176.844,54.795,359.998,12.914,-0.031,0.0000,-0.2390,0.0000,0.9443,0.5000,0.0000,0.0000
69.421,Upwind,4574.432,0.307,4574.173,0.307,1821.060,1821.069,176.837,54.796,359.998,12.914,-0.031,0.0000,-0.2390,0.0000,0.9444,0.5000,0.0000,0.0000
69.624,Upwind,4592.808,0.307,4592.549,0.307,1832.019,1832.028,176.830,54.797,359.998,12.914,-0.031,0.0000,-0.2390,0.0000,0.9445,0.5000,0.0000,0.0000
69.821,Upwind,4611.186,0.307,4610.927,0.307,1842.979,1842.988,176.822,54.798,359.998,12.913,-0.031,0.0000,-0.2391,0.0000,0.9446,0.5000,0.0000,0.0000
70.035,Upwind,4631.099,0.307,4630.840,0.307,1854.852,1854.861,176.814,54.799,359.998,12.913,-0.032,0.0000,-0.2391,0.0000,0.9447,0.5000,0.0000,0.0000
70.222,Upwind,4647.950,0.307,4647.691,0.307,1864.898,1864.907,176.808,54.800,359.998,12.913,-0.032,0.0000,-0.2392,0.0000,0.9448,0.5000,0.0000,0.0000
70.423,Upwind,4666.335,0.307,4666.076,0.307,1875.858,1875.867,176.800,54.801,359.999,12.913,-0.032,0.0000,-0.2392,0.0000,0.9449,0.5000,0.0000,0.0000
70.623,Upwind,4684.722,0.307,4684.463,0.307,1886.818,1886.827,176.793,54.801,359.999,12.913,-0.032,0.0000,-0.2393,0.0000,0.9450,0.5000,0.0000,0.0000
70.822,Upwind,4703.112,0.307,4702.853,0.307,1897.779,1897.788,176.786,54.802,359.999,12.912,-0.032,0.0000,-0.2393,0.0000,0.9451,0.5000,0.0000,0.0000
71.023,Upwind,4721.504,0.307,4721.245,0.307,1908.739,1908.748,176.778,54.803,359.999,12.912,-0.032,0.0000,-0.2393,0.0000,0.9452,0.5000,0.0000,0.0000
71.221,Upwind,4739.897,0.307,4739.638,0.307,1919.700,1919.709,176.771,54.804,359.999,12.912,-0.032,0.0000,-0.2394,0.0000,0.9453,0.5000,0.0000,0.0000
71.421,Upwind,4758.294,0.307,4758.035,0.307,1930.661,1930.670,176.764,54.804,359.999,12.912,-0.032,0.0000,-0.2394,0.0000,0.9454,0.5000,0.0000,0.0000
71.624,Upwind,4776.692,0.307,4776.433,0.307,1941.621,1941.631,176.756,54.805,359.999,12.912,-0.032,0.0000,-0.2395,0.0000,0.9455,0.5000,0.0000,0.0000
71.826,Upwind,4795.093,0.307,4794.833,0.307,1952.582,1952.592,176.749,54.806,359.999,12.911,-0.032,0.0000,-0.2395,0.0000,0.9456,0.5000,0.0000,0.0000
72.021,Upwind,4813.495,0.307,4813.236,0.307,1963.544,1963.553,176.742,54.807,359.999,12.911,-0.032,0.0000,-0.2396,0.0000,0.9457,0.5000,0.0000,0.0000
72.221,Upwind,4831.900,0.307,4831.641,0.307,1974.505,1974.515,176.734,54.807,359.999,12.911,-0.032,0.0000,-0.2396,0.0000,0.9458,0.5000,0.0000,0.0000
72.432,Upwind,4850.307,0.307,4850.048,0.307,1986.380,1986.390,176.726,54.808,359.999,12.911,-0.032,0.0000,-0.2396,0.0000,0.9459,0.5000,0.0000,0.0000
72.630,Upwind,4868.717,0.307,4868.458,0.307,1997.342,1997.351,176.719,54.809,359.999,12.911,-0.032,0.0000,-0.2397,0.0000,0.9460,0.5000,0.0000,0.0000
72.825,Crosswind,4887.128,0.307,4886.869,0.307,2007.389,2007.399,176.689,54.785,359.998,12.911,0.021,0.4000,-0.2997,0.0001,0.8794,0.0000,0.0000,0.0000
73.030,Crosswind,4905.530,0.308,4905.271,0.308,2019.240,2019.250,176.462,54.572,359.994,12.946,0.560,0.4000,-0.3920,0.0001,0.7768,0.0000,0.0000,0.0000
73.227,Crosswind,4923.905,0.313,4923.646,0.313,2029.217,2029.227,176.104,54.251,359.991,13.050,1.383,0.4000,-0.4805,0.0001,0.7000,0.0000,0.0000,0.0000
73.431,Crosswind,4942.239,0.326,4941.979,0.326,2040.026,2040.036,175.636,53.842,359.996,13.281,2.576,0.4000,-0.5724,0.0000,0.7000,0.0000,0.0000,0.0000
73.629,Crosswind,4960.530,0.355,4960.271,0.355,2050.756,2050.766,175.164,53.471,0.023,13.663,4.004,0.4000,-0.6614,-0.0002,0.7000,0.0000,0.0000,0.0000
73.825,Crosswind,4978.776,0.408,4978.517,0.408,2061.422,2061.432,174.686,53.214,0.089,14.219,5.604,0.4000,-0.7496,-0.0006,0.7093,0.0000,0.0000,0.0000
74.028,Crosswind,4996.975,0.496,4996.716,0.496,2072.054,2072.064,174.207,53.149,0.214,14.955,7.330,0.4000,-0.8000,-0.0011,0.7206,0.0000,0.0000,0.0000
74.224,Crosswind,5015.124,0.629,5014.865,0.629,2082.700,2082.710,173.726,53.364,0.415,15.856,9.142,0.4000,-0.8000,-0.0018,0.7322,0.0000,0.0000,0.0000
74.431,Crosswind,5033.219,0.821,5032.960,0.821,2094.320,2094.330,173.195,53.955,0.735,16.947,11.165,0.4000,-0.7959,-0.0027,0.7450,0.0000,0.0000,0.0000
74.630,Crosswind,5051.254,1.088,5050.995,1.088,2104.280,2104.290,172.735,54.741,1.094,17.910,12.901,0.4000,-0.7660,-0.0039,0.7561,0.0000,0.0000,0.0000
74.824,Crosswind,5069.225,1.444,5068.966,1.444,2115.336,2115.346,172.219,55.869,1.580,18.939,14.799,0.4000,-0.7370,-0.0052,0.7684,0.0000,0.0000,0.0000
75.021,Crosswind,5087.124,1.908,5086.865,1.908,2126.643,2126.653,171.687,57.230,2.159,19.891,16.685,0.4000,-0.7074,-0.0068,0.7809,0.0000,0.0000,0.0000
75.228,Crosswind,5104.947,2.494,5104.688,2.494,2138.238,2138.249,171.141,58.745,2.823,20.724,18.545,0.3616,-0.6764,-0.0085,0.7935,0.0000,0.0000,0.0000
75.427,Crosswind,5122.690,3.220,5122.431,3.220,2150.145,2150.155,170.587,60.325,3.559,21.407,20.338,0.2988,-0.6464,-0.0103,0.8060,0.0000,0.0000,0.0000
75.622,Crosswind,5140.348,4.099,5140.089,4.099,2162.367,2162.378,170.032,61.890,4.355,21.923,21.993,0.2444,-0.6173,-0.0120,0.8182,0.0000,0.0000,0.0000
75.829,Crosswind,5157.921,5.142,5157.662,5.142,2174.895,2174.905,169.481,63.367,5.192,22.267,23.467,0.1985,-0.5861,-0.0137,0.8299,0.0000,0.0000,0.0000
76.028,Crosswind,5175.408,6.360,5175.149,6.360,2187.704,2187.715,168.940,64.699,6.054,22.442,24.741,0.1602,-0.5563,-0.0152,0.8408,0.0000,0.0000,0.0000
76.231,Crosswind,5192.810,7.759,5192.551,7.759,2201.860,2201.870,168.374,65.927,6.995,22.452,25.898,0.1255,-0.5259,-0.0164,0.8518,0.0000,0.0000,0.0000
76.424,Crosswind,5210.129,9.344,5209.870,9.344,2214.026,2214.036,167.916,66.760,7.780,22.330,26.708,0.1031,-0.4970,-0.0172,0.8604,0.0000,0.0000,0.0000
76.629,Crosswind,5227.370,11.115,5227.111,11.115,2227.449,2227.460,167.443,67.430,8.611,22.079,27.436,0.0819,-0.4662,-0.0177,0.8690,0.0000,0.0000,0.0000
76.827,Crosswind,5244.537,13.074,5244.278,13.074,2240.980,2240.991,167.001,67.838,9.402,21.725,28.027,0.0644,-0.4364,-0.0178,0.8767,0.0000,0.0000,0.0000
77.026,Crosswind,5261.634,15.219,5261.375,15.219,2254.566,2254.577,166.592,67.976,10.143,21.287,28.506,0.0497,-0.4067,-0.0176,0.8837,0.0000,0.0000,0.0000
77.228,Crosswind,5278.669,17.548,5278.410,17.548,2268.152,2268.163,166.220,67.840,10.825,20.784,28.895,0.0372,-0.3764,-0.0172,0.8900,0.0000,0.0000,0.0000
77.427,Crosswind,5295.648,20.057,5295.389,20.057,2281.684,2281.695,165.886,67.435,11.445,20.232,29.212,0.0265,-0.3464,-0.0165,0.8955,0.0000,0.0000,0.0000
77.621,Crosswind,5312.577,22.743,5312.318,22.743,2295.109,2295.120,165.591,66.768,11.999,19.646,29.473,0.0175,-0.3174,-0.0157,0.9003,0.0000,0.0000,0.0000
77.828,Crosswind,5329.463,25.600,5329.204,25.600,2308.374,2308.386,165.335,65.850,12.487,19.034,29.686,0.0100,-0.3002,-0.0148,0.9045,0.0000,0.0000,0.0000
78.031,Crosswind,5346.313,28.624,5346.054,28.624,2322.509,2322.520,165.100,64.571,12.951,18.360,29.873,0.0035,-0.3912,-0.0139,0.9083,0.0000,0.0000,0.0000
78.221,Crosswind,5363.133,31.809,5362.874,31.809,2334.230,2334.241,164.931,63.266,13.320,17.830,30.004,-0.0007,-0.4767,-0.0131,0.9110,0.0000,0.0000,0.0000
78.431,Crosswind,5379.930,35.150,5379.671,35.150,2347.752,2347.763,164.765,61.520,13.771,17.310,30.140,-0.0049,-0.5712,-0.0123,0.9133,0.0000,0.0000,0.0000
78.621,Crosswind,5396.706,38.644,5396.447,38.644,2358.886,2358.897,164.649,59.933,14.192,16.996,30.243,-0.0073,-0.6569,-0.0117,0.9149,0.0000,0.0000,0.0000
78.832,Crosswind,5413.464,42.287,5413.205,42.287,2371.664,2371.675,164.536,58.019,14.765,16.804,30.352,-0.0097,-0.7517,-0.0112,0.9165,0.0000,0.0000,0.0000
79.023,Crosswind,5430.203,46.081,5429.944,46.081,2382.155,2382.167,164.455,56.445,15.330,16.808,30.434,-0.0107,-0.8000,-0.0109,0.9176,0.0000,0.0000,0.0000
79.227,Crosswind,5446.922,50.029,5446.663,50.029,2393.284,2393.295,164.381,54.873,16.036,16.979,30.513,-0.0113,-0.7948,-0.0107,0.9187,0.0000,0.0000,0.0000
79.429,Crosswind,5463.615,54.137,5463.356,54.137,2404.119,2404.131,164.314,53.524,16.817,17.282,30.574,-0.0111,-0.7646,-0.0107,0.9196,0.0000,0.0000,0.0000
79.629,Crosswind,5480.276,58.410,5480.017,58.410,2414.710,2414.722,164.251,52.433,17.649,17.661,30.612,-0.0099,-0.7346,-0.0107,0.9205,0.0000,0.0000,0.0000
79.827,Crosswind,5496.899,62.856,5496.640,62.856,2425.110,2425.121,164.188,51.602,18.506,18.067,30.621,-0.0079,-0.7049,-0.0109,0.9214,0.0000,0.0000,0.0000
80.025,Crosswind,5513.476,67.482,5513.217,67.482,2435.367,2435.379,164.121,51.012,19.365,18.456,30.599,-0.0049,-0.6752,-0.0111,0.9223,0.0000,0.0000,0.0000
80.220,Crosswind,5530.001,72.292,5529.742,72.292,2445.528,2445.540,164.050,50.626,20.207,18.795,30.545,-0.0012,-0.6459,-0.0114,0.9233,0.0000,0.0000,0.0000
80.431,Crosswind,5546.468,77.289,5546.208,77.289,2456.468,2456.480,163.971,50.384,21.081,19.076,30.455,0.0034,-0.6143,-0.0116,0.9244,0.0000,0.0000,0.0000
80.626,Crosswind,5562.872,82.477,5562.613,82.477,2465.694,2465.706,163.903,50.274,21.779,19.229,30.355,0.0079,-0.5851,-0.0118,0.9254,0.0000,0.0000,0.0000
80.827,Crosswind,5579.210,87.855,5578.951,87.855,2475.741,2475.753,163.832,50.200,22.489,19.298,30.228,0.0129,-0.5549,-0.0120,0.9263,0.0000,0.0000,0.0000
81.025,Crosswind,5595.481,93.422,5595.222,93.422,2485.774,2485.786,163.768,50.123,23.141,19.262,30.087,0.0179,-0.5253,-0.0121,0.9273,0.0000,0.0000,0.0000
81.229,Crosswind,5611.684,99.175,5611.425,99.175,2495.787,2495.799,163.714,49.996,23.734,19.122,29.938,0.0229,-0.4946,-0.0121,0.9278,0.0000,0.0000,0.0000
81.424,Crosswind,5627.820,105.113,5627.561,105.113,2505.766,2505.778,163.673,49.775,24.268,18.884,29.787,0.0275,-0.4653,-0.0121,0.9280,0.0000,0.0000,0.0000
81.626,Crosswind,5643.891,111.229,5643.632,111.229,2515.688,2515.700,163.649,49.424,24.747,18.556,29.640,0.0318,-0.4351,-0.0121,0.9280,0.0000,0.0000,0.0000
81.822,Crosswind,5659.901,117.520,5659.642,117.520,2525.524,2525.536,163.644,48.907,25.176,18.149,29.500,0.0357,-0.5069,-0.0121,0.9277,0.0000,0.0000,0.0000
82.031,Crosswind,5675.854,123.980,5675.595,123.980,2535.237,2535.249,163.655,48.187,25.584,17.712,29.379,0.0389,-0.6005,-0.0120,0.9272,0.0000,0.0000,0.0000
82.222,Crosswind,5691.755,130.603,5691.496,130.603,2544.787,2544.799,163.683,47.285,26.008,17.308,29.286,0.0411,-0.6868,-0.0120,0.9265,0.0000,0.0000,0.0000
82.421,Crosswind,5707.606,137.385,5707.347,137.385,2554.141,2554.154,163.726,46.245,26.479,16.989,29.228,0.0421,-0.7761,-0.0119,0.9258,0.0000,0.0000,0.0000
82.625,Crosswind,5723.411,144.322,5723.152,144.322,2563.280,2563.292,163.782,45.137,27.020,16.795,29.208,0.0420,-0.8000,-0.0119,0.9249,0.0000,0.0000,0.0000
82.823,Crosswind,5739.168,151.416,5738.909,151.416,2572.198,2572.210,163.850,44.052,27.634,16.728,29.221,0.0408,-0.8000,-0.0119,0.9240,0.0000,0.0000,0.0000
83.030,Crosswind,5754.875,158.665,5754.616,158.665,2580.906,2580.918,163.925,43.045,28.309,16.765,29.259,0.0390,-0.8000,-0.0119,0.9231,0.0000,0.0000,0.0000
83.225,Crosswind,5770.529,166.075,5770.270,166.075,2589.424,2589.436,164.003,42.154,29.031,16.880,29.315,0.0368,-0.8000,-0.0119,0.9221,0.0000,0.0000,0.0000
83.428,Crosswind,5786.125,173.646,5785.866,173.646,2597.777,2597.789,164.083,41.401,29.789,17.050,29.382,0.0343,-0.7856,-0.0120,0.9212,0.0000,0.0000,0.0000
