time_s,leg,north_m,east_m,along_m,cross_m,agl_ft,altitude_ft,speed_kts,vertical_speed_fps,heading_deg,pitch_deg,roll_deg,aileron_cmd,elevator_cmd,rudder_cmd,throttle_cmd,flaps_cmd,gear_cmd,brake_cmd
0.000,Upwind,0.247,0.000,0.000,0.000,3.691,3.691,0.000,0.000,0.000,0.449,0.000,0.0000,0.0022,0.0000,0.1774,0.5000,1.0000,1.0000
0.190,Upwind,0.247,0.000,0.000,0.000,3.691,3.691,0.000,0.000,0.000,0.449,0.000,0.0000,0.0307,0.0000,0.0827,0.5000,1.0000,1.0000
0.391,Upwind,0.247,0.000,0.000,0.000,3.691,3.691,0.000,0.000,0.000,0.449,0.000,0.0000,0.0609,0.0000,0.0000,0.5000,1.0000,1.0000
0.592,Upwind,0.247,0.000,0.000,0.000,3.691,3.691,0.000,-0.001,0.000,0.450,0.000,0.0000,0.0630,0.0000,0.0000,0.5000,1.0000,1.0000
0.792,Upwind,0.247,0.000,0.000,0.000,3.691,3.691,0.000,0.000,0.000,0.450,0.000,0.0000,0.0630,0.0000,0.0176,0.5000,1.0000,0.0000
0.995,Upwind,0.247,0.000,0.000,0.000,3.691,3.691,0.000,0.000,0.000,0.450,0.000,0.0000,0.0629,0.0000,0.1191,0.5000,1.0000,0.0000
1.192,Upwind,0.247,0.000,0.000,0.000,3.691,3.691,0.000,0.000,0.000,0.450,0.000,0.0000,0.0629,0.0000,0.2174,0.5000,1.0000,0.0000
1.393,Upwind,0.247,0.000,0.000,0.000,3.691,3.691,0.000,0.000,0.000,0.450,0.000,0.0000,0.0629,0.0000,0.3183,0.5000,1.0000,0.0000
1.590,Upwind,0.247,0.000,0.000,0.000,3.691,3.691,0.000,0.000,0.000,0.449,0.000,0.0000,0.0629,0.0000,0.4167,0.5000,1.0000,0.0000
1.785,Upwind,0.247,0.000,0.000,0.000,3.691,3.691,0.000,0.000,0.000,0.449,0.000,0.0000,0.0629,0.0000,0.5142,0.5000,1.0000,0.0000
2.008,Upwind,0.247,0.000,0.000,0.000,3.691,3.691,0.000,0.000,0.000,0.449,0.000,0.0000,0.0628,0.0000,0.6255,0.5000,1.0000,0.0000
2.195,Upwind,0.247,0.000,0.000,0.000,3.691,3.691,0.002,0.000,0.000,0.449,0.000,0.0000,0.0628,0.0000,0.7189,0.5000,1.0000,0.0000
2.391,Upwind,0.247,0.000,0.001,0.000,3.691,3.691,0.011,0.000,0.000,0.449,0.000,0.0000,0.0628,0.0000,0.8172,0.5000,1.0000,0.0000
2.597,Upwind,0.249,0.000,0.003,0.000,3.691,3.691,0.028,0.000,0.000,0.449,0.000,0.0000,0.0629,0.0000,0.9203,0.5000,1.0000,0.0000
2.787,Upwind,0.254,0.000,0.007,0.000,3.691,3.691,0.056,0.000,0.000,0.449,0.000,0.0000,0.0629,0.0000,1.0000,0.5000,1.0000,0.0000
2.988,Upwind,0.262,0.000,0.015,0.000,3.691,3.691,0.097,0.000,0.000,0.449,0.000,0.0000,0.0629,0.0000,1.0000,0.5000,1.0000,0.0000
3.194,Upwind,0.275,0.000,0.029,0.000,3.691,3.691,0.153,0.000,0.000,0.449,0.000,0.0000,0.0629,0.0000,1.0000,0.5000,1.0000,0.0000
3.388,Upwind,0.295,0.000,0.049,0.000,3.691,3.691,0.227,0.000,0.000,0.449,0.000,0.0000,0.0629,0.0000,1.0000,0.5000,1.0000,0.0000
3.586,Upwind,0.324,0.000,0.077,0.000,3.691,3.691,0.323,0.000,0.000,0.449,0.000,0.0000,0.0629,0.0000,1.0000,0.5000,1.0000,0.0000
3.795,Upwind,0.364,0.000,0.118,0.000,3.691,3.691,0.443,0.000,0.000,0.449,0.000,0.0000,0.0629,0.0000,1.0000,0.5000,1.0000,0.0000
3.996,Upwind,0.419,0.000,0.172,0.000,3.691,3.691,0.593,0.000,0.000,0.450,0.000,0.0000,0.0630,0.0000,1.0000,0.5000,1.0000,0.0000
4.185,Upwind,0.484,0.000,0.237,0.000,3.691,3.691,0.777,0.000,0.000,0.450,0.000,0.0000,0.0630,0.0000,1.0000,0.5000,1.0000,0.0000
4.387,Upwind,0.583,0.000,0.337,0.000,3.691,3.691,1.001,0.000,0.000,0.450,0.000,0.0000,0.0630,0.0000,1.0000,0.5000,1.0000,0.0000
4.590,Upwind,0.702,0.000,0.456,0.000,3.691,3.691,1.272,0.000,0.000,0.450,0.000,0.0000,0.0631,0.0000,1.0000,0.5000,1.0000,0.0000
4.795,Upwind,0.852,0.000,0.606,0.000,3.691,3.691,1.596,0.000,0.000,0.450,0.000,0.0000,0.0631,0.0000,1.0000,0.5000,1.0000,0.0000
4.995,Upwind,1.039,0.000,0.792,0.000,3.691,3.691,1.982,0.000,0.000,0.451,0.000,0.0000,0.0631,0.0000,1.0000,0.5000,1.0000,0.0000
5.192,Upwind,1.270,0.000,1.023,0.000,3.691,3.691,2.436,0.000,0.000,0.451,0.000,0.0000,0.0632,0.0000,1.0000,0.5000,1.0000,0.0000
5.386,Upwind,1.551,0.000,1.305,0.000,3.691,3.691,2.968,0.000,0.000,0.452,0.000,0.0000,0.0633,0.0000,1.0000,0.5000,1.0000,0.0000
5.594,Upwind,1.893,0.000,1.646,0.000,3.691,3.691,3.585,0.000,0.000,0.452,0.000,0.0000,0.0633,0.0000,1.0000,0.5000,1.0000,0.0000
5.788,Upwind,2.304,0.000,2.057,0.000,3.691,3.691,4.295,0.000,0.000,0.452,0.000,0.0000,0.0634,0.0000,1.0000,0.5000,1.0000,0.0000
6.000,Upwind,2.793,0.000,2.547,0.000,3.691,3.691,5.106,0.000,0.000,0.453,0.000,0.0000,0.0634,0.0000,1.0000,0.5000,1.0000,0.0000
6.185,Upwind,3.321,0.000,3.074,0.000,3.691,3.691,6.025,0.000,0.000,0.453,0.000,0.0000,0.0635,0.0000,1.0000,0.5000,1.0000,0.0000
6.393,Upwind,4.054,0.000,3.807,0.000,3.691,3.691,7.058,0.000,0.000,0.454,0.000,0.0000,0.0636,0.0000,1.0000,0.5000,1.0000,0.0000
6.587,Upwind,4.849,0.000,4.602,0.000,3.691,3.691,8.213,0.001,0.000,0.454,0.000,0.0000,0.0637,0.0000,1.0000,0.5000,1.0000,0.0000
6.788,Upwind,5.769,0.000,5.522,0.000,3.691,3.691,9.480,0.001,0.000,0.455,0.000,0.0000,0.0637,0.0000,1.0000,0.5000,1.0000,0.0000
6.996,Upwind,6.822,0.000,6.575,0.000,3.691,3.691,10.765,0.001,0.000,0.455,0.000,0.0000,0.0636,0.0000,1.0000,0.5000,1.0000,0.0000
7.190,Upwind,8.006,0.000,7.760,0.000,3.691,3.692,12.049,0.001,0.000,0.454,0.000,0.0000,0.0636,0.0000,1.0000,0.5000,1.0000,0.0000
7.392,Upwind,9.323,0.000,9.077,0.000,3.692,3.692,13.332,0.001,0.000,0.454,0.000,0.0000,0.0635,0.0000,1.0000,0.5000,1.0000,0.0000
7.593,Upwind,10.772,0.000,10.525,0.000,3.692,3.692,14.614,0.001,0.000,0.454,0.000,0.0000,0.0635,0.0000,1.0000,0.5000,1.0000,0.0000
7.794,Upwind,12.352,0.000,12.106,0.000,3.692,3.692,15.895,0.001,0.000,0.453,0.000,0.0000,0.0634,0.0000,1.0000,0.5000,1.0000,0.0000
8.005,Upwind,14.213,0.000,13.967,0.000,3.693,3.693,17.175,0.002,0.000,0.453,0.000,0.0000,0.0634,0.0000,1.0000,0.5000,1.0000,0.0000
8.188,Upwind,15.909,0.000,15.662,0.000,3.693,3.693,18.454,0.002,0.000,0.453,0.000,0.0000,0.0633,0.0000,1.0000,0.5000,1.0000,0.0000
8.397,Upwind,17.884,0.000,17.638,0.000,3.693,3.693,19.731,0.002,0.000,0.452,0.000,0.0000,0.0632,0.0000,1.0000,0.5000,1.0000,0.0000
8.589,Upwind,19.991,0.000,19.745,0.000,3.694,3.694,21.008,0.002,0.000,0.452,0.000,0.0000,0.0632,0.0000,1.0000,0.5000,1.0000,0.0000
8.786,Upwind,22.229,0.000,21.983,0.000,3.694,3.694,22.283,0.002,0.000,0.451,0.000,0.0000,0.0631,0.0000,1.0000,0.5000,1.0000,0.0000
8.988,Upwind,24.598,0.000,24.352,0.000,3.694,3.694,23.557,0.002,0.000,0.450,0.000,0.0000,0.0630,0.0000,1.0000,0.5000,1.0000,0.0000
9.186,Upwind,26.885,0.000,26.639,0.000,3.695,3.695,24.829,0.003,0.000,0.450,0.000,0.0000,0.0629,0.0000,1.0000,0.5000,1.0000,0.0000
9.390,Upwind,29.730,0.000,29.483,0.000,3.696,3.696,26.101,0.003,0.000,0.449,0.000,0.0000,0.0628,0.0000,1.0000,0.5000,1.0000,0.0000
9.595,Upwind,32.492,0.000,32.245,0.000,3.696,3.696,27.371,0.003,0.000,0.448,0.000,0.0000,0.0627,0.0000,1.0000,0.5000,1.0000,0.0000
9.794,Upwind,35.384,0.000,35.137,0.000,3.697,3.697,28.640,0.003,0.000,0.447,0.000,0.0000,0.0625,0.0000,1.0000,0.5000,1.0000,0.0000
9.994,Upwind,38.407,0.000,38.160,0.000,3.697,3.697,29.907,0.004,0.000,0.446,0.000,0.0000,0.0624,0.0000,1.0000,0.5000,1.0000,0.0000
10.192,Upwind,41.560,0.000,41.314,0.000,3.698,3.698,31.173,0.004,0.000,0.446,0.000,0.0000,0.0623,0.0000,1.0000,0.5000,1.0000,0.0000
10.386,Upwind,44.565,0.001,44.318,0.001,3.699,3.699,32.437,0.004,0.000,0.445,0.000,0.0000,0.0621,0.0000,1.0000,0.5000,1.0000,0.0000
10.592,Upwind,48.257,0.001,48.010,0.001,3.700,3.700,33.700,0.004,0.000,0.444,0.000,0.0000,0.0620,0.0000,1.0000,0.5000,1.0000,0.0000
10.789,Upwind,51.800,0.001,51.553,0.001,3.700,3.701,34.962,0.004,0.000,0.442,0.000,0.0000,0.0618,0.0000,1.0000,0.5000,1.0000,0.0000
10.999,Upwind,55.473,0.001,55.226,0.001,3.701,3.701,36.221,0.005,0.000,0.441,0.000,0.0000,0.0616,0.0000,1.0000,0.5000,1.0000,0.0000
11.197,Upwind,59.275,0.001,59.029,0.001,3.702,3.702,37.480,0.005,0.000,0.440,0.000,0.0000,0.0615,0.0000,1.0000,0.5000,1.0000,0.0000
11.390,Upwind,63.207,0.001,62.961,0.001,3.703,3.703,38.737,0.005,0.000,0.439,0.000,0.0000,0.0613,0.0000,1.0000,0.5000,1.0000,0.0000
11.595,Upwind,67.268,0.001,67.022,0.001,3.704,3.704,39.992,0.005,0.000,0.437,0.000,0.0000,0.0611,0.0000,1.0000,0.5000,1.0000,0.0000
11.792,Upwind,71.459,0.001,71.212,0.001,3.705,3.705,41.245,0.006,0.000,0.436,0.000,0.0000,0.0609,0.0000,1.0000,0.5000,1.0000,0.0000
11.992,Upwind,75.778,0.001,75.531,0.001,3.707,3.707,42.497,0.006,0.000,0.434,0.000,0.0000,0.0607,0.0000,1.0000,0.5000,1.0000,0.0000
12.185,Upwind,79.850,0.001,79.603,0.001,3.708,3.708,43.746,0.006,0.000,0.433,0.000,0.0000,0.0604,0.0000,1.0000,0.5000,1.0000,0.0000
12.398,Upwind,84.801,0.001,84.555,0.001,3.709,3.709,44.994,0.007,0.000,0.431,0.000,0.0000,0.0602,0.0000,1.0000,0.5000,1.0000,0.0000
12.594,Upwind,89.506,0.002,89.259,0.002,3.711,3.711,46.240,0.007,0.000,0.429,0.000,-0.0001,0.0599,0.0000,1.0000,0.5000,1.0000,0.0000
12.793,Upwind,94.338,0.002,94.092,0.002,3.712,3.712,47.484,0.008,0.000,0.427,0.000,-0.0001,0.0596,0.0000,1.0000,0.5000,1.0000,0.0000
12.994,Upwind,99.299,0.002,99.052,0.002,3.714,3.714,48.727,0.008,0.000,0.425,0.000,-0.0001,0.0593,0.0000,1.0000,0.5000,1.0000,0.0000
13.195,Upwind,104.387,0.002,104.140,0.002,3.715,3.715,49.966,0.009,0.000,0.423,0.000,-0.0001,0.0590,0.0000,1.0000,0.5000,1.0000,0.0000
13.390,Upwind,109.602,0.002,109.356,0.002,3.717,3.717,51.204,0.009,0.001,0.421,0.000,-0.0001,0.0587,0.0000,1.0000,0.5000,1.0000,0.0000
13.587,Upwind,114.945,0.002,114.698,0.002,3.719,3.719,52.440,0.009,0.001,0.419,0.000,-0.0001,0.0584,0.0000,1.0000,0.5000,1.0000,0.0000
13.787,Upwind,120.415,0.003,120.168,0.003,3.721,3.721,53.673,0.010,0.001,0.416,0.000,-0.0001,0.0580,0.0000,1.0000,0.5000,1.0000,0.0000
13.988,Upwind,126.011,0.003,125.765,0.003,3.723,3.723,54.904,0.010,0.001,0.414,0.000,-0.0001,0.0577,0.0000,1.0000,0.5000,1.0000,0.0000
14.195,Upwind,131.734,0.003,131.488,0.003,3.725,3.725,56.133,0.009,0.001,0.411,0.000,-0.0001,0.0573,0.0000,1.0000,0.5000,1.0000,0.0000
14.393,Upwind,137.584,0.003,137.337,0.003,3.726,3.726,57.360,0.008,0.001,0.409,0.000,-0.0001,0.0570,0.0000,1.0000,0.5000,1.0000,0.0000
14.597,Upwind,143.559,0.004,143.313,0.004,3.728,3.728,58.584,0.008,0.001,0.407,0.000,-0.0001,0.0568,0.0000,1.0000,0.5000,1.0000,0.0000
14.791,Upwind,149.661,0.004,149.414,0.004,3.729,3.729,59.807,0.008,0.001,0.405,0.000,-0.0001,0.0565,0.0000,1.0000,0.5000,1.0000,0.0000
14.987,Upwind,155.888,0.004,155.641,0.004,3.731,3.731,61.028,0.008,0.001,0.403,0.000,-0.0001,0.0562,0.0000,1.0000,0.5000,1.0000,0.0000
15.196,Upwind,162.240,0.005,161.993,0.005,3.733,3.733,62.246,0.008,0.001,0.401,0.000,-0.0001,0.0559,0.0000,1.0000,0.5000,1.0000,0.0000
15.388,Upwind,168.718,0.005,168.471,0.005,3.734,3.734,63.462,0.009,0.001,0.398,0.000,-0.0002,0.0556,0.0000,1.0000,0.5000,1.0000,0.0000
15.594,Upwind,175.320,0.005,175.074,0.005,3.736,3.736,64.676,0.009,0.001,0.396,0.000,-0.0002,0.0552,0.0000,1.0000,0.5000,1.0000,0.0000
15.790,Upwind,182.048,0.006,181.801,0.006,3.738,3.738,65.888,0.009,0.001,0.394,0.000,-0.0002,0.0549,0.0000,1.0000,0.5000,1.0000,0.0000
15.991,Upwind,188.900,0.006,188.654,0.006,3.740,3.740,67.098,0.009,0.002,0.392,0.000,-0.0002,0.0546,0.0000,1.0000,0.5000,1.0000,0.0000
16.196,Upwind,195.877,0.007,195.630,0.007,3.741,3.741,68.305,0.009,0.002,0.389,0.000,-0.0002,0.0543,0.0000,1.0000,0.5000,1.0000,0.0000
16.391,Upwind,202.977,0.007,202.731,0.007,3.743,3.743,69.511,0.009,0.002,0.387,0.000,-0.0002,0.0539,0.0000,1.0000,0.5000,1.0000,0.0000
16.586,Upwind,209.595,0.007,209.348,0.007,3.745,3.745,70.714,0.009,0.002,0.385,0.000,-0.0002,0.0536,0.0000,1.0000,0.5000,1.0000,0.0000
16.788,Upwind,217.550,0.008,217.303,0.008,3.747,3.747,71.914,0.010,0.002,0.382,0.000,-0.0003,0.0533,0.0000,1.0000,0.5000,1.0000,0.0000
16.995,Upwind,225.021,0.009,224.775,0.009,3.749,3.749,73.113,0.010,0.002,0.380,0.000,-0.0003,0.0529,0.0000,1.0000,0.5000,1.0000,0.0000
17.195,Upwind,232.616,0.009,232.369,0.009,3.751,3.751,74.309,0.010,0.002,0.377,0.000,-0.0003,0.0526,0.0000,1.0000,0.5000,1.0000,0.0000
17.393,Upwind,240.333,0.010,240.087,0.010,3.753,3.753,75.503,0.010,0.003,0.375,0.000,-0.0003,0.0522,0.0000,1.0000,0.5000,1.0000,0.0000
17.586,Upwind,248.174,0.010,247.927,0.010,3.755,3.755,76.694,0.010,0.003,0.372,0.000,-0.0003,0.0518,0.0000,1.0000,0.5000,1.0000,0.0000
17.793,Upwind,256.136,0.011,255.890,0.011,3.757,3.757,77.883,0.010,0.003,0.370,0.000,-0.0003,0.0515,0.0000,1.0000,0.5000,1.0000,0.0000
17.985,Upwind,263.543,0.012,263.296,0.012,3.759,3.759,79.069,0.010,0.003,0.367,0.000,-0.0004,0.0511,0.0000,1.0000,0.5000,1.0000,0.0000
18.188,Upwind,272.428,0.013,272.181,0.013,3.761,3.761,80.253,0.010,0.003,0.364,0.000,-0.0004,0.0507,0.0000,1.0000,0.5000,1.0000,0.0000
18.396,Upwind,280.757,0.013,280.510,0.013,3.763,3.763,81.435,0.011,0.003,0.362,0.000,-0.0004,0.0504,0.0000,1.0000,0.5000,1.0000,0.0000
18.590,Upwind,289.207,0.014,288.960,0.014,3.765,3.765,82.614,0.011,0.004,0.359,0.000,-0.0004,0.0500,0.0000,1.0000,0.5000,1.0000,0.0000
18.796,Upwind,297.778,0.015,297.531,0.015,3.767,3.767,83.791,0.011,0.004,0.356,0.000,-0.0005,0.0496,0.0000,1.0000,0.5000,1.0000,0.0000
18.996,Upwind,306.470,0.016,306.223,0.016,3.769,3.769,84.965,0.011,0.004,0.353,0.000,-0.0005,0.0492,0.0000,1.0000,0.5000,1.0000,0.0000
19.188,Upwind,315.282,0.017,315.036,0.017,3.772,3.772,86.137,0.011,0.004,0.351,0.000,-0.0005,0.0488,0.0000,1.0000,0.5000,1.0000,0.0000
19.386,Upwind,323.467,0.018,323.220,0.018,3.774,3.774,87.306,0.011,0.004,0.348,0.000,-0.0005,0.0484,0.0000,1.0000,0.5000,1.0000,0.0000
19.591,Upwind,333.269,0.019,333.022,0.019,3.776,3.776,88.472,0.011,0.005,0.345,0.000,-0.0006,0.0480,0.0000,1.0000,0.5000,1.0000,0.0000
19.787,Upwind,342.442,0.020,342.195,0.020,3.778,3.778,89.636,0.011,0.005,0.342,0.000,-0.0006,0.0476,0.0000,1.0000,0.5000,1.0000,0.0000
19.995,Upwind,351.735,0.022,351.488,0.022,3.781,3.781,90.798,0.012,0.005,0.339,0.000,-0.0006,0.0472,0.0000,1.0000,0.5000,1.0000,0.0000
20.186,Upwind,361.147,0.023,360.900,0.023,3.783,3.783,91.860,0.012,0.005,0.336,0.000,-0.0007,0.0468,0.0000,1.0000,0.5000,1.0000,0.0000
20.394,Upwind,370.678,0.024,370.431,0.024,3.785,3.785,93.113,0.012,0.006,0.333,0.000,-0.0007,0.0463,0.0000,1.0000,0.5000,1.0000,0.0000
20.586,Upwind,379.519,0.025,379.273,0.025,3.788,3.788,94.266,0.012,0.006,0.330,0.000,-0.0007,0.0459,0.0000,1.0000,0.5000,1.0000,0.0000
20.792,Upwind,390.097,0.027,389.850,0.027,3.790,3.790,95.417,0.012,0.006,0.327,0.000,-0.0008,0.0455,0.0000,1.0000,0.5000,1.0000,0.0000
20.996,Upwind,399.983,0.029,399.737,0.029,3.792,3.792,96.565,0.012,0.007,0.324,0.000,-0.0008,0.0451,0.0000,1.0000,0.5000,1.0000,0.0000
21.187,Upwind,409.988,0.030,409.741,0.030,3.795,3.795,97.710,0.012,0.007,0.321,0.000,-0.0008,0.0446,0.0000,1.0000,0.5000,1.0000,0.0000
21.394,Upwind,420.110,0.032,419.864,0.032,3.797,3.797,98.853,0.012,0.007,0.318,0.000,-0.0009,0.0442,0.0000,1.0000,0.5000,1.0000,0.0000
21.596,Upwind,430.350,0.034,430.104,0.034,3.800,3.800,99.993,0.012,0.008,0.315,0.000,-0.0009,0.0438,0.0000,1.0000,0.5000,1.0000,0.0000
21.793,Upwind,440.707,0.036,440.460,0.036,3.802,3.802,101.130,0.013,0.008,0.312,0.000,-0.0010,0.0433,0.0000,1.0000,0.5000,1.0000,0.0000
21.995,Upwind,451.181,0.037,450.934,0.037,3.805,3.805,102.265,0.013,0.008,0.309,0.000,-0.0010,0.0429,0.0000,1.0000,0.5000,1.0000,0.0000
22.193,Upwind,461.771,0.039,461.525,0.039,3.807,3.807,103.396,0.013,0.009,0.305,0.000,-0.0010,0.0424,0.0000,1.0000,0.5000,1.0000,0.0000
22.390,Upwind,472.478,0.042,472.231,0.042,3.810,3.810,104.525,0.013,0.009,0.302,0.000,-0.0011,0.0420,0.0000,1.0000,0.5000,1.0000,0.0000
22.593,Upwind,483.300,0.044,483.054,0.044,3.812,3.812,105.651,0.013,0.009,0.299,0.000,-0.0011,0.0415,0.0000,1.0000,0.5000,1.0000,0.0000
22.786,Upwind,494.239,0.046,493.992,0.046,3.815,3.815,106.775,0.013,0.010,0.296,0.000,-0.0012,0.0411,0.0000,1.0000,0.5000,1.0000,0.0000
22.996,Upwind,505.293,0.048,505.046,0.048,3.817,3.817,107.895,0.013,0.010,0.292,0.000,-0.0012,0.0406,0.0000,1.0000,0.5000,1.0000,0.0000
23.188,Upwind,516.461,0.051,516.215,0.051,3.820,3.820,109.013,0.013,0.010,0.289,0.000,-0.0013,0.0401,0.0000,1.0000,0.5000,1.0000,0.0000
23.386,Upwind,527.745,0.054,527.499,0.054,3.823,3.823,110.127,0.013,0.011,0.286,0.000,-0.0013,0.0397,0.0000,1.0000,0.5000,1.0000,0.0000
23.588,Upwind,539.143,0.056,538.897,0.056,3.825,3.825,111.239,0.013,0.011,0.282,0.000,-0.0014,0.0392,0.0000,1.0000,0.5000,1.0000,0.0000
23.793,Upwind,550.656,0.059,550.409,0.059,3.828,3.828,112.348,0.013,0.012,0.279,-0.001,-0.0014,0.0387,0.0000,1.0000,0.5000,1.0000,0.0000
23.991,Upwind,562.282,0.062,562.035,0.062,3.831,3.831,113.454,0.014,0.012,0.276,-0.001,-0.0015,0.0383,0.0000,1.0000,0.5000,1.0000,0.0000
24.185,Upwind,573.039,0.065,572.793,0.065,3.833,3.833,114.557,0.014,0.012,0.272,-0.001,-0.0015,0.0378,0.0000,1.0000,0.5000,1.0000,0.0000
24.393,Upwind,585.875,0.068,585.628,0.068,3.836,3.836,115.657,0.014,0.013,0.269,-0.001,-0.0016,0.0373,0.0000,1.0000,0.5000,1.0000,0.0000
24.593,Upwind,597.841,0.072,597.595,0.072,3.839,3.839,116.754,0.014,0.013,0.265,-0.001,-0.0016,0.0368,0.0000,1.0000,0.5000,1.0000,0.0000
24.792,Upwind,609.920,0.075,609.674,0.075,3.841,3.841,117.849,0.014,0.014,0.262,-0.001,-0.0017,0.0363,0.0000,1.0000,0.5000,1.0000,0.0000
24.996,Upwind,622.112,0.079,621.865,0.079,3.844,3.844,118.940,0.014,0.014,0.259,-0.001,-0.0018,0.0359,0.0000,1.0000,0.5000,1.0000,0.0000
25.189,Upwind,634.415,0.082,634.169,0.082,3.847,3.847,120.028,0.014,0.015,0.255,-0.001,-0.0018,0.0354,0.0000,1.0000,0.5000,1.0000,0.0000
25.394,Upwind,646.831,0.086,646.584,0.086,3.850,3.850,121.114,0.014,0.015,0.252,-0.001,-0.0019,0.0349,0.0000,1.0000,0.5000,1.0000,0.0000
25.586,Upwind,659.358,0.090,659.111,0.090,3.853,3.853,122.196,0.014,0.016,0.248,-0.001,-0.0020,0.0344,0.0000,1.0000,0.5000,1.0000,0.0000
25.787,Upwind,671.996,0.094,671.749,0.094,3.855,3.855,123.275,0.014,0.016,0.245,-0.001,-0.0020,0.0339,0.0000,1.0000,0.5000,1.0000,0.0000
25.994,Upwind,684.745,0.098,684.498,0.098,3.858,3.858,124.351,0.014,0.017,0.241,-0.001,-0.0021,0.0334,0.0000,1.0000,0.5000,1.0000,0.0000
26.189,Upwind,697.604,0.103,697.357,0.103,3.861,3.861,125.425,0.014,0.017,0.237,-0.001,-0.0022,0.0329,0.0000,1.0000,0.5000,1.0000,0.0000
26.385,Upwind,709.489,0.107,709.242,0.107,3.864,3.864,126.495,0.014,0.018,0.234,-0.001,-0.0022,0.0324,0.0000,1.0000,0.5000,1.0000,0.0000
26.588,Upwind,723.653,0.112,723.407,0.112,3.867,3.867,127.562,0.014,0.018,0.230,-0.001,-0.0023,0.0319,0.0000,1.0000,0.5000,1.0000,0.0000
26.787,Upwind,736.842,0.117,736.596,0.117,3.870,3.870,128.626,0.015,0.019,0.227,-0.001,-0.0024,0.0314,0.0000,1.0000,0.5000,1.0000,0.0000
26.990,Upwind,750.141,0.122,749.894,0.122,3.873,3.873,129.687,0.015,0.019,0.223,-0.002,-0.0024,0.0309,0.0000,1.0000,0.5000,1.0000,0.0000
27.191,Upwind,763.548,0.127,763.302,0.127,3.875,3.875,130.745,0.015,0.020,0.219,-0.002,-0.0025,0.0304,0.0000,1.0000,0.5000,1.0000,0.0000
27.391,Upwind,777.065,0.132,776.818,0.132,3.878,3.878,131.799,0.015,0.020,0.216,-0.002,-0.0026,0.0299,0.0000,1.0000,0.5000,1.0000,0.0000
27.595,Upwind,790.689,0.138,790.442,0.138,3.881,3.881,132.851,0.015,0.021,0.212,-0.002,-0.0027,0.0293,0.0000,1.0000,0.5000,1.0000,0.0000
27.795,Upwind,804.422,0.144,804.175,0.144,3.884,3.884,133.900,0.015,0.021,0.209,-0.002,-0.0027,0.0288,0.0000,1.0000,0.5000,1.0000,0.0000
27.991,Upwind,818.262,0.149,818.016,0.149,3.887,3.887,134.947,0.015,0.022,0.205,-0.002,-0.0028,0.0283,0.0000,1.0000,0.5000,1.0000,0.0000
28.191,Upwind,832.210,0.155,831.963,0.155,3.890,3.890,135.991,0.015,0.023,0.201,-0.002,-0.0029,0.0278,0.0000,1.0000,0.5000,1.0000,0.0000
28.394,Upwind,846.265,0.162,846.018,0.162,3.893,3.893,137.032,0.015,0.023,0.198,-0.002,-0.0030,0.0273,0.0000,1.0000,0.5000,1.0000,0.0000
28.585,Upwind,859.243,0.168,858.996,0.168,3.896,3.896,138.070,0.015,0.024,0.194,-0.002,-0.0031,0.0268,0.0000,1.0000,0.5000,1.0000,0.0000
28.788,Upwind,874.696,0.175,874.449,0.175,3.899,3.899,139.106,0.015,0.024,0.190,-0.002,-0.0032,0.0262,0.0000,1.0000,0.5000,1.0000,0.0000
28.990,Upwind,889.071,0.182,888.825,0.182,3.902,3.902,140.139,0.015,0.025,0.186,-0.002,-0.0032,0.0257,0.0000,1.0000,0.5000,1.0000,0.0000
29.194,Upwind,903.552,0.189,903.306,0.189,3.905,3.905,141.170,0.015,0.025,0.183,-0.003,-0.0033,0.0252,0.0000,1.0000,0.5000,1.0000,0.0000
29.391,Upwind,918.140,0.196,917.893,0.196,3.908,3.908,142.198,0.015,0.026,0.179,-0.003,-0.0034,0.0247,0.0000,1.0000,0.5000,1.0000,0.0000
29.590,Upwind,932.833,0.203,932.586,0.203,3.911,3.911,143.223,0.015,0.027,0.175,-0.003,-0.0035,0.0241,0.0000,1.0000,0.5000,1.0000,0.0000
29.788,Upwind,947.631,0.211,947.384,0.211,3.914,3.914,144.245,0.015,0.027,0.171,-0.003,-0.0036,0.0236,0.0000,1.0000,0.5000,1.0000,0.0000
29.996,Upwind,962.534,0.219,962.287,0.219,3.917,3.917,145.265,0.015,0.028,0.168,-0.003,-0.0037,0.0231,0.0000,1.0000,0.5000,1.0000,0.0000
30.186,Upwind,977.542,0.227,977.295,0.227,3.921,3.921,146.282,0.016,0.028,0.164,-0.003,-0.0038,0.0225,0.0000,1.0000,0.5000,1.0000,0.0000
30.393,Upwind,992.654,0.235,992.408,0.235,3.924,3.924,147.296,0.016,0.029,0.160,-0.003,-0.0039,0.0220,0.0000,1.0000,0.5000,1.0000,0.0000
30.595,Upwind,1007.871,0.243,1007.624,0.243,3.927,3.927,148.307,0.016,0.029,0.156,-0.003,-0.0040,0.0215,0.0000,1.0000,0.5000,1.0000,0.0000
30.786,Upwind,1021.911,0.251,1021.664,0.251,3.930,3.930,149.316,0.016,0.030,0.152,-0.004,-0.0041,0.0209,0.0000,1.0000,0.5000,1.0000,0.0000
30.989,Upwind,1038.615,0.261,1038.369,0.261,3.933,3.933,150.322,0.016,0.031,0.148,-0.004,-0.0042,-0.0060,0.0000,1.0000,0.5000,1.0000,0.0000
31.194,Upwind,1054.143,0.270,1053.896,0.270,3.935,3.935,151.324,0.005,0.031,0.151,-0.004,-0.0043,-0.0982,0.0000,1.0000,0.5000,1.0000,0.0000
31.397,Upwind,1069.773,0.279,1069.526,0.279,3.935,3.935,152.319,-0.007,0.032,0.168,-0.004,-0.0043,-0.1893,0.0000,1.0000,0.5000,1.0000,0.0000
31.587,Upwind,1085.505,0.289,1085.258,0.289,3.933,3.933,153.305,-0.007,0.033,0.187,-0.004,-0.0045,-0.2749,0.0000,1.0000,0.5000,1.0000,0.0000
31.790,Upwind,1101.338,0.299,1101.091,0.299,3.932,3.932,154.283,-0.002,0.033,0.204,-0.004,-0.0046,-0.3663,0.0000,1.0000,0.5000,1.0000,0.0000
31.995,Upwind,1117.271,0.309,1117.024,0.309,3.932,3.932,155.253,0.004,0.034,0.221,-0.005,-0.0047,-0.4585,0.0000,1.0000,0.5000,1.0000,0.0000
32.191,Upwind,1133.303,0.319,1133.057,0.319,3.935,3.935,156.213,0.029,0.035,0.266,-0.005,-0.0048,-0.5470,0.0000,1.0000,0.5000,1.0000,0.0000
32.389,Upwind,1149.434,0.329,1149.187,0.329,3.945,3.945,157.165,0.066,0.035,0.389,-0.005,-0.0049,-0.6359,0.0000,1.0000,0.5000,1.0000,0.0000
32.593,Upwind,1165.662,0.340,1165.415,0.340,3.963,3.963,158.107,0.125,0.036,0.629,-0.005,-0.0050,-0.6500,0.0000,1.0000,0.5000,1.0000,0.0000
32.799,Upwind,1181.986,0.351,1181.740,0.351,3.995,3.995,159.042,0.190,0.037,0.996,-0.005,-0.0051,-0.6500,0.0000,1.0000,0.5000,1.0000,0.0000
32.990,Upwind,1198.406,0.362,1198.160,0.362,4.038,4.038,159.969,0.244,0.038,1.479,-0.005,-0.0053,-0.6500,0.0000,1.0000,0.5000,1.0000,0.0000
33.196,Upwind,1214.922,0.374,1214.675,0.374,4.092,4.092,160.888,0.292,0.038,2.069,-0.006,-0.0054,-0.6500,0.0000,1.0000,0.5000,1.0000,0.0000
33.393,Upwind,1231.530,0.386,1231.284,0.386,4.155,4.155,161.795,0.334,0.039,2.757,-0.006,-0.0055,-0.6500,0.0000,1.0000,0.5000,1.0000,0.0000
33.591,Upwind,1248.232,0.398,1247.985,0.398,4.225,4.225,162.689,0.371,0.040,3.533,-0.006,-0.0056,-0.6500,0.0000,1.0000,0.5000,1.0000,0.0000
33.792,Upwind,1265.025,0.410,1264.778,0.410,4.316,4.316,163.564,0.618,0.041,4.382,-0.009,-0.0053,-0.6500,0.0000,1.0000,0.5000,1.0000,0.0000
33.992,Upwind,1281.905,0.423,1281.659,0.423,4.507,4.507,164.411,1.380,0.041,5.271,-0.017,-0.0048,-0.6500,0.0000,1.0000,0.5000,1.0000,0.0000
34.194,Upwind,1298.871,0.436,1298.625,0.436,4.899,4.899,165.221,2.612,0.042,6.164,-0.028,-0.0043,-0.6500,0.0000,1.0000,0.5000,1.0000,0.0000
34.395,Upwind,1315.917,0.449,1315.670,0.448,5.579,5.579,165.989,4.247,0.042,7.036,-0.043,-0.0037,-0.6500,0.0000,1.0000,0.5000,1.0000,0.0000
34.595,Upwind,1333.037,0.461,1332.790,0.461,6.619,6.619,166.711,6.204,0.042,7.867,-0.058,-0.0032,-0.6500,0.0000,1.0000,0.5000,1.0000,0.0000
34.786,Upwind,1348.792,0.473,1348.545,0.473,8.076,8.076,167.385,8.396,0.042,8.646,-0.073,-0.0026,-0.6500,0.0000,1.0000,0.5000,1.0000,0.0000
34.986,Upwind,1366.038,0.486,1365.792,0.486,9.988,9.988,168.007,10.737,0.040,9.369,-0.088,-0.0020,-0.6500,0.0000,1.0000,0.5000,1.0000,0.0000
35.188,Upwind,1384.786,0.499,1384.539,0.499,12.379,12.379,168.578,13.193,0.039,10.037,-0.101,-0.0015,-0.6500,0.0000,1.0000,0.5000,1.0000,0.0000
35.386,Upwind,1400.695,0.509,1400.448,0.509,15.270,15.270,169.098,15.723,0.036,10.655,-0.112,-0.0010,-0.6500,0.0000,1.0000,0.5000,1.0000,0.0000
35.590,Upwind,1419.543,0.521,1419.296,0.521,18.670,18.670,169.569,18.286,0.033,11.226,-0.121,-0.0005,-0.6255,0.0000,1.0000,0.5000,1.0000,0.0000
35.792,Upwind,1436.979,0.531,1436.732,0.531,22.584,22.584,169.996,20.849,0.030,11.749,-0.128,-0.0001,-0.5951,0.0001,1.0000,0.5000,1.0000,0.0000
35.991,Upwind,1454.447,0.540,1454.200,0.540,27.007,27.007,170.380,23.375,0.025,12.213,-0.132,0.0003,-0.5653,0.0001,1.0000,0.5000,1.0000,0.0000
36.189,Upwind,1471.941,0.549,1471.694,0.549,31.930,31.931,170.726,25.844,0.021,12.614,-0.135,0.0007,-0.5355,0.0001,1.0000,0.5000,1.0000,0.0000
36.399,Upwind,1489.456,0.556,1489.209,0.556,37.339,37.339,171.037,28.229,0.016,12.949,-0.135,0.0010,-0.5041,0.0001,1.0000,0.5000,1.0000,0.0000
36.594,Upwind,1506.989,0.563,1506.742,0.563,43.216,43.216,171.318,30.522,0.012,13.218,-0.134,0.0013,-0.4748,0.0001,1.0000,0.5000,1.0000,0.0000
36.790,Upwind,1524.536,0.569,1524.290,0.569,49.540,49.540,171.573,32.701,0.007,13.420,-0.131,0.0015,-0.4454,0.0001,1.0000,0.5000,1.0000,0.0000
36.995,Upwind,1542.096,0.574,1541.849,0.574,56.287,56.288,171.804,34.747,0.003,13.559,-0.127,0.0017,-0.4147,0.0001,1.0000,0.5000,1.0000,0.0000
37.186,Upwind,1559.666,0.578,1559.419,0.578,63.429,63.429,172.017,36.642,359.999,13.637,-0.122,0.0018,-0.3859,0.0001,1.0000,0.5000,1.0000,0.0000
37.393,Upwind,1577.245,0.581,1576.998,0.581,70.933,70.934,172.216,38.380,359.996,13.658,-0.115,0.0019,-0.3549,0.0001,1.0000,0.5000,1.0000,0.0000
37.587,Upwind,1594.833,0.584,1594.586,0.584,78.769,78.770,172.404,39.949,359.993,13.626,-0.109,0.0018,-0.3258,0.0001,1.0000,0.5000,1.0000,0.0000
37.791,Upwind,1612.429,0.586,1612.183,0.586,86.901,86.902,172.588,41.340,359.991,13.543,-0.102,0.0018,-0.2953,0.0000,1.0000,0.5000,1.0000,0.0000
37.992,Upwind,1630.036,0.587,1629.789,0.587,95.293,95.294,172.767,42.552,359.989,13.413,-0.095,0.0016,-0.2651,0.0000,1.0000,0.5000,1.0000,0.0000
38.189,Upwind,1647.653,0.588,1647.406,0.588,103.909,103.910,172.947,43.575,359.988,13.239,-0.088,0.0015,-0.2356,0.0000,0.9990,0.5000,1.0000,0.0000
38.388,Upwind,1665.283,0.588,1665.036,0.588,112.711,112.712,173.122,44.413,359.988,13.022,-0.082,0.0013,-0.2380,0.0000,0.9965,0.5000,1.0000,0.0000
38.593,Upwind,1682.926,0.588,1682.680,0.588,121.660,121.661,173.293,45.043,359.988,12.781,-0.075,0.0010,-0.2906,0.0000,0.9941,0.5000,1.0000,0.0000
38.795,Upwind,1700.584,0.587,1700.338,0.587,130.715,130.716,173.458,45.476,359.989,12.564,-0.069,0.0008,-0.3336,0.0000,0.9918,0.5000,1.0000,0.0000
38.994,Upwind,1718.259,0.586,1718.012,0.586,139.841,139.841,173.619,45.760,359.989,12.410,-0.064,0.0006,-0.3601,0.0000,0.9895,0.5000,1.0000,0.0000
39.187,Upwind,1735.950,0.585,1735.703,0.585,149.014,149.014,173.774,45.960,359.990,12.336,-0.060,0.0004,-0.3682,0.0000,0.9873,0.5000,1.0000,0.0000
39.393,Upwind,1753.657,0.584,1753.410,0.584,158.223,158.223,173.922,46.133,359.991,12.344,-0.056,0.0002,-0.3596,0.0000,0.9852,0.5000,1.0000,0.0000
39.597,Upwind,1771.380,0.582,1771.134,0.582,167.468,167.469,174.064,46.330,359.991,12.416,-0.053,0.0000,-0.3388,0.0000,0.9833,0.5000,1.0000,0.0000
39.790,Upwind,1789.118,0.581,1788.871,0.581,176.758,176.759,174.196,46.578,359.992,12.529,-0.050,-0.0001,-0.3120,0.0000,0.9814,0.5000,1.0000,0.0000
39.987,Upwind,1806.868,0.579,1806.622,0.579,186.104,186.105,174.319,46.890,359.992,12.656,-0.048,-0.0002,-0.2839,0.0000,0.9797,0.5000,1.0000,0.0000
40.187,Upwind,1824.630,0.577,1824.384,0.577,195.518,195.519,174.432,47.257,359.993,12.773,-0.047,-0.0002,-0.2601,0.0000,0.9781,0.5000,1.0000,0.0000
40.395,Upwind,1842.402,0.575,1842.155,0.575,205.009,205.010,174.536,47.661,359.993,12.863,-0.046,-0.0002,-0.2437,0.0000,0.9766,0.5000,1.0000,0.0000
40.597,Upwind,1860.182,0.573,1859.936,0.573,214.583,214.584,174.632,48.076,359.993,12.916,-0.045,-0.0002,-0.2354,0.0000,0.9753,0.5000,1.0000,0.0000
40.799,Upwind,1877.971,0.571,1877.724,0.571,224.239,224.240,174.720,48.477,359.993,12.934,-0.044,-0.0002,-0.2347,0.0000,0.9740,0.5000,1.0000,0.0000
40.998,Upwind,1895.767,0.568,1895.520,0.568,233.971,233.972,174.802,48.843,359.992,12.922,-0.044,-0.0002,-0.2396,0.0000,0.9729,0.5000,1.0000,0.0000
41.186,Upwind,1912.086,0.566,1911.840,0.566,243.773,243.774,174.878,49.164,359.992,12.891,-0.044,-0.0002,-0.2476,0.0000,0.9718,0.5000,1.0000,0.0000
41.405,Upwind,1932.865,0.564,1932.619,0.564,253.633,253.635,174.950,49.434,359.992,12.852,-0.044,-0.0001,-0.2563,0.0000,0.9708,0.5000,1.0000,0.0000
41.593,Upwind,1949.199,0.561,1948.952,0.561,263.543,263.544,175.019,49.658,359.991,12.816,-0.044,-0.0001,-0.2635,0.0000,0.9699,0.5000,1.0000,0.0000
41.799,Upwind,1967.024,0.559,1966.778,0.559,273.494,273.495,175.084,49.846,359.991,12.790,-0.044,0.0000,-0.2678,0.0000,0.9689,0.5000,1.0000,0.0000
42.001,Upwind,1984.858,0.556,1984.611,0.556,283.480,283.481,175.145,50.008,359.990,12.779,-0.044,0.0000,-0.2687,0.0000,0.9681,0.5000,1.0000,0.0000
42.191,Upwind,2002.698,0.554,2002.451,0.554,293.496,293.498,175.203,50.157,359.990,12.783,-0.043,0.0001,-0.2666,0.0000,0.9673,0.5000,1.0000,0.0000
42.391,Upwind,2020.545,0.551,2020.299,0.551,303.542,303.544,175.258,50.302,359.989,12.799,-0.043,0.0001,-0.2620,0.0000,0.9665,0.5000,1.0000,0.0000
42.591,Upwind,2038.399,0.548,2038.153,0.548,313.617,313.619,175.309,50.451,359.989,12.824,-0.043,0.0002,-0.2563,0.0000,0.9658,0.5000,1.0000,0.0000
42.797,Upwind,2056.259,0.545,2056.012,0.545,323.723,323.724,175.356,50.606,359.988,12.851,-0.042,0.0002,-0.2503,0.0000,0.9651,0.5000,1.0000,0.0000
42.989,Upwind,2074.125,0.542,2073.878,0.542,333.860,333.861,175.400,50.765,359.988,12.876,-0.042,0.0002,-0.2451,0.0000,0.9645,0.5000,1.0000,0.0000
43.192,Upwind,2091.996,0.539,2091.750,0.539,344.029,344.031,175.440,50.927,359.988,12.896,-0.041,0.0003,-0.2412,0.0000,0.9640,0.5000,1.0000,0.0000
43.393,Upwind,2109.872,0.536,2109.626,0.536,354.230,354.232,175.477,51.086,359.987,12.910,-0.040,0.0002,-0.2389,0.0000,0.9634,0.5000,1.0000,0.0000
43.587,Upwind,2127.753,0.533,2127.507,0.533,364.463,364.465,175.511,51.239,359.987,12.917,-0.039,0.0002,-0.2380,0.0000,0.9629,0.5000,1.0000,0.0000
43.788,Upwind,2145.639,0.530,2145.392,0.530,374.725,374.727,175.543,51.380,359.987,12.918,-0.038,0.0002,-0.2383,0.0000,0.9625,0.5000,1.0000,0.0000
43.997,Upwind,2163.529,0.526,2163.283,0.526,385.014,385.016,175.572,51.510,359.987,12.915,-0.037,0.0002,-0.2392,0.0000,0.9621,0.5000,1.0000,0.0000
44.188,Upwind,2181.424,0.523,2181.177,0.523,395.328,395.330,175.600,51.626,359.987,12.910,-0.036,0.0002,-0.2403,0.0000,0.9617,0.5000,1.0000,0.0000
44.395,Upwind,2199.323,0.520,2199.076,0.520,405.664,405.665,175.625,51.729,359.987,12.905,-0.035,0.0002,-0.2412,0.0000,0.9613,0.5000,1.0000,0.0000
44.586,Upwind,2217.226,0.516,2216.979,0.516,415.155,415.157,175.647,51.815,359.987,12.903,-0.035,0.0002,-0.2416,0.0000,0.9610,0.5000,1.0000,0.0000
44.797,Upwind,2235.133,0.513,2234.886,0.513,426.392,426.394,175.670,51.907,359.987,12.902,-0.034,0.0001,-0.2414,0.0000,0.9607,0.5000,1.0000,0.0000
44.995,Upwind,2253.044,0.509,2252.798,0.509,436.781,436.783,175.691,51.986,359.987,12.905,-0.033,0.0001,-0.2406,0.0000,0.9604,0.5000,1.0000,0.0000
45.190,Upwind,2270.960,0.506,2270.713,0.506,447.186,447.188,175.709,52.062,359.987,12.909,-0.032,0.0001,-0.2395,0.0000,0.9602,0.5000,1.0000,0.0000
45.390,Upwind,2288.879,0.502,2288.632,0.502,457.606,457.608,175.727,52.135,359.987,12.915,-0.031,0.0001,-0.2381,0.0000,0.9599,0.5000,1.0000,0.0000
45.596,Upwind,2306.802,0.499,2306.555,0.499,468.040,468.042,175.742,52.207,359.987,12.921,-0.030,0.0001,-0.2367,0.0000,0.9597,0.5000,1.0000,0.0000
45.796,Upwind,2324.728,0.496,2324.482,0.496,478.488,478.491,175.757,52.277,359.987,12.928,-0.030,0.0001,-0.2354,0.0000,0.9595,0.5000,1.0000,0.0000
45.995,Upwind,2342.658,0.492,2342.412,0.492,488.950,488.953,175.770,52.345,359.987,12.933,-0.029,0.0000,-0.2344,0.0000,0.9593,0.5000,1.0000,0.0000
46.194,Upwind,2360.591,0.489,2360.345,0.489,499.426,499.428,175.781,52.411,359.988,12.936,-0.029,0.0000,-0.2337,0.0000,0.9591,0.5000,1.0000,0.0000
46.386,Upwind,2378.528,0.485,2378.281,0.485,509.914,509.917,175.792,52.473,359.988,12.939,-0.028,0.0000,-0.2333,0.0000,0.9590,0.5000,1.0000,0.0000
46.592,Upwind,2396.468,0.482,2396.221,0.482,520.415,520.417,175.801,52.531,359.988,12.940,-0.028,0.0000,-0.2331,0.0000,0.9589,0.5000,1.0000,0.0000
46.791,Upwind,2414.410,0.479,2414.164,0.479,530.926,530.929,175.810,52.585,359.988,12.941,-0.028,0.0000,-0.2330,0.0000,0.9587,0.5000,1.0000,0.0000
46.989,Upwind,2432.356,0.475,2432.110,0.475,541.449,541.451,175.817,52.636,359.988,12.941,-0.028,0.0000,-0.2330,0.0000,0.9586,0.5000,1.0000,0.0000
47.191,Upwind,2450.305,0.472,2450.059,0.472,551.980,551.983,175.824,52.682,359.988,12.941,-0.028,0.0001,-0.2330,0.0000,0.9585,0.5000,1.0000,0.0000
47.395,Upwind,2468.257,0.469,2468.011,0.469,562.521,562.524,175.830,52.725,359.988,12.941,-0.027,0.0000,-0.2329,0.0000,0.9585,0.5000,1.0000,0.0000
47.586,Upwind,2486.212,0.465,2485.966,0.465,573.070,573.073,175.835,52.764,359.988,12.942,-0.027,0.0000,-0.2327,0.0000,0.9584,0.5000,1.0000,0.0000
47.788,Upwind,2504.170,0.462,2503.924,0.462,583.626,583.629,175.839,52.802,359.988,12.943,-0.027,0.0000,-0.2324,0.0000,0.9583,0.5000,1.0000,0.0000
47.992,Upwind,2522.131,0.459,2521.884,0.459,594.190,594.193,175.843,52.837,359.988,12.944,-0.027,0.0001,-0.2321,0.0000,0.9583,0.5000,1.0000,0.0000
48.187,Upwind,2540.094,0.456,2539.847,0.456,604.761,604.764,175.846,52.871,359.988,12.946,-0.027,0.0000,-0.2317,0.0000,0.9582,0.5000,1.0000,0.0000
48.389,Upwind,2558.060,0.453,2557.814,0.453,615.338,615.341,175.848,52.903,359.989,12.948,-0.027,0.0000,-0.2313,0.0000,0.9582,0.5000,1.0000,0.0000
48.589,Upwind,2576.030,0.450,2575.783,0.450,625.922,625.925,175.850,52.934,359.989,12.950,-0.026,0.0001,-0.2310,0.0000,0.9582,0.5000,1.0000,0.0000
48.788,Upwind,2594.001,0.446,2593.754,0.446,636.512,636.515,175.852,52.963,359.989,12.951,-0.026,0.0001,-0.2307,0.0000,0.9581,0.5000,1.0000,0.0000
48.994,Upwind,2611.975,0.443,2611.729,0.443,647.107,647.110,175.852,52.991,359.989,12.952,-0.026,0.0000,-0.2305,0.0000,0.9581,0.5000,1.0000,0.0000
49.196,Upwind,2629.952,0.440,2629.705,0.440,657.708,657.711,175.853,53.018,359.989,12.953,-0.026,0.0001,-0.2303,0.0000,0.9581,0.5000,1.0000,0.0000
49.392,Upwind,2647.931,0.437,2647.685,0.437,668.314,668.317,175.853,53.043,359.989,12.954,-0.026,0.0001,-0.2302,0.0000,0.9581,0.5000,1.0000,0.0000
49.588,Upwind,2665.913,0.435,2665.667,0.434,678.925,678.928,175.852,53.066,359.989,12.954,-0.026,0.0000,-0.2301,0.0000,0.9581,0.5000,1.0000,0.0000
49.794,Upwind,2683.898,0.432,2683.651,0.432,689.540,689.543,175.851,53.088,359.989,12.954,-0.026,0.0000,-0.2300,0.0000,0.9582,0.5000,1.0000,0.0000
49.998,Upwind,2701.885,0.429,2701.638,0.429,700.160,700.163,175.850,53.108,359.989,12.955,-0.026,0.0000,-0.2300,0.0000,0.9582,0.5000,1.0000,0.0000
50.198,Upwind,2719.874,0.426,2719.627,0.426,710.783,710.787,175.848,53.128,359.990,12.955,-0.026,0.0000,-0.2299,0.0000,0.9582,0.5000,1.0000,0.0000
50.389,Upwind,2737.865,0.423,2737.619,0.423,721.410,721.414,175.846,53.146,359.990,12.955,-0.026,0.0001,-0.2298,0.0000,0.9582,0.5000,1.0000,0.0000
50.589,Upwind,2755.860,0.420,2755.613,0.420,732.041,732.045,175.844,53.162,359.990,12.956,-0.026,0.0000,-0.2297,0.0000,0.9583,0.5000,1.0000,0.0000
50.790,Upwind,2773.856,0.418,2773.610,0.418,742.675,742.679,175.841,53.178,359.990,12.956,-0.026,0.0000,-0.2296,0.0000,0.9583,0.5000,1.0000,0.0000
50.986,Upwind,2791.855,0.415,2791.609,0.415,753.312,753.316,175.838,53.194,359.990,12.957,-0.026,0.0000,-0.2295,0.0000,0.9583,0.5000,1.0000,0.0000
51.189,Upwind,2809.857,0.412,2809.610,0.412,763.953,763.956,175.835,53.208,359.990,12.957,-0.026,0.0001,-0.2294,0.0000,0.9584,0.5000,1.0000,0.0000
51.397,Upwind,2827.861,0.410,2827.614,0.410,774.596,774.599,175.832,53.222,359.990,12.958,-0.026,0.0000,-0.2293,0.0000,0.9584,0.5000,1.0000,0.0000
51.598,Upwind,2845.867,0.407,2845.620,0.407,785.241,785.245,175.828,53.235,359.990,12.958,-0.026,0.0000,-0.2292,0.0000,0.9585,0.5000,1.0000,0.0000
51.800,Upwind,2863.875,0.405,2863.629,0.405,795.889,795.893,175.825,53.247,359.991,12.958,-0.026,0.0000,-0.2291,0.0000,0.9585,0.5000,1.0000,0.0000
51.995,Upwind,2881.886,0.402,2881.639,0.402,806.540,806.544,175.821,53.259,359.991,12.959,-0.026,0.0000,-0.2291,0.0000,0.9586,0.5000,1.0000,0.0000
52.188,Upwind,2899.899,0.400,2899.652,0.400,817.193,817.197,175.816,53.270,359.991,12.959,-0.026,0.0000,-0.2291,0.0000,0.9586,0.5000,1.0000,0.0000
52.390,Upwind,2917.915,0.397,2917.668,0.397,827.848,827.852,175.812,53.280,359.991,12.959,-0.026,0.0000,-0.2290,0.0000,0.9587,0.5000,1.0000,0.0000
52.594,Upwind,2935.932,0.395,2935.686,0.395,838.505,838.509,175.807,53.290,359.991,12.959,-0.026,0.0000,-0.2290,0.0000,0.9588,0.5000,1.0000,0.0000
52.793,Upwind,2953.952,0.393,2953.705,0.393,849.163,849.167,175.803,53.299,359.991,12.959,-0.026,0.0000,-0.2290,0.0000,0.9588,0.5000,1.0000,0.0000
52.994,Upwind,2971.974,0.390,2971.728,0.390,859.824,859.828,175.798,53.308,359.991,12.959,-0.026,0.0000,-0.2290,0.0000,0.9589,0.5000,1.0000,0.0000
53.190,Upwind,2989.999,0.388,2989.752,0.388,870.486,870.491,175.793,53.316,359.991,12.959,-0.026,0.0000,-0.2290,0.0000,0.9590,0.5000,1.0000,0.0000
53.393,Upwind,3008.025,0.386,3007.779,0.386,881.150,881.155,175.788,53.324,359.992,12.959,-0.026,0.0000,-0.2289,0.0000,0.9590,0.5000,1.0000,0.0000
53.591,Upwind,3026.054,0.384,3025.808,0.384,891.816,891.820,175.783,53.331,359.992,12.960,-0.026,0.0000,-0.2289,0.0000,0.9591,0.5000,1.0000,0.0000
53.794,Upwind,3044.085,0.382,3043.839,0.382,902.483,902.487,175.777,53.338,359.992,12.960,-0.026,0.0000,-0.2289,0.0000,0.9592,0.5000,1.0000,0.0000
53.986,Upwind,3062.118,0.380,3061.872,0.380,913.151,913.155,175.772,53.344,359.992,12.960,-0.026,0.0000,-0.2289,0.0000,0.9593,0.5000,1.0000,0.0000
54.197,Upwind,3080.154,0.377,3079.907,0.377,923.820,923.825,175.766,53.351,359.992,12.960,-0.026,0.0000,-0.2289,0.0000,0.9593,0.5000,1.0000,0.0000
54.397,Upwind,3098.191,0.375,3097.945,0.375,934.491,934.495,175.761,53.357,359.992,12.960,-0.026,0.0000,-0.2289,0.0000,0.9594,0.5000,1.0000,0.0000
54.594,Upwind,3116.233,0.373,3115.986,0.373,945.163,945.167,175.755,53.362,359.992,12.960,-0.026,0.0000,-0.2289,0.0000,0.9595,0.5000,1.0000,0.0000
54.789,Upwind,3134.274,0.372,3134.027,0.372,955.836,955.840,175.749,53.368,359.992,12.960,-0.026,0.0000,-0.2288,0.0000,0.9596,0.5000,1.0000,0.0000
54.986,Upwind,3152.318,0.370,3152.071,0.370,966.510,966.514,175.743,53.373,359.993,12.960,-0.026,0.0000,-0.2289,0.0000,0.9597,0.5000,1.0000,0.0000
55.189,Upwind,3170.365,0.368,3170.118,0.368,977.185,977.189,175.737,53.377,359.993,12.960,-0.026,0.0000,-0.2289,0.0000,0.9597,0.5000,1.0000,0.0000
55.397,Upwind,3188.412,0.366,3188.166,0.366,987.861,987.865,175.731,53.382,359.993,12.960,-0.026,0.0000,-0.2289,0.0000,0.9598,0.5000,1.0000,0.0000
55.585,Upwind,3204.960,0.364,3204.713,0.364,998.537,998.542,175.725,53.386,359.993,12.960,-0.026,0.0000,-0.2289,0.0000,0.9599,0.5000,1.0000,0.0000
55.798,Upwind,3224.519,0.362,3224.272,0.362,1009.215,1009.220,175.719,53.391,359.993,12.960,-0.026,0.0000,-0.2289,0.0000,0.9600,0.5000,1.0000,0.0000
55.986,Upwind,3242.572,0.361,3242.326,0.361,1019.893,1019.898,175.713,53.395,359.993,12.960,-0.027,0.0000,-0.2289,0.0000,0.9601,0.5000,1.0000,0.0000
56.196,Upwind,3260.632,0.359,3260.385,0.359,1030.573,1030.578,175.706,53.398,359.993,12.960,-0.027,0.0000,-0.2289,0.0000,0.9602,0.5000,1.0000,0.0000
56.397,Upwind,3278.691,0.357,3278.445,0.357,1041.253,1041.258,175.700,53.402,359.993,12.959,-0.027,0.0000,-0.2289,0.0000,0.9603,0.5000,1.0000,0.0000
56.591,Upwind,3296.753,0.356,3296.507,0.356,1051.933,1051.938,175.694,53.405,359.993,12.959,-0.027,0.0000,-0.2290,0.0000,0.9604,0.5000,1.0000,0.0000
56.786,Upwind,3314.816,0.354,3314.569,0.354,1062.615,1062.620,175.687,53.408,359.994,12.959,-0.027,0.0000,-0.2290,0.0000,0.9604,0.5000,1.0000,0.0000
56.994,Upwind,3332.882,0.352,3332.635,0.352,1073.296,1073.302,175.681,53.411,359.994,12.959,-0.027,0.0000,-0.2290,0.0000,0.9605,0.5000,1.0000,0.0000
57.193,Upwind,3350.950,0.351,3350.703,0.351,1083.979,1083.984,175.674,53.414,359.994,12.959,-0.027,0.0000,-0.2291,0.0000,0.9606,0.5000,1.0000,0.0000
57.396,Upwind,3369.021,0.349,3368.775,0.349,1094.662,1094.667,175.668,53.417,359.994,12.959,-0.027,0.0000,-0.2291,0.0000,0.9607,0.5000,1.0000,0.0000
57.587,Upwind,3387.093,0.348,3386.846,0.348,1105.345,1105.351,175.661,53.419,359.994,12.959,-0.027,0.0000,-0.2291,0.0000,0.9608,0.5000,1.0000,0.0000
57.790,Upwind,3405.167,0.346,3404.921,0.346,1116.029,1116.035,175.655,53.422,359.994,12.959,-0.027,0.0000,-0.2291,0.0000,0.9609,0.5000,1.0000,0.0000
57.991,Upwind,3423.245,0.345,3422.999,0.345,1126.714,1126.719,175.648,53.424,359.994,12.959,-0.027,0.0000,-0.2291,0.0000,0.9610,0.5000,1.0000,0.0000
58.186,Upwind,3441.323,0.344,3441.076,0.344,1137.399,1137.404,175.641,53.426,359.994,12.958,-0.027,0.0000,-0.2292,0.0000,0.9611,0.5000,1.0000,0.0000
58.393,Upwind,3459.404,0.342,3459.157,0.342,1148.084,1148.090,175.634,53.428,359.994,12.958,-0.027,0.0000,-0.2292,0.0000,0.9612,0.5000,1.0000,0.0000
58.591,Upwind,3477.488,0.341,3477.241,0.341,1158.770,1158.776,175.628,53.431,359.994,12.958,-0.027,0.0000,-0.2292,0.0000,0.9613,0.5000,1.0000,0.0000
58.786,Upwind,3495.574,0.340,3495.328,0.340,1169.457,1169.462,175.621,53.433,359.995,12.958,-0.027,0.0000,-0.2292,0.0000,0.9614,0.5000,1.0000,0.0000
58.989,Upwind,3513.661,0.339,3513.415,0.339,1180.143,1180.149,175.614,53.434,359.995,12.958,-0.027,0.0000,-0.2293,0.0000,0.9615,0.5000,1.0000,0.0000
59.195,Upwind,3531.751,0.337,3531.505,0.337,1190.830,1190.836,175.607,53.436,359.995,12.958,-0.027,0.0000,-0.2293,0.0000,0.9616,0.5000,1.0000,0.0000
59.395,Upwind,3549.844,0.336,3549.597,0.336,1201.518,1201.523,175.601,53.438,359.995,12.958,-0.027,0.0000,-0.2293,0.0000,0.9617,0.5000,1.0000,0.0000
59.612,Upwind,3569.446,0.335,3569.199,0.335,1212.205,1212.211,175.594,53.440,359.995,12.958,-0.027,0.0000,-0.2294,0.0000,0.9618,0.5000,1.0000,0.0000
59.794,Upwind,3586.033,0.334,3585.786,0.334,1222.893,1222.899,175.587,53.441,359.995,12.957,-0.027,0.0000,-0.2294,0.0000,0.9619,0.5000,1.0000,0.0000
59.998,Upwind,3604.132,0.333,3603.885,0.333,1233.582,1233.588,175.580,53.443,359.995,12.957,-0.028,0.0000,-0.2294,0.0000,0.9620,0.5000,1.0000,0.0000
60.190,Upwind,3622.231,0.332,3621.984,0.332,1244.270,1244.276,175.573,53.444,359.995,12.957,-0.028,0.0000,-0.2295,0.0000,0.9621,0.5000,1.0000,0.0000
60.388,Upwind,3640.336,0.331,3640.090,0.331,1254.959,1254.965,175.566,53.446,359.995,12.957,-0.028,0.0000,-0.2295,0.0000,0.9621,0.5000,1.0000,0.0000
60.594,Upwind,3658.441,0.330,3658.195,0.330,1265.649,1265.655,175.559,53.447,359.995,12.957,-0.028,0.0000,-0.2295,0.0000,0.9622,0.5000,1.0000,0.0000
60.795,Upwind,3676.546,0.329,3676.300,0.329,1276.338,1276.344,175.552,53.448,359.995,12.957,-0.028,0.0000,-0.2296,0.0000,0.9623,0.5000,1.0000,0.0000
60.994,Upwind,3694.655,0.328,3694.408,0.328,1287.028,1287.034,175.545,53.450,359.996,12.956,-0.028,0.0000,-0.2296,0.0000,0.9624,0.5000,1.0000,0.0000
61.195,Upwind,3712.766,0.327,3712.519,0.327,1297.718,1297.724,175.538,53.451,359.996,12.956,-0.028,0.0000,-0.2296,0.0000,0.9625,0.5000,1.0000,0.0000
61.388,Upwind,3730.880,0.326,3730.634,0.326,1308.408,1308.415,175.531,53.452,359.996,12.956,-0.028,0.0000,-0.2297,0.0000,0.9626,0.5000,1.0000,0.0000
61.598,Upwind,3748.998,0.325,3748.751,0.325,1319.099,1319.105,175.524,53.453,359.996,12.956,-0.028,0.0000,-0.2297,0.0000,0.9627,0.5000,1.0000,0.0000
61.787,Upwind,3767.115,0.324,3766.868,0.324,1329.789,1329.796,175.517,53.454,359.996,12.956,-0.028,0.0000,-0.2298,0.0000,0.9628,0.5000,1.0000,0.0000
61.986,Upwind,3785.232,0.323,3784.986,0.323,1340.480,1340.487,175.510,53.456,359.996,12.956,-0.028,0.0000,-0.2298,0.0000,0.9629,0.5000,1.0000,0.0000
62.190,Upwind,3803.355,0.323,3803.109,0.323,1351.172,1351.178,175.503,53.457,359.996,12.955,-0.028,0.0000,-0.2298,0.0000,0.9630,0.5000,1.0000,0.0000
62.388,Upwind,3821.479,0.322,3821.232,0.322,1361.863,1361.870,175.496,53.458,359.996,12.955,-0.028,0.0000,-0.2299,0.0000,0.9631,0.5000,1.0000,0.0000
62.590,Upwind,3839.605,0.321,3839.359,0.321,1372.555,1372.561,175.489,53.459,359.996,12.955,-0.028,0.0000,-0.2299,0.0000,0.9632,0.5000,1.0000,0.0000
62.788,Upwind,3857.735,0.320,3857.488,0.320,1383.246,1383.253,175.482,53.460,359.996,12.955,-0.028,0.0000,-0.2299,0.0000,0.9633,0.5000,1.0000,0.0000
62.991,Upwind,3875.864,0.320,3875.618,0.320,1393.938,1393.945,175.475,53.460,359.996,12.955,-0.028,0.0000,-0.2300,0.0000,0.9634,0.5000,1.0000,0.0000
63.188,Upwind,3893.997,0.319,3893.750,0.319,1404.630,1404.637,175.468,53.461,359.996,12.955,-0.028,0.0000,-0.2300,0.0000,0.9635,0.5000,1.0000,0.0000
63.386,Upwind,3910.621,0.318,3910.374,0.318,1415.323,1415.330,175.461,53.462,359.997,12.954,-0.028,0.0000,-0.2301,0.0000,0.9636,0.5000,1.0000,0.0000
63.599,Upwind,3930.268,0.318,3930.021,0.318,1426.015,1426.022,175.454,53.463,359.997,12.954,-0.028,0.0000,-0.2301,0.0000,0.9637,0.5000,1.0000,0.0000
63.786,Upwind,3948.407,0.317,3948.160,0.317,1436.708,1436.715,175.447,53.464,359.997,12.954,-0.028,0.0000,-0.2301,0.0000,0.9638,0.5000,1.0000,0.0000
63.986,Upwind,3965.037,0.317,3964.790,0.317,1447.401,1447.408,175.440,53.465,359.997,12.954,-0.028,0.0000,-0.2302,0.0000,0.9639,0.5000,1.0000,0.0000
64.198,Upwind,3984.690,0.316,3984.443,0.316,1458.094,1458.101,175.433,53.466,359.997,12.954,-0.028,0.0000,-0.2302,0.0000,0.9640,0.5000,1.0000,0.0000
64.392,Upwind,4002.838,0.316,4002.591,0.316,1468.787,1468.794,175.425,53.466,359.997,12.954,-0.028,0.0000,-0.2303,0.0000,0.9641,0.5000,1.0000,0.0000
64.591,Upwind,4020.983,0.315,4020.736,0.315,1479.480,1479.487,175.418,53.467,359.997,12.953,-0.029,0.0000,-0.2303,0.0000,0.9642,0.5000,1.0000,0.0000
64.795,Upwind,4039.134,0.315,4038.887,0.315,1490.174,1490.181,175.411,53.468,359.997,12.953,-0.029,0.0000,-0.2303,0.0000,0.9643,0.5000,1.0000,0.0000
64.992,Upwind,4057.284,0.314,4057.038,0.314,1500.867,1500.874,175.404,53.469,359.997,12.953,-0.029,0.0000,-0.2304,0.0000,0.9644,0.5000,1.0000,0.0000
65.187,Upwind,4075.438,0.314,4075.192,0.314,1511.561,1511.568,175.397,53.469,359.997,12.953,-0.029,0.0000,-0.2304,0.0000,0.9645,0.5000,1.0000,0.0000
65.389,Upwind,4093.595,0.313,4093.348,0.313,1522.255,1522.262,175.390,53.470,359.997,12.953,-0.029,0.0000,-0.2305,0.0000,0.9646,0.5000,1.0000,0.0000
65.588,Upwind,4111.755,0.313,4111.508,0.313,1532.949,1532.956,175.383,53.471,359.997,12.952,-0.029,0.0000,-0.2305,0.0000,0.9647,0.5000,1.0000,0.0000
65.796,Upwind,4129.915,0.313,4129.668,0.313,1543.643,1543.651,175.375,53.471,359.997,12.952,-0.029,0.0000,-0.2305,0.0000,0.9648,0.5000,1.0000,0.0000
65.986,Upwind,4148.075,0.312,4147.829,0.312,1554.337,1554.345,175.368,53.472,359.997,12.952,-0.029,0.0000,-0.2306,0.0000,0.9649,0.5000,1.0000,0.0000
66.193,Upwind,4166.241,0.312,4165.995,0.312,1565.032,1565.039,175.361,53.473,359.998,12.952,-0.030,0.0000,-0.2306,0.0000,0.9650,0.5000,1.0000,0.0000
66.393,Upwind,4184.407,0.312,4184.161,0.312,1575.726,1575.734,175.354,53.473,359.998,12.952,-0.030,0.0000,-0.2307,0.0000,0.9651,0.5000,1.0000,0.0000
66.594,Upwind,4202.577,0.311,4202.330,0.311,1586.421,1586.429,175.347,53.474,359.998,12.952,-0.030,0.0000,-0.2307,0.0000,0.9652,0.5000,1.0000,0.0000
66.793,Upwind,4220.749,0.311,4220.502,0.311,1597.116,1597.124,175.340,53.475,359.998,12.951,-0.030,0.0000,-0.2307,0.0000,0.9653,0.5000,1.0000,0.0000
66.990,Upwind,4238.920,0.311,4238.674,0.311,1607.811,1607.819,175.333,53.475,359.998,12.951,-0.030,0.0000,-0.2308,0.0000,0.9654,0.5000,1.0000,0.0000
67.187,Upwind,4257.096,0.311,4256.849,0.311,1618.506,1618.514,175.325,53.476,359.998,12.951,-0.030,0.0000,-0.2308,0.0000,0.9655,0.5000,1.0000,0.0000
67.393,Upwind,4275.274,0.310,4275.028,0.310,1629.201,1629.209,175.318,53.476,359.998,12.951,-0.030,0.0000,-0.2309,0.0000,0.9656,0.5000,1.0000,0.0000
67.588,Upwind,4293.453,0.310,4293.206,0.310,1639.896,1639.904,175.311,53.477,359.998,12.951,-0.030,0.0000,-0.2309,0.0000,0.9657,0.5000,1.0000,0.0000
67.791,Upwind,4311.634,0.310,4311.387,0.310,1650.592,1650.600,175.304,53.477,359.998,12.950,-0.030,-0.0001,-0.2309,0.0000,0.9658,0.5000,1.0000,0.0000
67.987,Upwind,4329.818,0.310,4329.572,0.310,1661.287,1661.295,175.297,53.478,359.998,12.950,-0.030,0.0000,-0.2310,0.0000,0.9659,0.5000,1.0000,0.0000
68.187,Upwind,4348.006,0.310,4347.759,0.310,1671.983,1671.991,175.289,53.479,359.998,12.950,-0.030,0.0000,-0.2310,0.0000,0.9660,0.5000,1.0000,0.0000
68.390,Upwind,4366.193,0.309,4365.946,0.309,1682.679,1682.687,175.282,53.479,359.998,12.950,-0.031,0.0000,-0.2311,0.0000,0.9661,0.5000,1.0000,0.0000
68.586,Upwind,4382.866,0.309,4382.619,0.309,1693.374,1693.383,175.275,53.480,359.998,12.950,-0.031,0.0000,-0.2311,0.0000,0.9662,0.5000,1.0000,0.0000
68.791,Upwind,4402.574,0.309,4402.327,0.309,1704.070,1704.079,175.268,53.480,359.998,12.949,-0.031,0.0000,-0.2312,0.0000,0.9663,0.5000,1.0000,0.0000
68.985,Upwind,4419.253,0.309,4419.006,0.309,1714.766,1714.775,175.261,53.481,359.998,12.949,-0.031,0.0000,-0.2312,0.0000,0.9664,0.5000,1.0000,0.0000
69.190,Upwind,4438.967,0.309,4438.721,0.309,1725.463,1725.471,175.253,53.481,359.998,12.949,-0.031,0.0000,-0.2312,0.0000,0.9665,0.5000,1.0000,0.0000
69.388,Upwind,4457.164,0.309,4456.917,0.309,1736.159,1736.167,175.246,53.482,359.998,12.949,-0.031,0.0000,-0.2313,0.0000,0.9666,0.5000,1.0000,0.0000
69.585,Upwind,4473.849,0.309,4473.602,0.309,1746.855,1746.864,175.239,53.482,359.998,12.949,-0.031,0.0000,-0.2313,0.0000,0.9667,0.5000,1.0000,0.0000
69.790,Upwind,4493.569,0.309,4493.322,0.309,1757.552,1757.560,175.232,53.483,359.998,12.949,-0.031,0.0000,-0.2314,0.0000,0.9668,0.5000,1.0000,0.0000
69.991,Upwind,4511.775,0.309,4511.528,0.309,1768.248,1768.257,175.225,53.483,359.998,12.948,-0.031,0.0000,-0.2314,0.0000,0.9669,0.5000,1.0000,0.0000
70.193,Upwind,4529.980,0.309,4529.733,0.309,1778.945,1778.953,175.217,53.484,359.998,12.948,-0.031,0.0000,-0.2314,0.0000,0.9670,0.5000,1.0000,0.0000
70.393,Upwind,4548.192,0.308,4547.945,0.308,1789.642,1789.650,175.210,53.484,359.998,12.948,-0.031,-0.0001,-0.2315,0.0000,0.9671,0.5000,1.0000,0.0000
70.594,Upwind,4566.404,0.308,4566.157,0.308,1800.339,1800.347,175.203,53.485,359.998,12.948,-0.031,0.0000,-0.2315,0.0000,0.9672,0.5000,1.0000,0.0000
70.796,Upwind,4584.616,0.308,4584.369,0.308,1811.036,1811.044,175.196,53.485,359.998,12.948,-0.031,0.0000,-0.2316,0.0000,0.9673,0.5000,1.0000,0.0000
70.995,Upwind,4602.833,0.308,4602.587,0.308,1821.733,1821.741,175.188,53.486,359.998,12.947,-0.031,0.0000,-0.2316,0.0000,0.9674,0.5000,1.0000,0.0000
71.190,Upwind,4621.051,0.308,4620.805,0.308,1832.430,1832.438,175.181,53.486,359.998,12.947,-0.031,0.0000,-0.2317,0.0000,0.9675,0.5000,1.0000,0.0000
71.387,Upwind,4639.270,0.308,4639.023,0.308,1843.127,1843.136,175.174,53.487,359.998,12.947,-0.031,-0.0001,-0.2317,0.0000,0.9676,0.5000,1.0000,0.0000
71.593,Upwind,4657.494,0.308,4657.247,0.308,1853.824,1853.833,175.167,53.487,359.998,12.947,-0.031,0.0000,-0.2317,0.0000,0.9678,0.5000,1.0000,0.0000
71.795,Upwind,4675.717,0.308,4675.471,0.308,1864.522,1864.531,175.160,53.487,359.998,12.947,-0.032,0.0000,-0.2318,0.0000,0.9679,0.5000,1.0000,0.0000
71.994,Upwind,4693.944,0.308,4693.698,0.308,1875.219,1875.228,175.152,53.488,359.998,12.946,-0.032,-0.0001,-0.2318,0.0000,0.9680,0.5000,1.0000,0.0000
72.191,Upwind,4712.171,0.308,4711.925,0.308,1885.917,1885.926,175.145,53.488,359.998,12.946,-0.032,0.0000,-0.2319,0.0000,0.9681,0.5000,1.0000,0.0000
72.388,Upwind,4730.405,0.308,4730.158,0.308,1896.614,1896.623,175.138,53.489,359.998,12.946,-0.032,0.0000,-0.2319,0.0000,0.9682,0.5000,1.0000,0.0000
72.591,Upwind,4748.638,0.308,4748.391,0.308,1907.312,1907.321,175.130,53.489,359.998,12.946,-0.032,0.0000,-0.2320,0.0000,0.9683,0.5000,1.0000,0.0000
72.798,Upwind,4766.871,0.308,4766.624,0.308,1918.010,1918.019,175.123,53.490,359.999,12.946,-0.032,0.0000,-0.2320,0.0000,0.9684,0.5000,1.0000,0.0000
72.988,Upwind,4785.110,0.308,4784.863,0.308,1928.708,1928.717,175.116,53.490,359.999,12.945,-0.032,0.0000,-0.2320,0.0000,0.9685,0.5000,1.0000,0.0000
73.192,Upwind,4803.349,0.308,4803.103,0.308,1939.406,1939.415,175.109,53.490,359.999,12.945,-0.032,0.0000,-0.2321,0.0000,0.9686,0.5000,1.0000,0.0000
73.392,Upwind,4821.592,0.308,4821.345,0.308,1950.104,1950.113,175.101,53.491,359.999,12.945,-0.032,0.0000,-0.2321,0.0000,0.9687,0.5000,1.0000,0.0000
73.596,Upwind,4839.834,0.308,4839.587,0.308,1960.802,1960.811,175.094,53.491,359.999,12.945,-0.032,-0.0001,-0.2322,0.0000,0.9688,0.5000,1.0000,0.0000
73.796,Upwind,4858.079,0.308,4857.833,0.308,1971.500,1971.510,175.087,53.491,359.999,12.945,-0.032,0.0000,-0.2322,0.0000,0.9689,0.5000,1.0000,0.0000
73.987,Upwind,4876.328,0.309,4876.081,0.309,1982.199,1982.208,175.080,53.492,359.999,12.944,-0.032,0.0000,-0.2323,0.0000,0.9690,0.5000,1.0000,0.0000
74.191,Upwind,4894.579,0.309,4894.333,0.309,1992.897,1992.906,175.072,53.492,359.999,12.944,-0.032,0.0000,-0.2323,0.0000,0.9691,0.5000,1.0000,0.0000
74.395,Crosswind,4912.831,0.309,4912.584,0.309,2003.595,2003.605,175.062,53.489,359.999,12.944,-0.026,0.4000,-0.2651,0.0000,0.9327,0.0000,1.0000,0.0000
74.591,Crosswind,4931.079,0.309,4930.833,0.309,2014.283,2014.293,174.919,53.356,359.996,12.959,0.308,0.4000,-0.3532,0.0001,0.8349,0.0000,1.0000,0.0000
74.790,Crosswind,4949.303,0.312,4949.056,0.312,2024.926,2024.936,174.583,53.051,359.991,13.036,1.071,0.4000,-0.4428,0.0001,0.7353,0.0000,1.0000,0.0000
74.985,Crosswind,4965.979,0.321,4965.732,0.321,2035.495,2035.505,174.097,52.635,359.993,13.222,2.166,0.4000,-0.5306,0.0000,0.7084,0.0000,1.0000,0.0000
75.195,Crosswind,4985.632,0.345,4985.385,0.345,2045.981,2045.991,173.598,52.226,0.012,13.548,3.511,0.4000,-0.6252,-0.0002,0.7190,0.0000,1.0000,0.0000
75.391,Crosswind,5003.725,0.389,5003.479,0.389,2056.392,2056.402,173.109,51.908,0.064,14.039,5.045,0.4000,-0.7132,-0.0005,0.7299,0.0000,1.0000,0.0000
75.593,Crosswind,5021.772,0.464,5021.526,0.464,2066.755,2066.765,172.624,51.754,0.167,14.707,6.714,0.4000,-0.8000,-0.0010,0.7412,0.0000,1.0000,0.0000
75.791,Crosswind,5039.768,0.580,5039.521,0.580,2077.109,2077.119,172.138,51.841,0.342,15.551,8.480,0.4000,-0.8000,-0.0016,0.7527,0.0000,1.0000,0.0000
75.994,Crosswind,5057.714,0.749,5057.468,0.749,2087.512,2087.522,171.648,52.234,0.602,16.521,10.307,0.4000,-0.8000,-0.0025,0.7644,0.0000,1.0000,0.0000
76.194,Crosswind,5075.600,0.987,5075.354,0.987,2098.024,2098.034,171.147,52.939,0.958,17.559,12.169,0.4000,-0.7760,-0.0035,0.7764,0.0000,1.0000,0.0000
76.392,Crosswind,5093.425,1.308,5093.178,1.308,2108.707,2108.717,170.634,53.938,1.411,18.600,14.043,0.4000,-0.7464,-0.0048,0.7886,0.0000,1.0000,0.0000
76.590,Crosswind,5111.179,1.728,5110.933,1.728,2119.616,2119.626,170.108,55.191,1.959,19.584,15.909,0.4000,-0.7166,-0.0063,0.8009,0.0000,1.0000,0.0000
76.785,Crosswind,5127.392,2.215,5127.145,2.215,2130.795,2130.805,169.567,56.628,2.595,20.464,17.755,0.3925,-0.6873,-0.0078,0.8134,0.0000,1.0000,0.0000
76.986,Crosswind,5146.466,2.932,5146.219,2.932,2142.273,2142.283,169.018,58.164,3.309,21.205,19.558,0.3268,-0.6572,-0.0095,0.8259,0.0000,1.0000,0.0000
77.195,Crosswind,5163.986,3.745,5163.739,3.745,2154.061,2154.072,168.464,59.715,4.086,21.786,21.255,0.2701,-0.6259,-0.0114,0.8382,0.0000,1.0000,0.0000
77.394,Crosswind,5181.423,4.717,5181.177,4.717,2166.155,2166.166,167.914,61.209,4.912,22.197,22.791,0.2209,-0.5960,-0.0132,0.8500,0.0000,1.0000,0.0000
77.588,Crosswind,5198.778,5.859,5198.532,5.859,2178.537,2178.547,167.372,62.582,5.770,22.438,24.140,0.1795,-0.5669,-0.0147,0.8612,0.0000,1.0000,0.0000
77.792,Crosswind,5216.045,7.177,5215.799,7.177,2191.177,2191.187,166.846,63.785,6.642,22.516,25.295,0.1452,-0.5364,-0.0160,0.8716,0.0000,1.0000,0.0000
77.990,Crosswind,5233.233,8.676,5232.987,8.676,2204.037,2204.048,166.341,64.782,7.510,22.445,26.261,0.1170,-0.5066,-0.0170,0.8813,0.0000,1.0000,0.0000
78.190,Crosswind,5250.338,10.361,5250.092,10.361,2217.074,2217.084,165.863,65.544,8.359,22.243,27.058,0.0938,-0.4766,-0.0176,0.8901,0.0000,1.0000,0.0000
78.390,Crosswind,5267.371,12.232,5267.125,12.232,2230.238,2230.248,165.414,66.053,9.174,21.928,27.709,0.0746,-0.4467,-0.0179,0.8981,0.0000,1.0000,0.0000
78.590,Crosswind,5284.330,14.289,5284.083,14.289,2243.477,2243.488,164.998,66.299,9.944,21.522,28.238,0.0585,-0.4166,-0.0179,0.9053,0.0000,1.0000,0.0000
78.793,Crosswind,5301.228,16.529,5300.981,16.529,2256.739,2256.750,164.618,66.276,10.660,21.044,28.669,0.0448,-0.3862,-0.0175,0.9118,0.0000,1.0000,0.0000
78.992,Crosswind,5318.065,18.950,5317.819,18.950,2269.970,2269.981,164.275,65.987,11.315,20.510,29.022,0.0331,-0.3564,-0.0170,0.9175,0.0000,1.0000,0.0000
79.188,Crosswind,5334.854,21.548,5334.607,21.548,2283.116,2283.127,163.971,65.436,11.907,19.935,29.313,0.0231,-0.3270,-0.0162,0.9226,0.0000,1.0000,0.0000
79.385,Crosswind,5350.200,24.082,5349.954,24.082,2296.127,2296.138,163.707,64.632,12.433,19.330,29.553,0.0146,-0.2973,-0.0155,0.9269,0.0000,1.0000,0.0000
79.591,Crosswind,5368.296,27.261,5368.049,27.261,2308.953,2308.964,163.482,63.587,12.896,18.706,29.750,0.0078,-0.3457,-0.0145,0.9306,0.0000,1.0000,0.0000
79.790,Crosswind,5384.966,30.365,5384.719,30.365,2321.545,2321.556,163.291,62.290,13.317,18.096,29.913,0.0022,-0.4354,-0.0136,0.9337,0.0000,1.0000,0.0000
79.988,Crosswind,5401.611,33.627,5401.364,33.627,2333.855,2333.866,163.132,60.778,13.732,17.560,30.053,-0.0022,-0.5244,-0.0129,0.9362,0.0000,1.0000,0.0000
80.188,Crosswind,5418.231,37.044,5417.985,37.044,2345.846,2345.857,163.002,59.114,14.176,17.142,30.178,-0.0057,-0.6143,-0.0122,0.9380,0.0000,1.0000,0.0000
80.388,Crosswind,5434.837,40.612,5434.590,40.612,2357.495,2357.507,162.897,57.372,14.676,16.877,30.289,-0.0084,-0.7044,-0.0116,0.9394,0.0000,1.0000,0.0000
80.591,Crosswind,5451.421,44.330,5451.175,44.330,2368.795,2368.807,162.812,55.636,15.253,16.784,30.390,-0.0102,-0.7959,-0.0112,0.9406,0.0000,1.0000,0.0000
80.788,Crosswind,5467.987,48.201,5467.740,48.201,2379.756,2379.767,162.741,53.997,15.923,16.873,30.480,-0.0114,-0.8000,-0.0109,0.9416,0.0000,1.0000,0.0000
80.995,Crosswind,5484.528,52.229,5484.282,52.229,2390.407,2390.418,162.681,52.547,16.677,17.115,30.555,-0.0117,-0.7791,-0.0108,0.9425,0.0000,1.0000,0.0000
81.195,Crosswind,5501.042,56.420,5500.796,56.420,2400.791,2400.802,162.627,51.339,17.493,17.460,30.608,-0.0112,-0.7492,-0.0108,0.9432,0.0000,1.0000,0.0000
81.392,Crosswind,5517.520,60.782,5517.273,60.782,2410.959,2410.971,162.574,50.388,18.345,17.855,30.634,-0.0096,-0.7196,-0.0109,0.9440,0.0000,1.0000,0.0000
81.587,Crosswind,5533.958,65.319,5533.711,65.319,2420.963,2420.974,162.518,49.685,19.210,18.254,30.630,-0.0072,-0.6903,-0.0111,0.9447,0.0000,1.0000,0.0000
81.791,Crosswind,5550.344,70.039,5550.097,70.039,2430.848,2430.860,162.459,49.203,20.066,18.619,30.593,-0.0038,-0.6598,-0.0113,0.9456,0.0000,1.0000,0.0000
81.995,Crosswind,5566.679,74.945,5566.432,74.945,2440.656,2440.667,162.396,48.899,20.897,18.921,30.526,0.0002,-0.6292,-0.0116,0.9465,0.0000,1.0000,0.0000
82.190,Crosswind,5582.952,80.040,5582.705,80.040,2450.416,2450.428,162.331,48.726,21.689,19.140,30.430,0.0048,-0.5998,-0.0118,0.9474,0.0000,1.0000,0.0000
82.387,Crosswind,5599.161,85.325,5598.914,85.325,2460.151,2460.163,162.266,48.630,22.432,19.262,30.311,0.0098,-0.5703,-0.0120,0.9483,0.0000,1.0000,0.0000
82.591,Crosswind,5615.300,90.800,5615.054,90.800,2469.870,2469.882,162.207,48.559,23.119,19.281,30.175,0.0150,-0.5397,-0.0121,0.9491,0.0000,1.0000,0.0000
82.786,Crosswind,5631.375,96.463,5631.129,96.463,2479.573,2479.585,162.155,48.464,23.748,19.196,30.027,0.0201,-0.5105,-0.0122,0.9498,0.0000,1.0000,0.0000
82.990,Crosswind,5647.383,102.312,5647.137,102.312,2489.251,2489.263,162.114,48.298,24.318,19.011,29.874,0.0250,-0.4800,-0.0122,0.9501,0.0000,1.0000,0.0000
83.195,Crosswind,5663.321,108.342,5663.074,108.342,2498.885,2498.897,162.089,48.024,24.832,18.732,29.722,0.0297,-0.4491,-0.0122,0.9500,0.0000,1.0000,0.0000
83.390,Crosswind,5679.198,114.549,5678.951,114.549,2508.451,2508.463,162.081,47.610,25.292,18.367,29.575,0.0339,-0.4613,-0.0122,0.9497,0.0000,1.0000,0.0000
83.592,Crosswind,5695.017,120.928,5694.771,120.928,2517.916,2517.928,162.091,47.010,25.714,17.942,29.441,0.0376,-0.5520,-0.0121,0.9492,0.0000,1.0000,0.0000
