time_s,leg,north_m,east_m,along_m,cross_m,agl_ft,altitude_ft,speed_kts,vertical_speed_fps,heading_deg,pitch_deg,roll_deg,aileron_cmd,elevator_cmd,rudder_cmd,throttle_cmd,flaps_cmd,gear_cmd,brake_cmd
0.178,Upwind,0.150,0.000,0.051,0.000,3.691,3.691,1.499,0.000,0.000,0.454,0.000,0.0000,0.0634,0.0000,0.0133,0.5000,1.0000,0.0000
0.363,Upwind,0.331,0.000,0.231,0.000,3.691,3.691,2.122,0.000,0.000,0.452,0.000,0.0000,0.0630,0.0000,0.1062,0.5000,1.0000,0.0000
0.552,Upwind,0.552,0.000,0.453,0.000,3.691,3.691,2.486,0.001,0.000,0.450,0.000,0.0000,0.0629,0.0000,0.2007,0.5000,1.0000,0.0000
0.761,Upwind,0.847,0.000,0.748,0.000,3.691,3.691,2.724,0.000,0.000,0.450,0.000,0.0000,0.0630,0.0000,0.3052,0.5000,1.0000,0.0000
0.973,Upwind,1.137,0.000,1.038,0.000,3.691,3.691,2.865,0.000,0.000,0.449,0.000,0.0000,0.0629,0.0000,0.4113,0.5000,1.0000,0.0000
1.154,Upwind,1.416,0.000,1.317,0.000,3.691,3.691,3.020,0.000,0.000,0.449,0.000,0.0000,0.0629,0.0000,0.5016,0.5000,1.0000,0.0000
1.355,Upwind,1.738,0.000,1.639,0.000,3.691,3.691,3.211,0.000,0.000,0.450,0.000,0.0000,0.0630,0.0000,0.6019,0.5000,1.0000,0.0000
1.566,Upwind,2.112,0.000,2.013,0.000,3.691,3.691,3.464,0.000,0.000,0.450,0.000,0.0000,0.0630,0.0000,0.7075,0.5000,1.0000,0.0000
1.764,Upwind,2.485,0.000,2.386,0.000,3.691,3.691,3.747,0.000,0.000,0.450,0.000,0.0000,0.0631,0.0000,0.8064,0.5000,1.0000,0.0000
1.968,Upwind,2.890,0.000,2.791,0.000,3.691,3.691,4.086,0.000,0.000,0.450,0.000,0.0000,0.0631,0.0000,0.9086,0.5000,1.0000,0.0000
2.156,Upwind,3.296,0.000,3.196,0.000,3.691,3.691,4.452,0.000,0.000,0.451,0.000,0.0000,0.0631,0.0000,1.0000,0.5000,1.0000,0.0000
2.366,Upwind,3.824,0.000,3.725,0.000,3.691,3.691,4.960,0.000,0.000,0.451,0.000,0.0000,0.0632,0.0000,1.0000,0.5000,1.0000,0.0000
2.565,Upwind,4.366,0.000,4.267,0.000,3.691,3.691,5.512,0.000,0.000,0.452,0.000,0.0000,0.0632,0.0000,1.0000,0.5000,1.0000,0.0000
2.758,Upwind,4.918,0.000,4.819,0.000,3.691,3.691,6.095,0.000,0.000,0.452,0.000,0.0000,0.0633,0.0000,1.0000,0.5000,1.0000,0.0000
2.969,Upwind,5.648,0.000,5.548,0.000,3.691,3.691,6.821,0.000,0.000,0.452,0.000,0.0000,0.0634,0.0000,1.0000,0.5000,1.0000,0.0000
3.170,Upwind,6.405,0.000,6.306,0.000,3.691,3.691,7.723,0.000,0.000,0.453,0.000,0.0000,0.0634,0.0000,1.0000,0.5000,1.0000,0.0000
3.351,Upwind,7.181,0.000,7.082,0.000,3.691,3.691,8.587,0.000,0.000,0.453,0.000,0.0000,0.0635,0.0000,1.0000,0.5000,1.0000,0.0000
3.555,Upwind,8.127,0.000,8.028,0.000,3.691,3.691,9.639,0.000,0.000,0.454,0.000,0.0000,0.0636,0.0000,1.0000,0.5000,1.0000,0.0000
3.763,Upwind,9.282,0.000,9.183,0.000,3.691,3.691,10.917,0.001,0.000,0.454,0.000,0.0000,0.0636,0.0000,1.0000,0.5000,1.0000,0.0000
3.954,Upwind,10.377,0.000,10.278,0.000,3.691,3.691,12.089,0.001,0.000,0.455,0.000,0.0000,0.0637,0.0000,1.0000,0.5000,1.0000,0.0000
4.168,Upwind,11.814,0.000,11.715,0.000,3.692,3.692,13.479,0.001,0.000,0.454,0.000,0.0000,0.0636,0.0000,1.0000,0.5000,1.0000,0.0000
4.364,Upwind,13.278,0.000,13.179,0.000,3.692,3.692,14.761,0.001,0.000,0.454,0.000,0.0000,0.0635,0.0000,1.0000,0.5000,1.0000,0.0000
4.567,Upwind,14.873,0.000,14.774,0.000,3.692,3.692,16.041,0.001,0.000,0.454,0.000,0.0000,0.0635,0.0000,1.0000,0.5000,1.0000,0.0000
4.767,Upwind,16.601,0.000,16.502,0.000,3.692,3.692,17.321,0.001,0.000,0.453,0.000,0.0000,0.0634,0.0000,1.0000,0.5000,1.0000,0.0000
4.977,Upwind,18.621,0.000,18.522,0.000,3.692,3.692,18.600,0.001,0.000,0.453,0.000,0.0000,0.0634,0.0000,1.0000,0.5000,1.0000,0.0000
5.161,Upwind,20.450,0.000,20.351,0.000,3.693,3.693,19.878,0.002,0.000,0.453,0.000,0.0000,0.0633,0.0000,1.0000,0.5000,1.0000,0.0000
5.368,Upwind,22.572,0.000,22.473,0.000,3.693,3.693,21.154,0.002,0.000,0.452,0.000,0.0000,0.0633,0.0000,1.0000,0.5000,1.0000,0.0000
5.556,Upwind,24.633,0.000,24.533,0.000,3.693,3.693,22.323,0.002,0.000,0.452,0.000,0.0000,0.0632,0.0000,1.0000,0.5000,1.0000,0.0000
5.760,Upwind,27.210,0.000,27.111,0.000,3.694,3.694,23.704,0.002,0.000,0.451,0.000,0.0000,0.0631,0.0000,1.0000,0.5000,1.0000,0.0000
5.956,Upwind,29.510,0.000,29.411,0.000,3.694,3.694,24.870,0.002,0.000,0.451,0.000,0.0000,0.0631,0.0000,1.0000,0.5000,1.0000,0.0000
6.160,Upwind,32.371,0.000,32.272,0.000,3.695,3.695,26.248,0.002,0.000,0.450,0.000,0.0000,0.0630,0.0000,1.0000,0.5000,1.0000,0.0000
6.363,Upwind,35.148,0.000,35.049,0.000,3.695,3.695,27.519,0.002,0.000,0.450,0.000,0.0000,0.0629,0.0000,1.0000,0.5000,1.0000,0.0000
6.558,Upwind,38.056,0.000,37.957,0.000,3.696,3.696,28.788,0.003,0.000,0.449,0.000,0.0000,0.0628,0.0000,1.0000,0.5000,1.0000,0.0000
6.761,Upwind,41.094,0.000,40.995,0.000,3.696,3.696,30.056,0.003,0.000,0.448,0.000,0.0000,0.0627,0.0000,1.0000,0.5000,1.0000,0.0000
6.966,Upwind,44.263,0.000,44.164,0.000,3.697,3.697,31.322,0.003,0.000,0.447,0.000,0.0000,0.0626,0.0000,1.0000,0.5000,1.0000,0.0000
7.153,Upwind,47.282,0.001,47.183,0.001,3.697,3.697,32.482,0.003,0.000,0.447,0.000,0.0000,0.0625,0.0000,1.0000,0.5000,1.0000,0.0000
7.366,Upwind,50.990,0.001,50.891,0.001,3.698,3.698,33.851,0.003,0.000,0.446,0.000,0.0000,0.0623,0.0000,1.0000,0.5000,1.0000,0.0000
7.562,Upwind,54.549,0.001,54.450,0.001,3.699,3.699,35.114,0.003,0.000,0.445,0.000,0.0000,0.0622,0.0000,1.0000,0.5000,1.0000,0.0000
7.759,Upwind,58.238,0.001,58.139,0.001,3.699,3.699,36.375,0.004,0.000,0.444,0.000,0.0000,0.0621,0.0000,1.0000,0.5000,1.0000,0.0000
7.958,Upwind,62.056,0.001,61.957,0.001,3.700,3.700,37.530,0.004,0.000,0.443,0.000,0.0000,0.0619,0.0000,1.0000,0.5000,1.0000,0.0000
8.178,Upwind,66.339,0.001,66.240,0.001,3.701,3.701,38.893,0.004,0.000,0.442,0.000,0.0000,0.0618,0.0000,1.0000,0.5000,1.0000,0.0000
8.360,Upwind,70.081,0.001,69.982,0.001,3.702,3.702,40.149,0.004,0.000,0.441,0.000,0.0000,0.0616,0.0000,1.0000,0.5000,1.0000,0.0000
8.561,Upwind,74.288,0.001,74.189,0.001,3.702,3.702,41.404,0.004,0.000,0.440,0.000,0.0000,0.0614,0.0000,1.0000,0.5000,1.0000,0.0000
8.761,Upwind,78.623,0.001,78.524,0.001,3.703,3.703,42.658,0.005,0.000,0.439,0.000,0.0000,0.0613,0.0000,1.0000,0.5000,1.0000,0.0000
8.967,Upwind,83.088,0.001,82.988,0.001,3.704,3.704,43.909,0.005,0.000,0.437,0.000,0.0000,0.0611,0.0000,1.0000,0.5000,1.0000,0.0000
9.152,Upwind,87.293,0.001,87.194,0.001,3.705,3.705,45.056,0.005,0.000,0.436,0.000,0.0000,0.0609,0.0000,1.0000,0.5000,1.0000,0.0000
9.351,Upwind,92.004,0.002,91.905,0.002,3.706,3.706,46.304,0.005,0.000,0.435,0.000,0.0000,0.0607,0.0000,1.0000,0.5000,1.0000,0.0000
9.568,Upwind,97.252,0.002,97.153,0.002,3.707,3.707,47.655,0.006,0.000,0.433,0.000,0.0000,0.0605,0.0000,1.0000,0.5000,1.0000,0.0000
9.754,Upwind,101.811,0.002,101.712,0.002,3.709,3.709,48.796,0.006,0.000,0.432,0.000,0.0000,0.0603,0.0000,1.0000,0.5000,1.0000,0.0000
9.967,Upwind,107.336,0.002,107.237,0.002,3.710,3.710,50.143,0.006,0.001,0.430,0.000,0.0000,0.0600,0.0000,1.0000,0.5000,1.0000,0.0000
10.168,Upwind,112.570,0.002,112.471,0.002,3.711,3.711,51.385,0.007,0.001,0.428,0.000,0.0000,0.0598,0.0000,1.0000,0.5000,1.0000,0.0000
10.351,Upwind,117.480,0.002,117.381,0.002,3.712,3.712,52.521,0.007,0.001,0.427,0.000,0.0000,0.0596,0.0000,1.0000,0.5000,1.0000,0.0000
10.565,Upwind,123.421,0.003,123.322,0.003,3.714,3.714,53.862,0.007,0.001,0.425,0.000,0.0000,0.0593,0.0000,1.0000,0.5000,1.0000,0.0000
10.761,Upwind,129.037,0.003,128.938,0.003,3.715,3.715,55.098,0.007,0.001,0.423,0.000,0.0000,0.0590,0.0000,1.0000,0.5000,1.0000,0.0000
10.951,Upwind,134.297,0.003,134.198,0.003,3.717,3.717,56.228,0.008,0.001,0.421,0.000,0.0000,0.0588,0.0000,1.0000,0.5000,1.0000,0.0000
11.169,Upwind,140.650,0.003,140.551,0.003,3.718,3.718,57.563,0.008,0.001,0.419,0.000,0.0000,0.0584,0.0000,1.0000,0.5000,1.0000,0.0000
11.357,Upwind,146.143,0.004,146.043,0.004,3.720,3.720,58.690,0.008,0.001,0.417,0.000,0.0000,0.0582,0.0000,1.0000,0.5000,1.0000,0.0000
11.558,Upwind,152.770,0.004,152.671,0.004,3.722,3.722,59.917,0.009,0.001,0.415,0.000,0.0000,0.0579,0.0000,1.0000,0.5000,1.0000,0.0000
11.753,Upwind,158.494,0.004,158.395,0.004,3.723,3.723,61.143,0.009,0.001,0.413,0.000,-0.0001,0.0575,0.0000,1.0000,0.5000,1.0000,0.0000
11.966,Upwind,165.394,0.005,165.295,0.005,3.725,3.725,62.468,0.009,0.001,0.410,0.000,-0.0001,0.0572,0.0000,1.0000,0.5000,1.0000,0.0000
12.162,Upwind,171.895,0.005,171.796,0.005,3.727,3.727,63.689,0.010,0.001,0.408,0.000,-0.0001,0.0568,0.0000,1.0000,0.5000,1.0000,0.0000
12.360,Upwind,178.522,0.005,178.422,0.005,3.729,3.729,64.907,0.010,0.001,0.405,0.000,-0.0001,0.0565,0.0000,1.0000,0.5000,1.0000,0.0000
12.559,Upwind,185.273,0.006,185.174,0.006,3.731,3.731,66.022,0.011,0.001,0.403,0.000,-0.0001,0.0561,0.0000,1.0000,0.5000,1.0000,0.0000
12.760,Upwind,192.150,0.006,192.050,0.006,3.733,3.733,67.235,0.012,0.002,0.400,0.000,-0.0001,0.0556,0.0000,1.0000,0.5000,1.0000,0.0000
12.959,Upwind,199.151,0.007,199.052,0.007,3.736,3.736,68.446,0.012,0.002,0.397,0.000,-0.0001,0.0552,0.0000,1.0000,0.5000,1.0000,0.0000
13.168,Upwind,206.276,0.007,206.177,0.007,3.738,3.738,69.755,0.013,0.002,0.393,0.000,-0.0001,0.0547,0.0000,1.0000,0.5000,1.0000,0.0000
13.372,Upwind,213.526,0.007,213.427,0.007,3.741,3.741,70.960,0.013,0.002,0.390,0.000,-0.0001,0.0542,0.0000,1.0000,0.5000,1.0000,0.0000
13.556,Upwind,220.280,0.008,220.181,0.008,3.743,3.743,72.063,0.014,0.002,0.387,0.000,-0.0001,0.0538,0.0000,1.0000,0.5000,1.0000,0.0000
13.755,Upwind,227.767,0.009,227.668,0.009,3.746,3.746,73.262,0.014,0.002,0.383,0.000,-0.0001,0.0533,0.0000,1.0000,0.5000,1.0000,0.0000
13.954,Upwind,235.377,0.009,235.278,0.009,3.749,3.749,74.459,0.014,0.002,0.380,0.000,-0.0001,0.0528,0.0000,1.0000,0.5000,1.0000,0.0000
14.168,Upwind,243.760,0.010,243.661,0.010,3.752,3.752,75.752,0.015,0.003,0.376,0.000,-0.0001,0.0522,0.0000,1.0000,0.5000,1.0000,0.0000
14.360,Upwind,251.626,0.010,251.527,0.010,3.755,3.755,76.844,0.013,0.003,0.372,0.000,-0.0001,0.0518,0.0000,1.0000,0.5000,1.0000,0.0000
14.553,Upwind,258.944,0.011,258.845,0.011,3.757,3.757,78.033,0.011,0.003,0.369,0.000,-0.0001,0.0514,0.0000,1.0000,0.5000,1.0000,0.0000
14.765,Upwind,267.725,0.012,267.626,0.012,3.759,3.759,79.318,0.010,0.003,0.366,0.000,-0.0001,0.0510,0.0000,1.0000,0.5000,1.0000,0.0000
14.959,Upwind,275.957,0.013,275.858,0.013,3.761,3.761,80.501,0.010,0.003,0.364,0.000,-0.0001,0.0507,0.0000,1.0000,0.5000,1.0000,0.0000
15.167,Upwind,284.311,0.013,284.212,0.013,3.763,3.763,81.682,0.011,0.003,0.361,0.000,-0.0001,0.0503,0.0000,1.0000,0.5000,1.0000,0.0000
15.363,Upwind,292.787,0.014,292.688,0.014,3.766,3.766,82.861,0.011,0.004,0.358,0.000,-0.0001,0.0499,0.0000,1.0000,0.5000,1.0000,0.0000
15.562,Upwind,301.383,0.015,301.284,0.015,3.768,3.768,84.037,0.011,0.004,0.356,0.000,-0.0001,0.0495,0.0000,1.0000,0.5000,1.0000,0.0000
15.757,Upwind,309.369,0.016,309.270,0.016,3.770,3.770,85.210,0.011,0.004,0.353,0.000,-0.0002,0.0491,0.0000,1.0000,0.5000,1.0000,0.0000
15.956,Upwind,318.197,0.017,318.098,0.017,3.772,3.772,86.284,0.011,0.004,0.350,0.000,-0.0002,0.0488,0.0000,1.0000,0.5000,1.0000,0.0000
16.151,Upwind,327.145,0.018,327.046,0.018,3.774,3.774,87.453,0.011,0.005,0.347,0.000,-0.0002,0.0484,0.0000,1.0000,0.5000,1.0000,0.0000
16.360,Upwind,336.975,0.019,336.876,0.019,3.777,3.777,88.716,0.011,0.005,0.344,0.000,-0.0002,0.0479,0.0000,1.0000,0.5000,1.0000,0.0000
16.558,Upwind,345.402,0.020,345.303,0.020,3.779,3.779,89.879,0.011,0.005,0.341,0.000,-0.0002,0.0475,0.0000,1.0000,0.5000,1.0000,0.0000
16.756,Upwind,354.710,0.022,354.611,0.022,3.781,3.781,90.943,0.012,0.005,0.339,0.000,-0.0002,0.0471,0.0000,1.0000,0.5000,1.0000,0.0000
16.955,Upwind,364.137,0.023,364.038,0.023,3.783,3.783,92.102,0.012,0.006,0.336,0.000,-0.0002,0.0467,0.0000,1.0000,0.5000,1.0000,0.0000
17.166,Upwind,374.484,0.024,374.385,0.024,3.786,3.786,93.353,0.012,0.006,0.333,0.000,-0.0002,0.0463,0.0000,1.0000,0.5000,1.0000,0.0000
17.364,Upwind,384.158,0.026,384.059,0.026,3.788,3.788,94.506,0.012,0.006,0.330,0.000,-0.0002,0.0458,0.0000,1.0000,0.5000,1.0000,0.0000
17.551,Upwind,393.131,0.027,393.032,0.027,3.790,3.790,95.561,0.012,0.006,0.327,0.000,-0.0002,0.0454,0.0000,1.0000,0.5000,1.0000,0.0000
17.758,Upwind,403.032,0.029,402.933,0.029,3.793,3.793,96.708,0.012,0.007,0.324,0.000,-0.0002,0.0450,0.0000,1.0000,0.5000,1.0000,0.0000
17.955,Upwind,413.052,0.030,412.953,0.030,3.795,3.795,97.853,0.012,0.007,0.321,0.000,-0.0003,0.0446,0.0000,1.0000,0.5000,1.0000,0.0000
18.172,Upwind,424.039,0.032,423.940,0.032,3.798,3.798,99.091,0.012,0.007,0.317,0.000,-0.0003,0.0441,0.0000,1.0000,0.5000,1.0000,0.0000
18.372,Upwind,434.303,0.034,434.204,0.034,3.800,3.800,100.230,0.012,0.008,0.314,0.000,-0.0003,0.0437,0.0000,1.0000,0.5000,1.0000,0.0000
18.571,Upwind,444.685,0.036,444.585,0.036,3.803,3.803,101.367,0.013,0.008,0.311,0.000,-0.0003,0.0432,0.0000,1.0000,0.5000,1.0000,0.0000
18.775,Upwind,456.063,0.038,455.964,0.038,3.805,3.805,102.500,0.013,0.008,0.308,0.000,-0.0003,0.0428,0.0000,1.0000,0.5000,1.0000,0.0000
18.974,Upwind,465.797,0.040,465.698,0.040,3.808,3.808,103.631,0.013,0.009,0.305,0.000,-0.0003,0.0423,0.0000,1.0000,0.5000,1.0000,0.0000
19.153,Upwind,475.629,0.042,475.530,0.042,3.810,3.810,104.666,0.013,0.009,0.302,0.000,-0.0003,0.0419,0.0000,1.0000,0.5000,1.0000,0.0000
19.368,Upwind,487.375,0.044,487.276,0.044,3.813,3.813,105.885,0.013,0.009,0.298,0.000,-0.0004,0.0414,0.0000,1.0000,0.5000,1.0000,0.0000
19.575,Upwind,499.256,0.047,499.157,0.047,3.815,3.815,107.008,0.013,0.010,0.295,0.000,-0.0004,0.0410,0.0000,1.0000,0.5000,1.0000,0.0000
19.766,Upwind,509.415,0.049,509.315,0.049,3.818,3.818,108.127,0.013,0.010,0.292,0.000,-0.0004,0.0405,0.0000,1.0000,0.5000,1.0000,0.0000
19.959,Upwind,520.607,0.052,520.508,0.052,3.820,3.820,109.151,0.013,0.011,0.289,0.000,-0.0004,0.0401,0.0000,1.0000,0.5000,1.0000,0.0000
20.166,Upwind,531.915,0.054,531.816,0.054,3.823,3.823,110.358,0.013,0.011,0.285,0.000,-0.0004,0.0396,0.0000,1.0000,0.5000,1.0000,0.0000
20.360,Upwind,543.337,0.057,543.237,0.057,3.826,3.826,111.469,0.013,0.011,0.282,0.000,-0.0004,0.0391,0.0000,1.0000,0.5000,1.0000,0.0000
20.553,Upwind,553.907,0.060,553.808,0.060,3.828,3.828,112.485,0.013,0.012,0.279,0.000,-0.0004,0.0387,0.0000,1.0000,0.5000,1.0000,0.0000
20.754,Upwind,565.547,0.063,565.448,0.063,3.831,3.831,113.591,0.014,0.012,0.275,0.000,-0.0005,0.0382,0.0000,1.0000,0.5000,1.0000,0.0000
20.968,Upwind,578.286,0.066,578.187,0.066,3.834,3.834,114.785,0.014,0.013,0.272,0.000,-0.0005,0.0377,0.0000,1.0000,0.5000,1.0000,0.0000
21.153,Upwind,589.169,0.069,589.070,0.069,3.836,3.836,115.793,0.014,0.013,0.268,0.000,-0.0005,0.0372,0.0000,1.0000,0.5000,1.0000,0.0000
21.357,Upwind,601.149,0.072,601.050,0.072,3.839,3.839,116.981,0.014,0.014,0.265,0.000,-0.0005,0.0367,0.0000,1.0000,0.5000,1.0000,0.0000
21.560,Upwind,614.255,0.076,614.156,0.076,3.842,3.842,118.075,0.014,0.014,0.261,0.000,-0.0005,0.0362,0.0000,1.0000,0.5000,1.0000,0.0000
21.757,Upwind,625.447,0.079,625.348,0.079,3.845,3.845,119.075,0.014,0.015,0.258,0.000,-0.0005,0.0358,0.0000,1.0000,0.5000,1.0000,0.0000
21.956,Upwind,637.765,0.083,637.665,0.083,3.847,3.847,120.162,0.014,0.015,0.255,0.000,-0.0006,0.0353,0.0000,1.0000,0.5000,1.0000,0.0000
22.155,Upwind,650.194,0.087,650.095,0.087,3.850,3.850,121.247,0.014,0.016,0.251,0.000,-0.0006,0.0348,0.0000,1.0000,0.5000,1.0000,0.0000
22.366,Upwind,663.784,0.091,663.685,0.091,3.853,3.853,122.329,0.014,0.016,0.248,0.000,-0.0006,0.0343,0.0000,1.0000,0.5000,1.0000,0.0000
22.562,Upwind,676.445,0.096,676.346,0.096,3.856,3.856,123.408,0.014,0.017,0.244,0.000,-0.0006,0.0338,0.0000,1.0000,0.5000,1.0000,0.0000
22.765,Upwind,689.217,0.100,689.118,0.100,3.859,3.859,124.573,0.014,0.017,0.240,0.000,-0.0006,0.0333,0.0000,1.0000,0.5000,1.0000,0.0000
22.966,Upwind,702.099,0.104,702.000,0.104,3.862,3.862,125.646,0.014,0.018,0.237,0.000,-0.0007,0.0328,0.0000,1.0000,0.5000,1.0000,0.0000
23.153,Upwind,714.005,0.109,713.906,0.109,3.864,3.864,126.626,0.014,0.018,0.233,0.000,-0.0007,0.0323,0.0000,1.0000,0.5000,1.0000,0.0000
23.366,Upwind,728.194,0.114,728.095,0.114,3.867,3.867,127.782,0.015,0.019,0.230,0.000,-0.0007,0.0318,0.0000,1.0000,0.5000,1.0000,0.0000
23.559,Upwind,741.406,0.119,741.307,0.119,3.870,3.870,128.757,0.015,0.019,0.226,0.000,-0.0007,0.0313,0.0000,1.0000,0.5000,1.0000,0.0000
23.763,Upwind,754.727,0.124,754.628,0.124,3.873,3.873,129.905,0.015,0.020,0.222,0.000,-0.0008,0.0308,0.0000,1.0000,0.5000,1.0000,0.0000
23.966,Upwind,768.157,0.129,768.058,0.129,3.876,3.876,130.962,0.015,0.020,0.219,0.000,-0.0008,0.0303,0.0000,1.0000,0.5000,1.0000,0.0000
24.164,Upwind,781.695,0.135,781.596,0.135,3.879,3.879,132.016,0.015,0.021,0.215,0.000,-0.0008,0.0298,0.0000,1.0000,0.5000,1.0000,0.0000
24.355,Upwind,794.201,0.140,794.102,0.140,3.882,3.882,132.980,0.015,0.021,0.212,0.000,-0.0008,0.0293,0.0000,1.0000,0.5000,1.0000,0.0000
24.558,Upwind,807.946,0.146,807.847,0.146,3.885,3.885,134.116,0.015,0.022,0.208,0.000,-0.0009,0.0287,0.0000,1.0000,0.5000,1.0000,0.0000
24.766,Upwind,822.959,0.152,822.860,0.152,3.888,3.888,135.162,0.015,0.023,0.204,-0.001,-0.0009,0.0282,0.0000,1.0000,0.5000,1.0000,0.0000
24.955,Upwind,835.761,0.158,835.662,0.158,3.891,3.891,136.118,0.015,0.023,0.201,-0.001,-0.0009,0.0277,0.0000,1.0000,0.5000,1.0000,0.0000
25.158,Upwind,851.006,0.165,850.907,0.165,3.894,3.894,137.246,0.015,0.024,0.197,-0.001,-0.0009,0.0272,0.0000,1.0000,0.5000,1.0000,0.0000
25.365,Upwind,865.190,0.172,865.091,0.172,3.897,3.897,138.283,0.015,0.024,0.193,-0.001,-0.0010,0.0267,0.0000,1.0000,0.5000,1.0000,0.0000
25.564,Upwind,879.481,0.178,879.382,0.178,3.900,3.900,139.319,0.015,0.025,0.189,-0.001,-0.0010,0.0261,0.0000,1.0000,0.5000,1.0000,0.0000
25.752,Upwind,892.674,0.185,892.575,0.185,3.903,3.903,140.265,0.015,0.026,0.186,-0.001,-0.0010,0.0257,0.0000,1.0000,0.5000,1.0000,0.0000
25.971,Upwind,908.381,0.193,908.282,0.193,3.906,3.906,141.381,0.015,0.026,0.182,-0.001,-0.0010,0.0251,0.0000,1.0000,0.5000,1.0000,0.0000
26.163,Upwind,922.990,0.200,922.891,0.200,3.909,3.909,142.408,0.015,0.027,0.178,-0.001,-0.0011,0.0246,0.0000,1.0000,0.5000,1.0000,0.0000
26.368,Upwind,937.705,0.208,937.606,0.208,3.912,3.912,143.433,0.015,0.028,0.174,-0.001,-0.0011,0.0240,0.0000,1.0000,0.5000,1.0000,0.0000
26.567,Upwind,952.524,0.216,952.425,0.216,3.915,3.915,144.454,0.015,0.028,0.171,-0.001,-0.0011,0.0235,0.0000,1.0000,0.5000,1.0000,0.0000
26.751,Upwind,966.201,0.223,966.102,0.223,3.918,3.918,145.389,0.015,0.029,0.167,-0.001,-0.0011,0.0230,0.0000,1.0000,0.5000,1.0000,0.0000
26.957,Upwind,981.222,0.231,981.123,0.231,3.921,3.921,146.405,0.016,0.029,0.163,-0.001,-0.0012,0.0225,0.0000,1.0000,0.5000,1.0000,0.0000
27.153,Upwind,996.347,0.240,996.248,0.240,3.924,3.924,147.419,0.016,0.030,0.159,-0.001,-0.0012,0.0219,0.0000,1.0000,0.5000,1.0000,0.0000
27.355,Upwind,1011.576,0.249,1011.477,0.249,3.927,3.927,148.430,0.016,0.031,0.156,-0.001,-0.0012,0.0214,0.0000,1.0000,0.5000,1.0000,0.0000
27.556,Upwind,1026.909,0.258,1026.810,0.258,3.930,3.930,149.438,0.016,0.031,0.152,-0.001,-0.0013,0.0209,0.0000,1.0000,0.5000,1.0000,0.0000
27.755,Upwind,1042.346,0.267,1042.247,0.267,3.934,3.934,150.527,0.016,0.032,0.148,-0.001,-0.0013,0.0203,0.0000,1.0000,0.5000,1.0000,0.0000
27.955,Upwind,1057.886,0.276,1057.787,0.276,3.937,3.937,151.530,0.016,0.033,0.144,-0.001,-0.0013,0.0198,0.0000,1.0000,0.5000,1.0000,0.0000
28.157,Upwind,1073.529,0.286,1073.430,0.286,3.940,3.940,152.529,0.016,0.033,0.140,-0.001,-0.0014,0.0192,0.0000,1.0000,0.5000,1.0000,0.0000
28.351,Upwind,1089.275,0.296,1089.176,0.296,3.943,3.943,153.443,0.016,0.034,0.136,-0.001,-0.0014,0.0187,0.0000,1.0000,0.5000,1.0000,0.0000
28.559,Upwind,1106.448,0.307,1106.349,0.307,3.946,3.946,154.520,0.016,0.035,0.132,-0.001,-0.0014,0.0181,0.0000,1.0000,0.5000,1.0000,0.0000
28.760,Upwind,1122.407,0.317,1122.308,0.317,3.949,3.949,155.511,0.016,0.035,0.128,-0.001,-0.0015,0.0176,0.0000,1.0000,0.5000,1.0000,0.0000
28.957,Upwind,1137.125,0.327,1137.026,0.327,3.953,3.953,156.500,0.016,0.036,0.125,-0.001,-0.0015,0.0171,0.0000,1.0000,0.5000,1.0000,0.0000
29.155,Upwind,1153.279,0.338,1153.180,0.338,3.956,3.956,157.403,0.016,0.037,0.121,-0.002,-0.0015,0.0166,0.0000,1.0000,0.5000,1.0000,0.0000
29.355,Upwind,1169.533,0.349,1169.434,0.349,3.959,3.959,158.386,0.016,0.037,0.117,-0.002,-0.0016,0.0160,0.0000,1.0000,0.5000,1.0000,0.0000
29.559,Upwind,1187.257,0.362,1187.158,0.362,3.962,3.962,159.448,0.016,0.038,0.113,-0.002,-0.0016,0.0154,0.0000,1.0000,0.5000,1.0000,0.0000
29.754,Upwind,1202.346,0.373,1202.247,0.373,3.965,3.965,160.425,0.016,0.039,0.109,-0.002,-0.0016,0.0149,0.0000,1.0000,0.5000,1.0000,0.0000
29.962,Upwind,1220.287,0.386,1220.188,0.386,3.969,3.969,161.399,0.016,0.040,0.105,-0.002,-0.0017,0.0143,0.0000,1.0000,0.5000,1.0000,0.0000
30.152,Upwind,1235.560,0.397,1235.461,0.397,3.972,3.972,162.289,0.016,0.040,0.102,-0.002,-0.0017,0.0138,0.0000,1.0000,0.5000,1.0000,0.0000
30.360,Upwind,1253.717,0.411,1253.618,0.411,3.975,3.975,163.338,0.016,0.041,0.097,-0.002,-0.0017,0.0132,0.0000,1.0000,0.5000,1.0000,0.0000
30.556,Upwind,1269.173,0.422,1269.074,0.422,3.978,3.978,164.304,0.016,0.042,0.093,-0.002,-0.0018,0.0127,0.0000,1.0000,0.5000,1.0000,0.0000
30.761,Upwind,1287.545,0.437,1287.446,0.437,3.982,3.982,165.267,0.016,0.042,0.090,-0.002,-0.0018,0.0121,0.0000,1.0000,0.5000,1.0000,0.0000
30.953,Upwind,1303.182,0.449,1303.083,0.449,3.985,3.985,166.226,0.016,0.043,0.086,-0.002,-0.0019,0.0116,0.0000,1.0000,0.5000,1.0000,0.0000
31.158,Upwind,1320.335,0.463,1320.236,0.463,3.988,3.988,167.183,0.016,0.044,0.082,-0.002,-0.0019,0.0110,0.0000,1.0000,0.5000,1.0000,0.0000
31.354,Upwind,1337.587,0.477,1337.488,0.477,3.991,3.991,168.137,0.016,0.045,0.078,-0.002,-0.0019,0.0105,0.0000,1.0000,0.5000,1.0000,0.0000
31.561,Upwind,1356.386,0.492,1356.287,0.492,3.995,3.995,169.088,0.016,0.045,0.074,-0.002,-0.0020,0.0099,0.0000,1.0000,0.5000,1.0000,0.0000
31.762,Upwind,1373.841,0.507,1373.742,0.507,3.998,3.998,170.036,0.016,0.046,0.070,-0.002,-0.0020,0.0094,0.0000,1.0000,0.5000,1.0000,0.0000
31.954,Upwind,1389.927,0.521,1389.828,0.521,4.001,4.001,170.902,0.016,0.047,0.066,-0.002,-0.0020,0.0089,0.0000,1.0000,0.5000,1.0000,0.0000
32.154,Upwind,1407.569,0.536,1407.470,0.536,4.004,4.004,171.923,0.016,0.047,0.062,-0.003,-0.0021,0.0083,0.0000,1.0000,0.5000,1.0000,0.0000
32.352,Upwind,1425.307,0.552,1425.208,0.552,4.007,4.007,172.784,0.016,0.048,0.058,-0.003,-0.0021,0.0078,0.0000,1.0000,0.5000,1.0000,0.0000
32.555,Upwind,1443.142,0.567,1443.043,0.567,4.011,4.011,173.799,0.016,0.049,0.054,-0.003,-0.0022,0.0072,0.0000,1.0000,0.5000,1.0000,0.0000
32.754,Upwind,1461.072,0.584,1460.973,0.584,4.014,4.014,174.732,0.016,0.050,0.050,-0.003,-0.0022,0.0066,0.0000,1.0000,0.5000,1.0000,0.0000
32.951,Upwind,1479.099,0.600,1479.000,0.600,4.012,4.012,175.563,-0.098,0.050,0.079,-0.003,-0.0023,-0.8000,0.0000,1.0000,0.5000,1.0000,0.0000
33.156,Upwind,1497.215,0.617,1497.116,0.617,4.005,4.005,176.500,0.134,0.051,0.483,-0.003,-0.0023,-0.8000,0.0000,1.0000,0.5000,1.0000,0.0000
33.356,Upwind,1515.420,0.634,1515.321,0.634,4.063,4.063,177.351,0.405,0.052,1.196,-0.003,-0.0023,-0.8000,0.0000,0.9971,0.5000,1.0000,0.0000
33.557,Upwind,1533.711,0.651,1533.612,0.651,4.158,4.158,178.173,0.547,0.053,2.197,-0.003,-0.0024,-0.7040,0.0000,0.9856,0.5000,1.0000,0.0000
33.762,Upwind,1553.618,0.671,1553.519,0.671,4.322,4.322,178.923,1.233,0.053,3.386,-0.005,-0.0021,-0.5292,0.0000,0.9140,0.5000,1.0000,0.0000
33.958,Upwind,1570.522,0.687,1570.423,0.687,4.704,4.704,179.442,2.706,0.054,4.572,-0.010,-0.0019,-0.3719,0.0000,0.8161,0.5000,1.0000,0.0000
34.162,Upwind,1590.542,0.707,1590.443,0.707,5.443,5.443,179.717,4.762,0.055,5.598,-0.016,-0.0016,-0.2519,0.0000,0.7141,0.5000,1.0000,0.0000
34.356,Upwind,1607.495,0.724,1607.396,0.724,6.629,6.629,179.794,7.127,0.056,6.364,-0.023,-0.0013,-0.1704,0.0000,0.6830,0.5000,1.0000,0.0000
34.551,Upwind,1625.990,0.743,1625.891,0.743,8.140,8.140,179.811,9.347,0.056,6.805,-0.030,-0.0011,-0.1369,0.0000,0.6828,0.5000,1.0000,0.0000
34.753,Upwind,1644.481,0.761,1644.382,0.761,10.240,10.240,179.798,11.608,0.056,7.017,-0.037,-0.0009,-0.1315,0.0000,0.6830,0.5000,1.0000,0.0000
34.951,Upwind,1662.964,0.780,1662.865,0.780,12.765,12.765,179.760,13.592,0.057,6.996,-0.043,-0.0007,-0.0864,0.0000,0.6835,0.5000,1.0000,0.0000
35.155,Upwind,1681.439,0.798,1681.340,0.798,15.652,15.652,179.710,15.214,0.057,6.780,-0.048,-0.0006,-0.0750,0.0000,0.6842,0.5000,1.0000,0.0000
35.354,Upwind,1699.905,0.816,1699.806,0.816,18.822,18.822,179.655,16.406,0.057,6.414,-0.053,-0.0005,-0.0941,0.0000,0.6850,0.5000,1.0000,0.0000
35.553,Upwind,1718.363,0.835,1718.264,0.835,22.470,22.470,179.596,17.176,0.057,5.923,-0.058,-0.0004,-0.1388,0.0000,0.6859,0.5000,1.0000,0.0000
35.753,Upwind,1736.815,0.853,1736.716,0.853,25.647,25.647,179.552,17.425,0.057,5.492,-0.061,-0.0003,-0.1869,0.0000,0.6865,0.5000,1.0000,0.0000
35.960,Upwind,1756.800,0.872,1756.701,0.872,29.418,29.418,179.508,17.328,0.057,5.034,-0.063,-0.0003,-0.2446,0.0000,0.6871,0.5000,1.0000,0.0000
36.157,Upwind,1773.709,0.888,1773.610,0.888,32.850,32.850,179.476,16.955,0.057,4.712,-0.066,-0.0002,-0.2910,0.0000,0.6876,0.5000,1.0000,0.0000
36.362,Upwind,1793.692,0.908,1793.593,0.908,36.189,36.190,179.452,16.424,0.056,4.516,-0.067,-0.0002,-0.3216,0.0000,0.6879,0.5000,1.0000,0.0000
36.558,Upwind,1812.138,0.925,1812.039,0.925,39.417,39.417,179.434,15.847,0.055,4.455,-0.069,-0.0002,-0.3374,0.0000,0.6882,0.5000,1.0000,0.0000
36.762,Upwind,1830.585,0.943,1830.486,0.943,42.531,42.532,179.418,15.315,0.054,4.518,-0.070,-0.0001,-0.3343,0.0000,0.6884,0.5000,1.0000,0.0000
36.955,Upwind,1847.496,0.959,1847.397,0.959,45.550,45.550,179.404,14.896,0.053,4.680,-0.071,-0.0001,-0.3180,0.0000,0.6886,0.5000,1.0000,0.0000
37.158,Upwind,1867.482,0.977,1867.383,0.977,48.500,48.500,179.387,14.633,0.052,4.905,-0.072,0.0000,-0.2903,0.0000,0.6888,0.5000,1.0000,0.0000
37.358,Upwind,1884.392,0.993,1884.293,0.993,51.414,51.415,179.366,14.538,0.050,5.155,-0.072,0.0000,-0.2571,0.0000,0.6891,0.5000,1.0000,0.0000
37.563,Upwind,1904.375,1.011,1904.276,1.011,54.326,54.326,179.339,14.597,0.049,5.391,-0.073,0.0000,-0.2241,0.0000,0.6895,0.5000,1.0000,0.0000
37.753,Upwind,1921.281,1.026,1921.182,1.026,57.261,57.261,179.306,14.775,0.048,5.583,-0.073,0.0000,-0.1947,0.0000,0.6900,0.5000,1.0000,0.0000
37.961,Upwind,1941.257,1.044,1941.158,1.044,60.240,60.241,179.269,15.025,0.047,5.712,-0.073,0.0000,-0.1741,0.0000,0.6905,0.5000,1.0000,0.0000
38.160,Upwind,1959.693,1.060,1959.594,1.060,63.272,63.273,179.228,15.296,0.047,5.767,-0.073,0.0000,-0.1626,0.0000,0.6911,0.5000,1.0000,0.0000
38.359,Upwind,1978.124,1.076,1978.025,1.076,66.357,66.358,179.186,15.545,0.046,5.752,-0.073,0.0000,-0.1609,0.0000,0.6917,0.5000,1.0000,0.0000
38.558,Upwind,1996.550,1.091,1996.451,1.091,69.486,69.487,179.144,15.732,0.046,5.679,-0.073,0.0000,-0.1676,0.0000,0.6923,0.5000,1.0000,0.0000
38.759,Upwind,2014.973,1.107,2014.874,1.107,72.644,72.645,179.105,15.834,0.045,5.565,-0.073,0.0000,-0.1816,0.0000,0.6928,0.5000,1.0000,0.0000
38.953,Upwind,2031.858,1.121,2031.759,1.121,75.813,75.814,179.069,15.838,0.045,5.432,-0.073,0.0000,-0.1994,0.0000,0.6933,0.5000,1.0000,0.0000
39.162,Upwind,2051.811,1.137,2051.712,1.137,78.973,78.974,179.038,15.750,0.045,5.300,-0.073,-0.0001,-0.2183,0.0000,0.6937,0.5000,1.0000,0.0000
39.356,Upwind,2068.692,1.150,2068.593,1.150,82.108,82.108,179.012,15.586,0.044,5.188,-0.073,-0.0001,-0.2360,0.0000,0.6941,0.5000,1.0000,0.0000
39.562,Upwind,2088.642,1.166,2088.543,1.166,85.204,85.205,178.990,15.374,0.044,5.108,-0.073,-0.0001,-0.2495,0.0000,0.6944,0.5000,1.0000,0.0000
39.761,Upwind,2107.056,1.180,2106.957,1.180,88.256,88.256,178.972,15.142,0.043,5.067,-0.073,-0.0001,-0.2582,0.0000,0.6947,0.5000,1.0000,0.0000
39.962,Upwind,2125.470,1.194,2125.371,1.194,91.262,91.262,178.956,14.917,0.043,5.066,-0.073,-0.0001,-0.2615,0.0000,0.6949,0.5000,1.0000,0.0000
40.162,Upwind,2143.884,1.208,2143.785,1.208,94.225,94.225,178.941,14.720,0.042,5.098,-0.073,-0.0001,-0.2597,0.0000,0.6951,0.5000,1.0000,0.0000
40.352,Upwind,2160.763,1.221,2160.664,1.221,96.910,96.910,178.928,14.578,0.041,5.151,-0.073,-0.0001,-0.2545,0.0000,0.6953,0.5000,1.0000,0.0000
40.562,Upwind,2180.711,1.236,2180.612,1.236,100.055,100.056,178.913,14.467,0.041,5.229,-0.073,-0.0001,-0.2454,0.0000,0.6955,0.5000,1.0000,0.0000
40.754,Upwind,2197.590,1.248,2197.491,1.248,102.943,102.944,178.898,14.422,0.040,5.304,-0.073,-0.0001,-0.2356,0.0000,0.6957,0.5000,1.0000,0.0000
40.956,Upwind,2216.002,1.261,2215.903,1.261,105.827,105.828,178.882,14.425,0.039,5.370,-0.073,-0.0001,-0.2261,0.0000,0.6959,0.5000,1.0000,0.0000
41.159,Upwind,2235.947,1.275,2235.848,1.275,108.715,108.716,178.865,14.463,0.038,5.421,-0.073,-0.0001,-0.2185,0.0000,0.6962,0.5000,1.0000,0.0000
41.354,Upwind,2252.823,1.287,2252.724,1.287,111.614,111.614,178.847,14.522,0.038,5.451,-0.073,-0.0001,-0.2130,0.0000,0.6964,0.5000,1.0000,0.0000
41.562,Upwind,2272.766,1.301,2272.667,1.301,114.525,114.525,178.829,14.586,0.037,5.458,-0.073,-0.0001,-0.2109,0.0000,0.6967,0.5000,1.0000,0.0000
41.751,Upwind,2289.639,1.312,2289.540,1.312,117.203,117.204,178.812,14.636,0.036,5.446,-0.073,0.0000,-0.2112,0.0000,0.6969,0.5000,1.0000,0.0000
41.959,Upwind,2309.579,1.325,2309.480,1.325,120.379,120.380,178.793,14.674,0.036,5.415,-0.073,0.0000,-0.2144,0.0000,0.6972,0.5000,1.0000,0.0000
42.159,Upwind,2327.984,1.337,2327.885,1.337,123.315,123.316,178.777,14.682,0.035,5.374,-0.073,-0.0001,-0.2191,0.0000,0.6974,0.5000,1.0000,0.0000
42.359,Upwind,2346.388,1.349,2346.289,1.349,126.250,126.251,178.763,14.661,0.034,5.330,-0.073,-0.0001,-0.2248,0.0000,0.6976,0.5000,1.0000,0.0000
42.551,Upwind,2363.259,1.359,2363.160,1.359,128.934,128.935,178.751,14.620,0.034,5.292,-0.073,-0.0001,-0.2300,0.0000,0.6978,0.5000,1.0000,0.0000
42.758,Upwind,2381.662,1.371,2381.563,1.371,132.095,132.095,178.738,14.549,0.033,5.254,-0.073,0.0000,-0.2355,0.0000,0.6979,0.5000,1.0000,0.0000
42.960,Upwind,2401.599,1.383,2401.500,1.383,134.997,134.998,178.728,14.471,0.033,5.231,-0.073,0.0000,-0.2391,0.0000,0.6981,0.5000,1.0000,0.0000
43.157,Upwind,2418.469,1.393,2418.370,1.393,137.883,137.884,178.720,14.390,0.032,5.219,-0.073,0.0000,-0.2413,0.0000,0.6982,0.5000,1.0000,0.0000
43.353,Upwind,2436.873,1.403,2436.774,1.403,140.515,140.515,178.712,14.319,0.031,5.219,-0.073,0.0000,-0.2417,0.0000,0.6983,0.5000,1.0000,0.0000
43.557,Upwind,2455.276,1.414,2455.177,1.414,143.609,143.610,178.704,14.247,0.031,5.229,-0.073,0.0000,-0.2407,0.0000,0.6984,0.5000,1.0000,0.0000
43.755,Upwind,2473.680,1.424,2473.581,1.424,146.216,146.217,178.698,14.199,0.030,5.244,-0.073,0.0000,-0.2387,0.0000,0.6985,0.5000,1.0000,0.0000
43.964,Upwind,2493.618,1.435,2493.519,1.435,149.288,149.289,178.690,14.161,0.029,5.265,-0.072,-0.0001,-0.2356,0.0000,0.6986,0.5000,1.0000,0.0000
44.161,Upwind,2512.022,1.445,2511.923,1.445,152.118,152.119,178.684,14.142,0.029,5.285,-0.072,0.0000,-0.2326,0.0000,0.6987,0.5000,0.0000,0.0000
44.365,Upwind,2530.427,1.455,2530.328,1.455,154.946,154.947,178.679,14.136,0.028,5.301,-0.072,0.0000,-0.2299,0.0000,0.6988,0.5000,0.0000,0.0000
44.563,Upwind,2548.831,1.464,2548.732,1.464,157.773,157.774,178.677,14.139,0.027,5.311,-0.072,0.0000,-0.2279,0.0000,0.6988,0.5000,0.0000,0.0000
44.752,Upwind,2565.703,1.473,2565.604,1.473,160.366,160.367,178.677,14.146,0.027,5.313,-0.072,0.0000,-0.2269,0.0000,0.6988,0.5000,0.0000,0.0000
44.953,Upwind,2584.109,1.482,2584.010,1.482,163.196,163.196,178.680,14.152,0.026,5.308,-0.072,0.0000,-0.2269,0.0000,0.6987,0.5000,0.0000,0.0000
45.159,Upwind,2604.051,1.491,2603.952,1.491,166.262,166.263,178.686,14.154,0.026,5.295,-0.072,-0.0001,-0.2280,0.0000,0.6987,0.5000,0.0000,0.0000
45.358,Upwind,2620.926,1.499,2620.827,1.499,169.093,169.093,178.695,14.147,0.025,5.278,-0.071,0.0000,-0.2298,0.0000,0.6985,0.5000,0.0000,0.0000
45.554,Upwind,2639.337,1.508,2639.238,1.508,171.685,171.686,178.705,14.131,0.024,5.260,-0.071,-0.0001,-0.2320,0.0000,0.6984,0.5000,0.0000,0.0000
45.760,Upwind,2659.284,1.517,2659.185,1.517,174.744,174.744,178.721,14.103,0.024,5.237,-0.071,-0.0001,-0.2348,0.0000,0.6982,0.5000,0.0000,0.0000
45.960,Upwind,2677.700,1.525,2677.601,1.525,177.561,177.562,178.738,14.068,0.023,5.217,-0.071,-0.0001,-0.2374,0.0000,0.6979,0.5000,0.0000,0.0000
46.164,Upwind,2696.118,1.533,2696.019,1.533,180.370,180.371,178.758,14.027,0.023,5.201,-0.071,-0.0001,-0.2396,0.0000,0.6976,0.5000,0.0000,0.0000
46.371,Upwind,2714.540,1.541,2714.441,1.541,183.171,183.172,178.781,13.983,0.022,5.188,-0.071,0.0000,-0.2413,0.0000,0.6973,0.5000,0.0000,0.0000
46.565,Upwind,2732.965,1.548,2732.866,1.548,185.964,185.964,178.807,13.939,0.021,5.180,-0.071,0.0000,-0.2424,0.0000,0.6970,0.5000,0.0000,0.0000
46.766,Upwind,2751.393,1.556,2751.294,1.556,188.747,188.748,178.835,13.899,0.021,5.176,-0.070,-0.0001,-0.2429,0.0000,0.6966,0.5000,0.0000,0.0000
46.954,Upwind,2768.290,1.562,2768.191,1.562,191.523,191.524,178.865,13.863,0.020,5.175,-0.070,0.0000,-0.2429,0.0000,0.6961,0.5000,0.0000,0.0000
47.157,Upwind,2786.726,1.569,2786.627,1.569,194.062,194.063,178.894,13.836,0.020,5.175,-0.070,0.0000,-0.2426,0.0000,0.6957,0.5000,0.0000,0.0000
47.360,Upwind,2806.703,1.577,2806.604,1.577,197.057,197.058,178.931,13.811,0.019,5.177,-0.070,-0.0001,-0.2420,0.0000,0.6952,0.5000,0.0000,0.0000
47.551,Upwind,2823.611,1.583,2823.512,1.583,199.588,199.589,178.964,13.796,0.019,5.177,-0.070,0.0000,-0.2415,0.0000,0.6948,0.5000,0.0000,0.0000
47.760,Upwind,2843.598,1.590,2843.499,1.590,202.576,202.576,179.005,13.783,0.018,5.177,-0.070,0.0000,-0.2410,0.0000,0.6942,0.5000,0.0000,0.0000
47.954,Upwind,2860.514,1.596,2860.415,1.596,205.102,205.103,179.041,13.775,0.017,5.174,-0.069,0.0000,-0.2408,0.0000,0.6937,0.5000,0.0000,0.0000
48.158,Upwind,2880.512,1.602,2880.413,1.602,208.085,208.086,179.085,13.768,0.017,5.168,-0.069,0.0000,-0.2408,0.0000,0.6931,0.5000,0.0000,0.0000
48.356,Upwind,2897.438,1.608,2897.339,1.608,210.609,210.610,179.124,13.762,0.016,5.161,-0.069,0.0000,-0.2412,0.0000,0.6925,0.5000,0.0000,0.0000
48.558,Upwind,2917.446,1.614,2917.347,1.614,213.361,213.362,179.169,13.755,0.016,5.151,-0.069,0.0000,-0.2419,0.0000,0.6919,0.5000,0.0000,0.0000
48.753,Upwind,2934.382,1.619,2934.283,1.619,216.111,216.112,179.215,13.745,0.015,5.140,-0.069,-0.0001,-0.2427,0.0000,0.6912,0.5000,0.0000,0.0000
48.954,Upwind,2952.862,1.624,2952.763,1.624,218.859,218.860,179.263,13.733,0.015,5.128,-0.068,0.0000,-0.2437,0.0000,0.6906,0.5000,0.0000,0.0000
49.160,Upwind,2972.889,1.630,2972.790,1.630,221.833,221.834,179.317,13.718,0.014,5.114,-0.068,0.0000,-0.2448,0.0000,0.6898,0.5000,0.0000,0.0000
49.358,Upwind,2989.840,1.635,2989.741,1.635,224.575,224.576,179.366,13.701,0.014,5.103,-0.068,0.0000,-0.2458,0.0000,0.6891,0.5000,0.0000,0.0000
49.563,Upwind,3009.880,1.640,3009.781,1.640,227.313,227.314,179.414,13.684,0.013,5.093,-0.068,0.0000,-0.2464,0.0000,0.6885,0.5000,0.0000,0.0000
49.763,Upwind,3028.384,1.644,3028.285,1.644,230.048,230.049,179.460,13.666,0.013,5.085,-0.067,0.0000,-0.2467,0.0000,0.6878,0.5000,0.0000,0.0000
49.963,Upwind,3046.894,1.649,3046.795,1.649,232.780,232.781,179.506,13.650,0.012,5.080,-0.067,0.0000,-0.2467,0.0000,0.6872,0.5000,0.0000,0.0000
50.159,Upwind,3065.409,1.653,3065.310,1.653,235.508,235.509,179.551,13.636,0.011,5.076,-0.067,0.0000,-0.2464,0.0000,0.6865,0.5000,0.0000,0.0000
50.353,Upwind,3082.386,1.657,3082.287,1.657,238.007,238.008,179.591,13.627,0.011,5.075,-0.067,0.0000,-0.2458,0.0000,0.6860,0.5000,0.0000,0.0000
50.554,Upwind,3100.911,1.661,3100.812,1.661,240.959,240.960,179.638,13.620,0.010,5.073,-0.067,0.0000,-0.2450,0.0000,0.6853,0.5000,0.0000,0.0000
50.752,Upwind,3119.441,1.665,3119.342,1.665,243.456,243.457,179.676,13.617,0.010,5.072,-0.066,0.0000,-0.2442,0.0000,0.6848,0.5000,0.0000,0.0000
50.958,Upwind,3139.521,1.669,3139.422,1.669,246.406,246.407,179.720,13.617,0.009,5.071,-0.066,0.0000,-0.2432,0.0000,0.6842,0.5000,0.0000,0.0000
51.162,Upwind,3158.061,1.673,3157.962,1.673,249.129,249.131,179.759,13.619,0.009,5.068,-0.066,0.0000,-0.2425,0.0000,0.6836,0.5000,0.0000,0.0000
51.361,Upwind,3176.607,1.676,3176.508,1.676,251.854,251.855,179.798,13.623,0.008,5.064,-0.066,0.0000,-0.2419,0.0000,0.6831,0.5000,0.0000,0.0000
51.556,Upwind,3193.610,1.679,3193.511,1.679,254.579,254.580,179.835,13.626,0.008,5.059,-0.065,0.0000,-0.2414,0.0000,0.6825,0.5000,0.0000,0.0000
51.763,Upwind,3213.711,1.683,3213.612,1.683,257.304,257.305,179.872,13.629,0.008,5.053,-0.065,0.0000,-0.2412,0.0000,0.6820,0.5000,0.0000,0.0000
51.956,Upwind,3230.723,1.685,3230.624,1.685,259.803,259.804,179.905,13.630,0.007,5.046,-0.065,0.0000,-0.2411,0.0000,0.6816,0.5000,0.0000,0.0000
52.158,Upwind,3250.833,1.688,3250.734,1.688,262.756,262.757,179.943,13.630,0.007,5.038,-0.065,0.0000,-0.2411,0.0000,0.6810,0.5000,0.0000,0.0000
# disengaged
