time_s,leg,north_m,east_m,along_m,cross_m,agl_ft,altitude_ft,speed_kts,vertical_speed_fps,heading_deg,pitch_deg,roll_deg,aileron_cmd,elevator_cmd,rudder_cmd,throttle_cmd,flaps_cmd,gear_cmd,brake_cmd
1.756,Upwind,0.194,0.000,0.194,0.000,3.691,3.691,1.737,0.000,0.000,0.454,0.000,0.0000,0.0027,0.0000,0.0000,0.5000,1.0000,1.0000
1.948,Upwind,0.305,0.000,0.305,0.000,3.692,3.692,0.388,0.034,0.000,0.383,0.000,0.0000,0.0315,0.0000,0.0000,0.5000,1.0000,1.0000
2.148,Upwind,0.307,0.000,0.307,0.000,3.705,3.705,0.042,0.040,0.000,0.331,0.000,0.0000,0.0569,0.0000,0.0000,0.5000,1.0000,1.0000
2.345,Upwind,0.304,0.000,0.304,0.000,3.696,3.696,0.065,-0.101,0.000,0.444,0.000,0.0000,0.0690,0.0000,0.0000,0.5000,1.0000,1.0000
2.557,Upwind,0.304,0.000,0.304,0.000,3.682,3.682,0.005,-0.005,0.000,0.477,0.000,0.0000,0.0649,0.0000,0.0178,0.5000,1.0000,0.0000
2.759,Upwind,0.307,0.000,0.307,0.000,3.687,3.687,0.046,0.032,0.000,0.452,0.000,0.0000,0.0612,0.0000,0.1192,0.5000,1.0000,0.0000
2.953,Upwind,0.312,0.000,0.312,0.000,3.691,3.691,0.057,0.012,0.000,0.442,0.000,0.0000,0.0622,0.0000,0.2160,0.5000,1.0000,0.0000
3.145,Upwind,0.318,0.000,0.318,0.000,3.692,3.692,0.075,-0.006,0.000,0.447,0.000,0.0000,0.0631,0.0000,0.3121,0.5000,1.0000,0.0000
3.349,Upwind,0.328,0.000,0.328,0.000,3.690,3.690,0.107,-0.004,0.000,0.451,0.000,0.0000,0.0632,0.0000,0.4139,0.5000,1.0000,0.0000
3.549,Upwind,0.341,0.000,0.341,0.000,3.690,3.690,0.156,0.002,0.000,0.450,0.000,0.0000,0.0628,0.0000,0.5142,0.5000,1.0000,0.0000
3.749,Upwind,0.360,0.000,0.360,0.000,3.691,3.691,0.213,0.002,0.000,0.449,0.000,0.0000,0.0628,0.0000,0.6138,0.5000,1.0000,0.0000
3.946,Upwind,0.387,0.000,0.387,0.000,3.691,3.691,0.293,0.000,0.000,0.449,0.000,0.0000,0.0629,0.0000,0.7123,0.5000,1.0000,0.0000
4.140,Upwind,0.423,0.000,0.423,0.000,3.691,3.691,0.395,0.000,0.000,0.449,0.000,0.0000,0.0629,0.0000,0.8093,0.5000,1.0000,0.0000
4.346,Upwind,0.471,0.000,0.471,0.000,3.691,3.691,0.523,0.000,0.000,0.450,0.000,0.0000,0.0630,0.0000,0.9126,0.5000,1.0000,0.0000
4.540,Upwind,0.534,0.000,0.534,0.000,3.691,3.691,0.682,0.000,0.000,0.450,0.000,0.0000,0.0630,0.0000,1.0000,0.5000,1.0000,0.0000
4.752,Upwind,0.623,0.000,0.623,0.000,3.691,3.691,0.895,0.000,0.000,0.450,0.000,0.0000,0.0630,0.0000,1.0000,0.5000,1.0000,0.0000
4.948,Upwind,0.720,0.000,0.720,0.000,3.691,3.691,1.114,0.000,0.000,0.450,0.000,0.0000,0.0630,0.0000,1.0000,0.5000,1.0000,0.0000
5.140,Upwind,0.851,0.000,0.851,0.000,3.691,3.691,1.399,0.000,0.000,0.450,0.000,0.0000,0.0631,0.0000,1.0000,0.5000,1.0000,0.0000
5.356,Upwind,1.030,0.000,1.030,0.000,3.691,3.691,1.771,0.000,0.000,0.451,0.000,0.0000,0.0631,0.0000,1.0000,0.5000,1.0000,0.0000
5.550,Upwind,1.237,0.000,1.237,0.000,3.691,3.691,2.145,0.000,0.000,0.451,0.000,0.0000,0.0632,0.0000,1.0000,0.5000,1.0000,0.0000
5.747,Upwind,1.466,0.000,1.466,0.000,3.691,3.691,2.620,0.000,0.000,0.451,0.000,0.0000,0.0632,0.0000,1.0000,0.5000,1.0000,0.0000
5.957,Upwind,1.796,0.000,1.796,0.000,3.691,3.691,3.226,0.000,0.000,0.452,0.000,0.0000,0.0633,0.0000,1.0000,0.5000,1.0000,0.0000
6.140,Upwind,2.133,0.000,2.133,0.000,3.691,3.691,3.818,0.000,0.000,0.452,0.000,0.0000,0.0633,0.0000,1.0000,0.5000,1.0000,0.0000
6.352,Upwind,2.609,0.000,2.609,0.000,3.691,3.691,4.623,0.000,0.000,0.453,0.000,0.0000,0.0634,0.0000,1.0000,0.5000,1.0000,0.0000
6.548,Upwind,3.088,0.000,3.088,0.000,3.691,3.691,5.398,0.000,0.000,0.453,0.000,0.0000,0.0635,0.0000,1.0000,0.5000,1.0000,0.0000
6.749,Upwind,3.700,0.000,3.700,0.000,3.691,3.691,6.349,0.000,0.000,0.453,0.000,0.0000,0.0635,0.0000,1.0000,0.5000,1.0000,0.0000
6.942,Upwind,4.416,0.000,4.416,0.000,3.691,3.691,7.416,0.000,0.000,0.454,0.000,0.0000,0.0636,0.0000,1.0000,0.5000,1.0000,0.0000
7.151,Upwind,5.324,0.000,5.324,0.000,3.691,3.691,8.606,0.001,0.000,0.455,0.000,0.0000,0.0637,0.0000,1.0000,0.5000,1.0000,0.0000
7.351,Upwind,6.298,0.000,6.298,0.000,3.691,3.691,9.995,0.001,0.000,0.455,0.000,0.0000,0.0637,0.0000,1.0000,0.5000,1.0000,0.0000
7.549,Upwind,7.306,0.000,7.306,0.000,3.691,3.691,11.173,0.001,0.000,0.455,0.000,0.0000,0.0636,0.0000,1.0000,0.5000,1.0000,0.0000
7.752,Upwind,8.641,0.000,8.641,0.000,3.692,3.692,12.564,0.001,0.000,0.454,0.000,0.0000,0.0636,0.0000,1.0000,0.5000,1.0000,0.0000
7.951,Upwind,10.011,0.000,10.011,0.000,3.692,3.692,13.739,0.001,0.000,0.454,0.000,0.0000,0.0635,0.0000,1.0000,0.5000,1.0000,0.0000
8.166,Upwind,11.643,0.000,11.643,0.000,3.692,3.692,14.808,0.001,0.000,0.454,0.000,0.0000,0.0635,0.0000,1.0000,0.5000,1.0000,0.0000
8.347,Upwind,13.005,0.000,13.005,0.000,3.692,3.692,16.302,0.001,0.000,0.453,0.000,0.0000,0.0634,0.0000,1.0000,0.5000,1.0000,0.0000
8.543,Upwind,14.759,0.000,14.759,0.000,3.692,3.693,17.581,0.002,0.000,0.453,0.000,0.0000,0.0634,0.0000,1.0000,0.5000,1.0000,0.0000
8.741,Upwind,16.645,0.000,16.645,0.000,3.693,3.693,18.860,0.002,0.000,0.453,0.000,0.0000,0.0633,0.0000,1.0000,0.5000,1.0000,0.0000
8.954,Upwind,18.836,0.000,18.836,0.000,3.693,3.693,20.243,0.002,0.000,0.452,0.000,0.0000,0.0633,0.0000,1.0000,0.5000,1.0000,0.0000
9.155,Upwind,20.995,0.000,20.995,0.000,3.694,3.694,21.519,0.002,0.000,0.452,0.000,0.0000,0.0632,0.0000,1.0000,0.5000,1.0000,0.0000
9.343,Upwind,23.090,0.000,23.090,0.000,3.694,3.694,22.688,0.002,0.000,0.451,0.000,0.0000,0.0631,0.0000,1.0000,0.5000,1.0000,0.0000
9.550,Upwind,25.708,0.000,25.708,0.000,3.694,3.694,23.962,0.002,0.000,0.451,0.000,0.0000,0.0630,0.0000,1.0000,0.5000,1.0000,0.0000
9.739,Upwind,28.043,0.000,28.043,0.000,3.695,3.695,25.234,0.002,0.000,0.450,0.000,0.0000,0.0629,0.0000,1.0000,0.5000,1.0000,0.0000
9.944,Upwind,30.715,0.000,30.715,0.000,3.695,3.695,26.505,0.003,0.000,0.449,0.000,0.0000,0.0628,0.0000,1.0000,0.5000,1.0000,0.0000
10.146,Upwind,33.519,0.000,33.519,0.000,3.696,3.696,27.775,0.003,0.000,0.449,0.000,0.0000,0.0627,0.0000,1.0000,0.5000,1.0000,0.0000
10.351,Upwind,36.703,0.000,36.703,0.000,3.696,3.696,29.149,0.003,0.000,0.448,0.000,0.0000,0.0626,0.0000,1.0000,0.5000,1.0000,0.0000
10.555,Upwind,39.779,0.000,39.779,0.000,3.697,3.697,30.416,0.003,0.000,0.447,0.000,0.0000,0.0625,0.0000,1.0000,0.5000,1.0000,0.0000
10.742,Upwind,42.712,0.000,42.712,0.000,3.698,3.698,31.576,0.003,0.000,0.446,0.000,0.0000,0.0624,0.0000,1.0000,0.5000,1.0000,0.0000
10.949,Upwind,46.037,0.001,46.037,0.001,3.698,3.698,32.841,0.004,0.000,0.445,0.000,0.0000,0.0622,0.0000,1.0000,0.5000,1.0000,0.0000
11.142,Upwind,49.492,0.001,49.492,0.001,3.699,3.699,34.104,0.004,0.000,0.444,0.000,0.0000,0.0621,0.0000,1.0000,0.5000,1.0000,0.0000
11.346,Upwind,53.077,0.001,53.077,0.001,3.700,3.700,35.365,0.004,0.000,0.443,0.000,0.0000,0.0619,0.0000,1.0000,0.5000,1.0000,0.0000
11.547,Upwind,56.791,0.001,56.791,0.001,3.701,3.701,36.625,0.004,0.000,0.442,0.000,0.0000,0.0618,0.0000,1.0000,0.5000,1.0000,0.0000
11.741,Upwind,60.635,0.001,60.635,0.001,3.702,3.702,37.884,0.005,0.000,0.441,0.000,0.0000,0.0616,0.0000,1.0000,0.5000,1.0000,0.0000
11.954,Upwind,64.946,0.001,64.946,0.001,3.703,3.703,39.245,0.005,0.000,0.440,0.000,0.0000,0.0614,0.0000,1.0000,0.5000,1.0000,0.0000
12.154,Upwind,69.059,0.001,69.059,0.001,3.704,3.704,40.500,0.005,0.000,0.438,0.000,0.0000,0.0612,0.0000,1.0000,0.5000,1.0000,0.0000
12.343,Upwind,72.943,0.001,72.943,0.001,3.705,3.705,41.649,0.005,0.000,0.437,0.000,0.0000,0.0610,0.0000,1.0000,0.5000,1.0000,0.0000
12.551,Upwind,77.673,0.001,77.673,0.001,3.706,3.706,42.901,0.006,0.000,0.436,0.000,0.0000,0.0608,0.0000,1.0000,0.5000,1.0000,0.0000
12.743,Upwind,81.793,0.001,81.793,0.001,3.707,3.707,44.151,0.006,0.000,0.434,0.000,0.0000,0.0606,0.0000,1.0000,0.5000,1.0000,0.0000
12.940,Upwind,86.411,0.001,86.411,0.001,3.708,3.708,45.400,0.006,0.000,0.433,0.000,0.0000,0.0604,0.0000,1.0000,0.5000,1.0000,0.0000
13.148,Upwind,91.157,0.002,91.157,0.002,3.709,3.709,46.646,0.006,0.000,0.431,0.000,0.0000,0.0602,0.0000,1.0000,0.5000,1.0000,0.0000
13.343,Upwind,96.031,0.002,96.031,0.002,3.710,3.711,47.891,0.007,0.000,0.429,0.000,0.0000,0.0599,0.0000,1.0000,0.5000,1.0000,0.0000
13.546,Upwind,101.034,0.002,101.034,0.002,3.712,3.712,49.134,0.007,0.000,0.428,0.000,0.0000,0.0597,0.0000,1.0000,0.5000,1.0000,0.0000
13.747,Upwind,106.164,0.002,106.164,0.002,3.713,3.713,50.375,0.007,0.001,0.426,0.000,0.0000,0.0594,0.0000,1.0000,0.5000,1.0000,0.0000
13.939,Upwind,111.421,0.002,111.421,0.002,3.715,3.715,51.614,0.008,0.001,0.424,0.000,-0.0001,0.0591,0.0000,1.0000,0.5000,1.0000,0.0000
14.157,Upwind,117.261,0.003,117.261,0.003,3.716,3.717,52.954,0.009,0.001,0.422,0.000,-0.0001,0.0588,0.0000,1.0000,0.5000,1.0000,0.0000
14.349,Upwind,122.318,0.003,122.318,0.003,3.718,3.718,54.086,0.009,0.001,0.419,0.000,-0.0001,0.0585,0.0000,1.0000,0.5000,1.0000,0.0000
14.543,Upwind,127.958,0.003,127.958,0.003,3.720,3.720,55.318,0.009,0.001,0.417,0.000,-0.0001,0.0582,0.0000,1.0000,0.5000,1.0000,0.0000
14.739,Upwind,133.723,0.003,133.723,0.003,3.722,3.722,56.548,0.010,0.001,0.415,0.000,-0.0001,0.0578,0.0000,1.0000,0.5000,1.0000,0.0000
14.951,Upwind,140.112,0.003,140.112,0.003,3.724,3.724,57.776,0.010,0.001,0.412,0.000,-0.0001,0.0574,0.0000,1.0000,0.5000,1.0000,0.0000
15.150,Upwind,146.141,0.004,146.141,0.004,3.726,3.726,59.104,0.011,0.001,0.409,0.000,-0.0001,0.0570,0.0000,1.0000,0.5000,1.0000,0.0000
15.350,Upwind,151.778,0.004,151.778,0.004,3.728,3.728,60.225,0.011,0.001,0.407,0.000,-0.0001,0.0567,0.0000,1.0000,0.5000,1.0000,0.0000
15.553,Upwind,158.576,0.004,158.576,0.004,3.730,3.730,61.547,0.011,0.001,0.404,0.000,-0.0001,0.0562,0.0000,1.0000,0.5000,1.0000,0.0000
15.742,Upwind,164.444,0.005,164.444,0.005,3.733,3.733,62.664,0.012,0.001,0.401,0.000,-0.0001,0.0558,0.0000,1.0000,0.5000,1.0000,0.0000
15.940,Upwind,170.964,0.005,170.964,0.005,3.735,3.735,63.879,0.011,0.001,0.398,0.000,-0.0001,0.0554,0.0000,1.0000,0.5000,1.0000,0.0000
16.139,Upwind,177.610,0.005,177.610,0.005,3.737,3.737,65.092,0.009,0.001,0.395,0.000,-0.0001,0.0551,0.0000,1.0000,0.5000,1.0000,0.0000
16.341,Upwind,184.380,0.006,184.380,0.006,3.739,3.739,66.304,0.009,0.002,0.393,0.000,-0.0001,0.0548,0.0000,1.0000,0.5000,1.0000,0.0000
16.551,Upwind,191.855,0.006,191.855,0.006,3.740,3.740,67.613,0.009,0.002,0.391,0.000,-0.0001,0.0545,0.0000,1.0000,0.5000,1.0000,0.0000
16.747,Upwind,198.294,0.007,198.294,0.007,3.742,3.742,68.719,0.009,0.002,0.389,0.000,-0.0001,0.0542,0.0000,1.0000,0.5000,1.0000,0.0000
16.942,Upwind,205.437,0.007,205.437,0.007,3.744,3.744,69.924,0.009,0.002,0.386,0.000,-0.0001,0.0538,0.0000,1.0000,0.5000,1.0000,0.0000
17.152,Upwind,213.315,0.008,213.315,0.008,3.746,3.746,71.226,0.009,0.002,0.384,0.000,-0.0002,0.0535,0.0000,1.0000,0.5000,1.0000,0.0000
17.353,Upwind,220.716,0.008,220.716,0.008,3.748,3.748,72.326,0.010,0.002,0.381,0.000,-0.0002,0.0531,0.0000,1.0000,0.5000,1.0000,0.0000
17.542,Upwind,227.608,0.009,227.608,0.009,3.750,3.750,73.523,0.010,0.002,0.379,0.000,-0.0002,0.0528,0.0000,1.0000,0.5000,1.0000,0.0000
17.741,Upwind,235.245,0.009,235.245,0.009,3.752,3.752,74.718,0.010,0.002,0.376,0.000,-0.0002,0.0524,0.0000,1.0000,0.5000,1.0000,0.0000
17.941,Upwind,243.005,0.010,243.005,0.010,3.753,3.753,75.911,0.010,0.003,0.374,0.000,-0.0002,0.0521,0.0000,1.0000,0.5000,1.0000,0.0000
18.142,Upwind,250.887,0.011,250.887,0.011,3.755,3.755,77.102,0.010,0.003,0.371,0.000,-0.0002,0.0517,0.0000,1.0000,0.5000,1.0000,0.0000
18.352,Upwind,259.564,0.011,259.564,0.011,3.757,3.758,78.290,0.010,0.003,0.369,0.000,-0.0002,0.0514,0.0000,1.0000,0.5000,1.0000,0.0000
18.542,Upwind,267.018,0.012,267.018,0.012,3.760,3.760,79.476,0.010,0.003,0.366,0.000,-0.0002,0.0510,0.0000,1.0000,0.5000,1.0000,0.0000
18.739,Upwind,275.267,0.013,275.267,0.013,3.762,3.762,80.659,0.011,0.003,0.363,0.000,-0.0002,0.0506,0.0000,1.0000,0.5000,1.0000,0.0000
18.949,Upwind,283.637,0.014,283.637,0.014,3.764,3.764,81.840,0.011,0.003,0.361,0.000,-0.0003,0.0502,0.0000,1.0000,0.5000,1.0000,0.0000
19.143,Upwind,292.128,0.015,292.128,0.015,3.766,3.766,83.018,0.011,0.004,0.358,0.000,-0.0003,0.0498,0.0000,1.0000,0.5000,1.0000,0.0000
19.342,Upwind,300.741,0.015,300.741,0.015,3.768,3.768,84.194,0.011,0.004,0.355,0.000,-0.0003,0.0495,0.0000,1.0000,0.5000,1.0000,0.0000
19.555,Upwind,310.208,0.016,310.208,0.016,3.770,3.770,85.465,0.011,0.004,0.352,0.000,-0.0003,0.0490,0.0000,1.0000,0.5000,1.0000,0.0000
19.751,Upwind,319.072,0.017,319.072,0.017,3.773,3.773,86.635,0.011,0.004,0.349,0.000,-0.0003,0.0486,0.0000,1.0000,0.5000,1.0000,0.0000
19.946,Upwind,327.303,0.018,327.303,0.018,3.775,3.775,87.706,0.011,0.005,0.347,0.000,-0.0003,0.0483,0.0000,1.0000,0.5000,1.0000,0.0000
20.155,Upwind,337.160,0.020,337.160,0.020,3.777,3.777,88.968,0.011,0.005,0.344,0.000,-0.0004,0.0478,0.0000,1.0000,0.5000,1.0000,0.0000
20.340,Upwind,345.611,0.021,345.611,0.021,3.779,3.779,90.034,0.011,0.005,0.341,0.000,-0.0004,0.0475,0.0000,1.0000,0.5000,1.0000,0.0000
20.549,Upwind,354.945,0.022,354.945,0.022,3.781,3.781,91.195,0.012,0.005,0.338,0.000,-0.0004,0.0470,0.0000,1.0000,0.5000,1.0000,0.0000
20.745,Upwind,364.398,0.023,364.398,0.023,3.784,3.784,92.353,0.012,0.006,0.335,0.000,-0.0004,0.0466,0.0000,1.0000,0.5000,1.0000,0.0000
20.945,Upwind,373.970,0.025,373.970,0.025,3.786,3.786,93.508,0.012,0.006,0.332,0.000,-0.0004,0.0462,0.0000,1.0000,0.5000,1.0000,0.0000
21.144,Upwind,383.660,0.026,383.660,0.026,3.788,3.788,94.660,0.012,0.006,0.329,0.000,-0.0004,0.0458,0.0000,1.0000,0.5000,1.0000,0.0000
21.357,Upwind,394.292,0.028,394.292,0.028,3.791,3.791,95.906,0.012,0.006,0.326,0.000,-0.0005,0.0453,0.0000,1.0000,0.5000,1.0000,0.0000
21.545,Upwind,403.397,0.029,403.397,0.029,3.793,3.793,96.957,0.012,0.007,0.323,0.000,-0.0005,0.0449,0.0000,1.0000,0.5000,1.0000,0.0000
21.740,Upwind,413.442,0.031,413.442,0.031,3.796,3.796,98.102,0.012,0.007,0.320,0.000,-0.0005,0.0445,0.0000,1.0000,0.5000,1.0000,0.0000
21.947,Upwind,423.604,0.033,423.604,0.033,3.798,3.798,99.244,0.012,0.007,0.317,0.000,-0.0005,0.0441,0.0000,1.0000,0.5000,1.0000,0.0000
22.140,Upwind,433.884,0.034,433.884,0.034,3.800,3.800,100.383,0.012,0.008,0.314,0.000,-0.0006,0.0436,0.0000,1.0000,0.5000,1.0000,0.0000
22.342,Upwind,444.281,0.036,444.281,0.036,3.803,3.803,101.519,0.013,0.008,0.311,0.000,-0.0006,0.0432,0.0000,1.0000,0.5000,1.0000,0.0000
22.554,Upwind,455.676,0.038,455.676,0.038,3.806,3.806,102.747,0.013,0.008,0.307,0.000,-0.0006,0.0427,0.0000,1.0000,0.5000,1.0000,0.0000
22.752,Upwind,466.316,0.040,466.316,0.040,3.808,3.808,103.877,0.013,0.009,0.304,0.000,-0.0006,0.0422,0.0000,1.0000,0.5000,1.0000,0.0000
22.957,Upwind,477.072,0.043,477.072,0.043,3.811,3.811,105.005,0.013,0.009,0.301,0.000,-0.0007,0.0418,0.0000,1.0000,0.5000,1.0000,0.0000
23.139,Upwind,487.033,0.045,487.033,0.045,3.813,3.813,106.036,0.013,0.009,0.298,0.000,-0.0007,0.0414,0.0000,1.0000,0.5000,1.0000,0.0000
23.351,Upwind,498.931,0.047,498.931,0.047,3.816,3.816,107.252,0.013,0.010,0.294,0.000,-0.0007,0.0409,0.0000,1.0000,0.5000,1.0000,0.0000
23.544,Upwind,509.104,0.049,509.104,0.049,3.818,3.818,108.278,0.013,0.010,0.291,0.000,-0.0008,0.0405,0.0000,1.0000,0.5000,1.0000,0.0000
23.741,Upwind,520.313,0.052,520.313,0.052,3.821,3.821,109.394,0.013,0.011,0.288,0.000,-0.0008,0.0400,0.0000,1.0000,0.5000,1.0000,0.0000
23.941,Upwind,531.635,0.055,531.635,0.055,3.823,3.823,110.508,0.013,0.011,0.285,0.000,-0.0008,0.0395,0.0000,1.0000,0.5000,1.0000,0.0000
24.158,Upwind,544.031,0.058,544.031,0.058,3.826,3.826,111.711,0.013,0.011,0.281,0.000,-0.0008,0.0390,0.0000,1.0000,0.5000,1.0000,0.0000
24.352,Upwind,555.592,0.061,555.592,0.061,3.829,3.829,112.819,0.013,0.012,0.278,0.000,-0.0009,0.0385,0.0000,1.0000,0.5000,1.0000,0.0000
24.543,Upwind,566.289,0.063,566.289,0.063,3.831,3.831,113.831,0.014,0.012,0.275,0.000,-0.0009,0.0381,0.0000,1.0000,0.5000,1.0000,0.0000
24.740,Upwind,578.068,0.066,578.068,0.066,3.834,3.834,114.933,0.014,0.013,0.271,0.000,-0.0009,0.0376,0.0000,1.0000,0.5000,1.0000,0.0000
24.944,Upwind,589.960,0.070,589.960,0.070,3.837,3.837,116.033,0.014,0.013,0.268,0.000,-0.0010,0.0371,0.0000,1.0000,0.5000,1.0000,0.0000
25.163,Upwind,602.970,0.073,602.970,0.073,3.840,3.840,117.220,0.014,0.014,0.264,0.000,-0.0010,0.0366,0.0000,1.0000,0.5000,1.0000,0.0000
25.346,Upwind,614.082,0.076,614.082,0.076,3.842,3.842,118.222,0.014,0.014,0.261,0.000,-0.0011,0.0362,0.0000,1.0000,0.5000,1.0000,0.0000
25.540,Upwind,626.312,0.080,626.312,0.080,3.845,3.845,119.312,0.014,0.015,0.257,0.000,-0.0011,0.0357,0.0000,1.0000,0.5000,1.0000,0.0000
25.750,Upwind,639.687,0.084,639.687,0.084,3.848,3.848,120.399,0.014,0.015,0.254,0.000,-0.0011,0.0352,0.0000,1.0000,0.5000,1.0000,0.0000
25.954,Upwind,652.150,0.088,652.150,0.088,3.851,3.851,121.574,0.014,0.016,0.250,-0.001,-0.0012,0.0347,0.0000,1.0000,0.5000,1.0000,0.0000
26.143,Upwind,663.672,0.092,663.672,0.092,3.854,3.854,122.565,0.014,0.016,0.247,-0.001,-0.0012,0.0342,0.0000,1.0000,0.5000,1.0000,0.0000
26.340,Upwind,676.348,0.096,676.348,0.096,3.856,3.856,123.643,0.014,0.017,0.243,-0.001,-0.0012,0.0337,0.0000,1.0000,0.5000,1.0000,0.0000
26.546,Upwind,689.135,0.100,689.135,0.100,3.859,3.859,124.718,0.014,0.017,0.240,-0.001,-0.0013,0.0332,0.0000,1.0000,0.5000,1.0000,0.0000
26.740,Upwind,702.032,0.105,702.032,0.105,3.862,3.862,125.790,0.014,0.018,0.236,-0.001,-0.0013,0.0327,0.0000,1.0000,0.5000,1.0000,0.0000
26.950,Upwind,715.039,0.109,715.039,0.109,3.865,3.865,126.859,0.014,0.018,0.233,-0.001,-0.0014,0.0322,0.0000,1.0000,0.5000,1.0000,0.0000
27.150,Upwind,729.254,0.115,729.254,0.115,3.868,3.868,127.925,0.015,0.019,0.229,-0.001,-0.0014,0.0317,0.0000,1.0000,0.5000,1.0000,0.0000
27.348,Upwind,741.383,0.119,741.383,0.119,3.871,3.871,128.988,0.015,0.019,0.225,-0.001,-0.0015,0.0312,0.0000,1.0000,0.5000,1.0000,0.0000
27.544,Upwind,754.718,0.124,754.718,0.124,3.874,3.874,130.048,0.015,0.020,0.222,-0.001,-0.0015,0.0307,0.0000,1.0000,0.5000,1.0000,0.0000
27.745,Upwind,768.163,0.130,768.163,0.130,3.876,3.876,131.105,0.015,0.020,0.218,-0.001,-0.0015,0.0302,0.0000,1.0000,0.5000,1.0000,0.0000
27.941,Upwind,781.716,0.135,781.716,0.135,3.879,3.879,132.159,0.015,0.021,0.215,-0.001,-0.0016,0.0297,0.0000,1.0000,0.5000,1.0000,0.0000
28.142,Upwind,795.378,0.141,795.378,0.141,3.882,3.882,133.209,0.015,0.021,0.211,-0.001,-0.0016,0.0292,0.0000,1.0000,0.5000,1.0000,0.0000
28.353,Upwind,810.299,0.147,810.299,0.147,3.886,3.886,134.345,0.015,0.022,0.207,-0.001,-0.0017,0.0286,0.0000,1.0000,0.5000,1.0000,0.0000
28.552,Upwind,824.185,0.153,824.185,0.153,3.889,3.889,135.390,0.015,0.023,0.203,-0.001,-0.0017,0.0281,0.0000,1.0000,0.5000,1.0000,0.0000
28.751,Upwind,838.179,0.159,838.179,0.159,3.891,3.892,136.433,0.015,0.023,0.200,-0.001,-0.0018,0.0276,0.0000,1.0000,0.5000,1.0000,0.0000
28.956,Upwind,852.279,0.166,852.279,0.166,3.894,3.895,137.473,0.015,0.024,0.196,-0.001,-0.0018,0.0271,0.0000,1.0000,0.5000,1.0000,0.0000
29.139,Upwind,865.299,0.172,865.299,0.172,3.897,3.897,138.337,0.015,0.024,0.193,-0.001,-0.0019,0.0266,0.0000,1.0000,0.5000,1.0000,0.0000
29.339,Upwind,879.604,0.178,879.604,0.178,3.900,3.900,139.459,0.015,0.025,0.189,-0.001,-0.0019,0.0261,0.0000,1.0000,0.5000,1.0000,0.0000
29.551,Upwind,895.221,0.186,895.221,0.186,3.904,3.904,140.577,0.015,0.025,0.185,-0.002,-0.0020,0.0255,0.0000,1.0000,0.5000,1.0000,0.0000
29.745,Upwind,908.533,0.193,908.533,0.193,3.906,3.906,141.520,0.015,0.026,0.181,-0.002,-0.0020,0.0250,0.0000,1.0000,0.5000,1.0000,0.0000
29.939,Upwind,923.156,0.200,923.156,0.200,3.909,3.909,142.547,0.015,0.027,0.178,-0.002,-0.0021,0.0245,0.0000,1.0000,0.5000,1.0000,0.0000
30.141,Upwind,937.885,0.208,937.885,0.208,3.912,3.912,143.571,0.015,0.027,0.174,-0.002,-0.0022,0.0240,0.0000,1.0000,0.5000,1.0000,0.0000
30.353,Upwind,953.960,0.216,953.960,0.216,3.916,3.916,144.678,0.015,0.028,0.170,-0.002,-0.0022,0.0234,0.0000,1.0000,0.5000,1.0000,0.0000
30.548,Upwind,967.658,0.223,967.658,0.223,3.919,3.919,145.612,0.016,0.028,0.166,-0.002,-0.0023,0.0229,0.0000,1.0000,0.5000,1.0000,0.0000
30.743,Upwind,982.701,0.232,982.701,0.232,3.922,3.922,146.627,0.016,0.029,0.162,-0.002,-0.0023,0.0224,0.0000,1.0000,0.5000,1.0000,0.0000
30.956,Upwind,999.116,0.241,999.116,0.241,3.925,3.925,147.725,0.016,0.030,0.158,-0.002,-0.0024,0.0218,0.0000,1.0000,0.5000,1.0000,0.0000
31.151,Upwind,1014.377,0.249,1014.377,0.249,3.928,3.928,148.651,0.016,0.030,0.155,-0.002,-0.0024,0.0213,0.0000,1.0000,0.5000,1.0000,0.0000
31.345,Upwind,1028.457,0.258,1028.457,0.258,3.931,3.931,149.659,0.016,0.031,0.151,-0.002,-0.0025,0.0208,0.0000,1.0000,0.5000,1.0000,0.0000
31.549,Upwind,1043.916,0.267,1043.916,0.267,3.934,3.934,150.664,0.013,0.032,0.148,-0.002,-0.0026,-0.0453,0.0000,1.0000,0.5000,1.0000,0.0000
31.747,Upwind,1059.479,0.276,1059.479,0.276,3.935,3.935,151.663,0.000,0.032,0.157,-0.002,-0.0026,-0.1346,0.0000,1.0000,0.5000,1.0000,0.0000
31.945,Upwind,1075.143,0.286,1075.143,0.286,3.934,3.934,152.655,-0.008,0.033,0.175,-0.003,-0.0027,-0.2237,0.0000,1.0000,0.5000,1.0000,0.0000
32.158,Upwind,1092.228,0.296,1092.228,0.296,3.933,3.933,153.720,-0.005,0.034,0.195,-0.003,-0.0028,-0.3195,0.0000,1.0000,0.5000,1.0000,0.0000
32.351,Upwind,1108.104,0.307,1108.104,0.307,3.932,3.932,154.694,-0.002,0.034,0.211,-0.003,-0.0028,-0.4062,0.0000,1.0000,0.5000,1.0000,0.0000
32.546,Upwind,1122.744,0.316,1122.744,0.316,3.933,3.933,155.580,0.012,0.035,0.232,-0.003,-0.0029,-0.4938,0.0000,1.0000,0.5000,1.0000,0.0000
32.747,Upwind,1138.809,0.327,1138.809,0.327,3.938,3.938,156.537,0.041,0.036,0.300,-0.003,-0.0030,-0.5846,0.0000,1.0000,0.5000,1.0000,0.0000
32.948,Upwind,1154.973,0.337,1154.973,0.337,3.950,3.950,157.485,0.085,0.037,0.462,-0.003,-0.0030,-0.6500,0.0000,1.0000,0.5000,1.0000,0.0000
33.164,Upwind,1172.593,0.349,1172.593,0.349,3.973,3.973,158.424,0.150,0.038,0.750,-0.003,-0.0031,-0.6500,0.0000,1.0000,0.5000,1.0000,0.0000
33.345,Upwind,1187.591,0.360,1187.591,0.360,4.010,4.010,159.357,0.211,0.038,1.160,-0.003,-0.0032,-0.6500,0.0000,1.0000,0.5000,1.0000,0.0000
33.556,Upwind,1205.419,0.373,1205.419,0.373,4.061,4.061,160.358,0.266,0.039,1.732,-0.003,-0.0033,-0.6500,0.0000,1.0000,0.5000,1.0000,0.0000
33.747,Upwind,1220.590,0.384,1220.590,0.384,4.114,4.114,161.196,0.308,0.040,2.310,-0.004,-0.0033,-0.6500,0.0000,1.0000,0.5000,1.0000,0.0000
33.948,Upwind,1237.231,0.396,1237.231,0.396,4.180,4.180,162.099,0.348,0.041,3.031,-0.004,-0.0034,-0.6500,0.0000,1.0000,0.5000,1.0000,0.0000
34.145,Upwind,1253.963,0.408,1253.963,0.408,4.253,4.253,162.987,0.400,0.042,3.835,-0.004,-0.0034,-0.6500,0.0000,1.0000,0.5000,1.0000,0.0000
34.356,Upwind,1272.192,0.422,1272.192,0.422,4.382,4.382,163.924,0.895,0.042,4.777,-0.007,-0.0031,-0.6500,0.0000,1.0000,0.5000,1.0000,0.0000
34.549,Upwind,1287.696,0.434,1287.696,0.434,4.621,4.621,164.687,1.773,0.043,5.596,-0.013,-0.0029,-0.6500,0.0000,1.0000,0.5000,1.0000,0.0000
34.747,Upwind,1304.689,0.447,1304.689,0.447,5.107,5.107,165.482,3.158,0.044,6.484,-0.021,-0.0025,-0.6500,0.0000,1.0000,0.5000,1.0000,0.0000
34.945,Upwind,1321.760,0.461,1321.760,0.461,5.909,5.909,166.235,4.917,0.044,7.342,-0.030,-0.0022,-0.6500,0.0000,1.0000,0.5000,1.0000,0.0000
35.166,Upwind,1341.768,0.477,1341.768,0.477,7.211,7.211,166.996,7.149,0.044,8.219,-0.040,-0.0018,-0.6500,0.0000,1.0000,0.5000,1.0000,0.0000
35.346,Upwind,1356.114,0.488,1356.114,0.488,8.709,8.709,167.595,9.221,0.044,8.912,-0.049,-0.0015,-0.6500,0.0000,1.0000,0.5000,1.0000,0.0000
35.541,Upwind,1373.385,0.501,1373.385,0.501,10.790,10.790,168.199,11.602,0.043,9.615,-0.058,-0.0012,-0.6500,0.0000,1.0000,0.5000,1.0000,0.0000
35.752,Upwind,1392.155,0.516,1392.155,0.516,13.594,13.594,168.796,14.300,0.042,10.315,-0.067,-0.0009,-0.6500,0.0000,1.0000,0.5000,1.0000,0.0000
35.947,Upwind,1408.080,0.528,1408.080,0.528,16.429,16.429,169.254,16.631,0.041,10.863,-0.073,-0.0007,-0.6447,0.0000,1.0000,0.5000,1.0000,0.0000
36.156,Upwind,1426.944,0.541,1426.944,0.541,20.333,20.333,169.746,19.411,0.039,11.462,-0.079,-0.0005,-0.6134,0.0000,1.0000,0.5000,1.0000,0.0000
36.352,Upwind,1444.393,0.554,1444.393,0.554,24.471,24.471,170.153,21.957,0.037,11.960,-0.083,-0.0003,-0.5839,0.0000,1.0000,0.5000,1.0000,0.0000
36.550,Upwind,1461.870,0.565,1461.870,0.565,28.707,28.707,170.491,24.254,0.035,12.364,-0.086,-0.0001,-0.5542,0.0000,1.0000,0.5000,1.0000,0.0000
36.743,Upwind,1477.913,0.576,1477.913,0.576,33.804,33.804,170.824,26.693,0.032,12.744,-0.089,0.0000,-0.5254,0.0000,1.0000,0.5000,1.0000,0.0000
36.940,Upwind,1495.433,0.587,1495.433,0.587,39.379,39.379,171.125,29.049,0.030,13.057,-0.090,0.0001,-0.4958,0.0000,1.0000,0.5000,1.0000,0.0000
37.140,Upwind,1512.969,0.597,1512.969,0.597,45.416,45.416,171.395,31.304,0.027,13.304,-0.090,0.0003,-0.4658,0.0000,1.0000,0.5000,1.0000,0.0000
37.349,Upwind,1530.519,0.607,1530.519,0.607,52.452,52.452,171.660,33.613,0.024,13.498,-0.090,0.0003,-0.4344,0.0000,1.0000,0.5000,1.0000,0.0000
37.548,Upwind,1548.080,0.616,1548.080,0.616,58.783,58.784,171.865,35.439,0.022,13.604,-0.090,0.0004,-0.4046,0.0000,1.0000,0.5000,1.0000,0.0000
37.755,Upwind,1567.116,0.626,1567.116,0.626,66.681,66.681,172.088,37.429,0.020,13.666,-0.089,0.0004,-0.3735,0.0000,1.0000,0.5000,1.0000,0.0000
37.953,Upwind,1584.696,0.634,1584.696,0.634,74.336,74.337,172.281,39.100,0.018,13.665,-0.087,0.0005,-0.3438,0.0000,1.0000,0.5000,1.0000,0.0000
38.155,Upwind,1602.285,0.642,1602.285,0.642,82.309,82.309,172.467,40.596,0.017,13.612,-0.086,0.0005,-0.3136,0.0000,1.0000,0.5000,1.0000,0.0000
38.347,Upwind,1618.416,0.649,1618.416,0.649,89.865,89.865,172.633,41.811,0.015,13.521,-0.084,0.0004,-0.2847,0.0000,1.0000,0.5000,1.0000,0.0000
38.550,Upwind,1637.491,0.656,1637.491,0.656,99.062,99.063,172.826,43.049,0.014,13.363,-0.082,0.0004,-0.2543,0.0000,1.0000,0.5000,1.0000,0.0000
38.748,Upwind,1653.642,0.662,1653.642,0.662,107.037,107.038,172.989,43.926,0.014,13.189,-0.080,0.0004,-0.2245,0.0000,0.9984,0.5000,1.0000,0.0000
38.941,Upwind,1671.273,0.669,1671.273,0.669,115.903,115.904,173.163,44.701,0.013,12.961,-0.079,0.0003,-0.2520,0.0000,0.9959,0.5000,1.0000,0.0000
39.142,Upwind,1688.918,0.675,1688.918,0.675,124.903,124.904,173.332,45.265,0.013,12.720,-0.077,0.0003,-0.3032,0.0000,0.9936,0.5000,1.0000,0.0000
39.352,Upwind,1708.051,0.680,1708.051,0.680,134.758,134.758,173.509,45.669,0.012,12.502,-0.075,0.0002,-0.3449,0.0000,0.9911,0.5000,1.0000,0.0000
39.547,Upwind,1724.255,0.685,1724.255,0.685,143.152,143.153,173.654,45.891,0.012,12.382,-0.074,0.0002,-0.3642,0.0000,0.9890,0.5000,1.0000,0.0000
39.742,Upwind,1741.949,0.690,1741.949,0.690,152.348,152.349,173.808,46.069,0.012,12.330,-0.072,0.0001,-0.3676,0.0000,0.9869,0.5000,0.0000,0.0000
39.944,Upwind,1759.658,0.695,1759.658,0.695,161.579,161.580,173.956,46.238,0.011,12.357,-0.071,0.0001,-0.3552,0.0000,0.9848,0.5000,0.0000,0.0000
40.149,Upwind,1777.384,0.699,1777.384,0.699,171.620,171.621,174.111,46.460,0.011,12.451,-0.070,0.0001,-0.3317,0.0000,0.9826,0.5000,0.0000,0.0000
40.349,Upwind,1795.124,0.703,1795.124,0.703,180.159,180.160,174.236,46.701,0.010,12.562,-0.069,0.0001,-0.3043,0.0000,0.9809,0.5000,0.0000,0.0000
40.546,Upwind,1812.878,0.707,1812.878,0.707,189.531,189.531,174.365,47.026,0.010,12.687,-0.068,0.0000,-0.2774,0.0000,0.9791,0.5000,0.0000,0.0000
40.744,Upwind,1830.644,0.711,1830.644,0.711,198.973,198.974,174.487,47.404,0.009,12.797,-0.067,0.0000,-0.2558,0.0000,0.9774,0.5000,0.0000,0.0000
40.941,Upwind,1848.420,0.714,1848.420,0.714,208.494,208.495,174.602,47.813,0.009,12.875,-0.066,0.0000,-0.2422,0.0000,0.9758,0.5000,0.0000,0.0000
41.140,Upwind,1866.207,0.718,1866.207,0.718,218.098,218.099,174.710,48.225,0.008,12.915,-0.066,0.0000,-0.2369,0.0000,0.9742,0.5000,0.0000,0.0000
41.345,Upwind,1884.003,0.720,1884.003,0.720,227.783,227.784,174.814,48.618,0.007,12.920,-0.065,0.0000,-0.2390,0.0000,0.9728,0.5000,0.0000,0.0000
41.545,Upwind,1901.808,0.723,1901.808,0.723,237.543,237.544,174.914,48.972,0.007,12.897,-0.064,0.0000,-0.2460,0.0000,0.9714,0.5000,0.0000,0.0000
41.742,Upwind,1919.623,0.726,1919.623,0.726,247.368,247.369,175.011,49.277,0.006,12.858,-0.063,0.0000,-0.2555,0.0000,0.9700,0.5000,0.0000,0.0000
41.953,Upwind,1938.934,0.728,1938.934,0.728,258.076,258.077,175.113,49.552,0.005,12.811,-0.063,0.0001,-0.2656,0.0000,0.9686,0.5000,0.0000,0.0000
42.153,Upwind,1956.769,0.730,1956.769,0.730,267.178,267.179,175.198,49.744,0.005,12.776,-0.062,0.0001,-0.2720,0.0000,0.9674,0.5000,0.0000,0.0000
42.349,Upwind,1973.127,0.732,1973.127,0.732,277.145,277.147,175.289,49.923,0.004,12.751,-0.061,0.0001,-0.2762,0.0000,0.9661,0.5000,0.0000,0.0000
42.556,Upwind,1992.471,0.734,1992.471,0.734,287.981,287.982,175.386,50.093,0.003,12.742,-0.060,0.0001,-0.2767,0.0000,0.9648,0.5000,0.0000,0.0000
42.753,Upwind,2010.337,0.736,2010.337,0.736,298.014,298.016,175.473,50.243,0.003,12.748,-0.060,0.0001,-0.2740,0.0000,0.9635,0.5000,0.0000,0.0000
42.952,Upwind,2028.214,0.737,2028.214,0.737,307.238,307.239,175.551,50.380,0.002,12.764,-0.059,0.0001,-0.2697,0.0000,0.9624,0.5000,0.0000,0.0000
43.152,Upwind,2046.100,0.738,2046.100,0.738,318.172,318.173,175.641,50.550,0.001,12.790,-0.058,0.0001,-0.2638,0.0000,0.9612,0.5000,0.0000,0.0000
43.340,Upwind,2062.504,0.739,2062.504,0.739,327.453,327.454,175.716,50.700,0.001,12.813,-0.057,0.0001,-0.2589,0.0000,0.9601,0.5000,0.0000,0.0000
43.539,Upwind,2080.409,0.740,2080.409,0.740,337.610,337.611,175.794,50.870,0.000,12.835,-0.057,0.0001,-0.2545,0.0000,0.9590,0.5000,0.0000,0.0000
43.756,Upwind,2099.815,0.741,2099.815,0.741,348.652,348.654,175.878,51.057,360.000,12.852,-0.056,0.0001,-0.2514,0.0000,0.9579,0.5000,0.0000,0.0000
43.947,Upwind,2116.244,0.741,2116.244,0.741,358.027,358.028,175.946,51.212,359.999,12.860,-0.055,0.0001,-0.2503,0.0000,0.9569,0.5000,0.0000,0.0000
44.145,Upwind,2134.175,0.742,2134.175,0.742,368.286,368.287,176.020,51.375,359.999,12.862,-0.055,0.0001,-0.2505,0.0000,0.9559,0.5000,0.0000,0.0000
44.345,Upwind,2152.115,0.742,2152.115,0.742,378.576,378.578,176.092,51.528,359.998,12.859,-0.054,0.0001,-0.2516,0.0000,0.9549,0.5000,0.0000,0.0000
44.542,Upwind,2170.063,0.742,2170.063,0.742,388.896,388.898,176.163,51.668,359.998,12.852,-0.053,0.0001,-0.2533,0.0000,0.9539,0.5000,0.0000,0.0000
44.753,Upwind,2189.517,0.742,2189.517,0.742,400.106,400.108,176.239,51.807,359.998,12.844,-0.053,0.0001,-0.2552,0.0000,0.9528,0.5000,0.0000,0.0000
44.950,Upwind,2207.483,0.742,2207.483,0.742,410.479,410.481,176.306,51.922,359.997,12.837,-0.052,0.0001,-0.2564,0.0000,0.9519,0.5000,0.0000,0.0000
45.144,Upwind,2223.960,0.741,2223.960,0.741,420.007,420.009,176.365,52.020,359.997,12.833,-0.051,0.0001,-0.2569,0.0000,0.9510,0.5000,0.0000,0.0000
45.352,Upwind,2243.441,0.741,2243.441,0.741,431.290,431.292,176.431,52.129,359.997,12.833,-0.051,0.0001,-0.2566,0.0000,0.9501,0.5000,0.0000,0.0000
45.552,Upwind,2261.432,0.740,2261.432,0.740,440.855,440.857,176.484,52.217,359.996,12.836,-0.050,0.0001,-0.2557,0.0000,0.9494,0.5000,0.0000,0.0000
45.746,Upwind,2277.930,0.740,2277.930,0.740,451.308,451.310,176.539,52.312,359.996,12.842,-0.049,0.0001,-0.2542,0.0000,0.9486,0.5000,0.0000,0.0000
45.943,Upwind,2295.936,0.739,2295.936,0.739,461.779,461.782,176.591,52.407,359.996,12.849,-0.049,0.0001,-0.2524,0.0000,0.9478,0.5000,0.0000,0.0000
46.154,Upwind,2315.449,0.738,2315.449,0.738,473.145,473.148,176.645,52.509,359.995,12.858,-0.048,0.0001,-0.2505,0.0000,0.9471,0.5000,0.0000,0.0000
46.351,Upwind,2333.469,0.737,2333.469,0.737,483.657,483.659,176.691,52.604,359.995,12.866,-0.047,0.0001,-0.2489,0.0000,0.9465,0.5000,0.0000,0.0000
46.540,Upwind,2349.993,0.736,2349.993,0.736,493.309,493.311,176.731,52.690,359.995,12.871,-0.047,0.0001,-0.2478,0.0000,0.9459,0.5000,0.0000,0.0000
46.741,Upwind,2368.025,0.735,2368.025,0.735,503.856,503.858,176.773,52.782,359.994,12.876,-0.046,0.0001,-0.2469,0.0000,0.9453,0.5000,0.0000,0.0000
46.954,Upwind,2387.566,0.733,2387.566,0.733,515.302,515.305,176.815,52.878,359.994,12.879,-0.046,0.0001,-0.2464,0.0000,0.9447,0.5000,0.0000,0.0000
47.152,Upwind,2405.611,0.732,2405.611,0.732,525.886,525.889,176.851,52.962,359.994,12.881,-0.045,0.0001,-0.2462,0.0000,0.9442,0.5000,0.0000,0.0000
47.343,Upwind,2422.156,0.730,2422.156,0.730,535.603,535.605,176.883,53.035,359.994,12.881,-0.045,0.0000,-0.2462,0.0000,0.9438,0.5000,0.0000,0.0000
47.539,Upwind,2440.211,0.729,2440.211,0.729,546.217,546.220,176.916,53.110,359.993,12.881,-0.044,0.0001,-0.2461,0.0000,0.9433,0.5000,0.0000,0.0000
47.742,Upwind,2458.272,0.727,2458.272,0.727,556.846,556.849,176.947,53.181,359.993,12.881,-0.044,0.0001,-0.2460,0.0000,0.9429,0.5000,0.0000,0.0000
47.955,Upwind,2477.843,0.725,2477.843,0.725,568.377,568.380,176.978,53.254,359.993,12.882,-0.043,0.0001,-0.2458,0.0000,0.9424,0.5000,0.0000,0.0000
48.150,Upwind,2495.914,0.723,2495.914,0.723,579.034,579.037,177.005,53.318,359.993,12.884,-0.043,0.0001,-0.2455,0.0000,0.9420,0.5000,0.0000,0.0000
48.355,Upwind,2513.990,0.722,2513.990,0.722,589.704,589.707,177.031,53.378,359.992,12.886,-0.042,0.0001,-0.2450,0.0000,0.9417,0.5000,0.0000,0.0000
48.544,Upwind,2530.564,0.720,2530.564,0.720,599.495,599.498,177.053,53.432,359.992,12.888,-0.042,0.0001,-0.2445,0.0000,0.9414,0.5000,0.0000,0.0000
48.754,Upwind,2550.157,0.718,2550.157,0.718,611.078,611.081,177.077,53.494,359.992,12.891,-0.041,0.0000,-0.2438,0.0000,0.9410,0.5000,0.0000,0.0000
48.948,Upwind,2566.739,0.716,2566.739,0.716,620.890,620.893,177.097,53.545,359.992,12.893,-0.041,0.0000,-0.2433,0.0000,0.9408,0.5000,0.0000,0.0000
49.143,Upwind,2584.833,0.714,2584.833,0.714,631.605,631.608,177.117,53.599,359.992,12.896,-0.040,0.0000,-0.2427,0.0000,0.9405,0.5000,0.0000,0.0000
49.350,Upwind,2604.440,0.711,2604.440,0.711,642.330,642.333,177.135,53.651,359.991,12.898,-0.040,0.0001,-0.2423,0.0000,0.9402,0.5000,0.0000,0.0000
49.546,Upwind,2621.034,0.709,2621.034,0.709,653.065,653.068,177.152,53.701,359.991,12.900,-0.040,0.0001,-0.2419,0.0000,0.9400,0.5000,0.0000,0.0000
49.749,Upwind,2639.141,0.707,2639.141,0.707,663.810,663.813,177.168,53.749,359.991,12.901,-0.039,0.0000,-0.2416,0.0000,0.9398,0.5000,0.0000,0.0000
49.942,Upwind,2657.252,0.705,2657.252,0.705,674.564,674.568,177.183,53.795,359.991,12.902,-0.039,0.0000,-0.2414,0.0000,0.9395,0.5000,0.0000,0.0000
50.139,Upwind,2675.366,0.702,2675.366,0.702,685.328,685.331,177.197,53.839,359.991,12.903,-0.038,0.0001,-0.2412,0.0000,0.9393,0.5000,0.0000,0.0000
50.354,Upwind,2694.994,0.700,2694.994,0.700,696.998,697.001,177.211,53.884,359.991,12.904,-0.038,0.0000,-0.2410,0.0000,0.9392,0.5000,0.0000,0.0000
50.550,Upwind,2713.117,0.697,2713.117,0.697,706.880,706.883,177.221,53.920,359.991,12.905,-0.038,0.0001,-0.2408,0.0000,0.9390,0.5000,0.0000,0.0000
50.742,Upwind,2729.732,0.695,2729.732,0.695,717.668,717.671,177.232,53.958,359.991,12.906,-0.037,0.0001,-0.2407,0.0000,0.9389,0.5000,0.0000,0.0000
50.952,Upwind,2749.372,0.692,2749.372,0.692,729.363,729.367,177.243,53.997,359.990,12.907,-0.037,0.0000,-0.2404,0.0000,0.9387,0.5000,0.0000,0.0000
51.151,Upwind,2767.506,0.690,2767.506,0.690,739.265,739.269,177.251,54.029,359.990,12.908,-0.037,0.0000,-0.2402,0.0000,0.9386,0.5000,0.0000,0.0000
51.351,Upwind,2785.642,0.687,2785.642,0.687,750.975,750.979,177.260,54.064,359.990,12.909,-0.036,0.0001,-0.2400,0.0000,0.9385,0.5000,0.0000,0.0000
51.548,Upwind,2802.270,0.685,2802.270,0.685,760.890,760.893,177.267,54.093,359.990,12.910,-0.036,0.0001,-0.2397,0.0000,0.9384,0.5000,0.0000,0.0000
51.757,Upwind,2821.925,0.682,2821.925,0.682,772.614,772.617,177.274,54.126,359.990,12.911,-0.036,0.0000,-0.2395,0.0000,0.9383,0.5000,0.0000,0.0000
51.946,Upwind,2838.559,0.679,2838.559,0.679,782.539,782.543,177.280,54.153,359.990,12.912,-0.035,0.0000,-0.2393,0.0000,0.9382,0.5000,0.0000,0.0000
52.142,Upwind,2856.709,0.677,2856.709,0.677,793.372,793.376,177.285,54.181,359.990,12.913,-0.035,0.0001,-0.2391,0.0000,0.9381,0.5000,0.0000,0.0000
52.352,Upwind,2876.374,0.674,2876.374,0.674,805.115,805.119,177.291,54.210,359.990,12.914,-0.035,0.0001,-0.2390,0.0000,0.9380,0.5000,0.0000,0.0000
52.550,Upwind,2894.530,0.671,2894.530,0.671,815.055,815.059,177.294,54.233,359.990,12.914,-0.034,0.0000,-0.2388,0.0000,0.9380,0.5000,0.0000,0.0000
52.747,Upwind,2911.175,0.669,2911.175,0.669,825.904,825.908,177.298,54.258,359.990,12.915,-0.034,0.0000,-0.2387,0.0000,0.9379,0.5000,0.0000,0.0000
52.943,Upwind,2929.337,0.666,2929.337,0.666,836.758,836.762,177.301,54.281,359.990,12.915,-0.034,0.0000,-0.2386,0.0000,0.9379,0.5000,0.0000,0.0000
53.152,Upwind,2949.016,0.663,2949.016,0.663,848.522,848.526,177.304,54.305,359.990,12.916,-0.034,0.0001,-0.2385,0.0000,0.9378,0.5000,0.0000,0.0000
53.339,Upwind,2965.669,0.660,2965.669,0.660,858.480,858.484,177.306,54.325,359.990,12.916,-0.033,0.0001,-0.2384,0.0000,0.9378,0.5000,0.0000,0.0000
53.552,Upwind,2985.354,0.657,2985.354,0.657,869.347,869.351,177.308,54.345,359.990,12.917,-0.033,0.0001,-0.2383,0.0000,0.9378,0.5000,0.0000,0.0000
53.743,Upwind,3002.013,0.655,3002.013,0.655,880.218,880.222,177.309,54.365,359.990,12.917,-0.033,0.0000,-0.2382,0.0000,0.9378,0.5000,0.0000,0.0000
53.954,Upwind,3021.704,0.652,3021.704,0.652,891.999,892.003,177.310,54.385,359.990,12.918,-0.033,0.0000,-0.2381,0.0000,0.9378,0.5000,0.0000,0.0000
54.154,Upwind,3039.883,0.649,3039.883,0.649,902.877,902.882,177.310,54.402,359.990,12.918,-0.032,0.0001,-0.2380,0.0000,0.9377,0.5000,0.0000,0.0000
54.345,Upwind,3056.550,0.646,3056.550,0.646,912.852,912.857,177.310,54.418,359.990,12.919,-0.032,0.0000,-0.2379,0.0000,0.9377,0.5000,0.0000,0.0000
54.553,Upwind,3076.250,0.643,3076.250,0.643,924.645,924.649,177.309,54.435,359.990,12.919,-0.032,0.0000,-0.2378,0.0000,0.9378,0.5000,0.0000,0.0000
54.742,Upwind,3092.921,0.641,3092.921,0.641,934.626,934.630,177.309,54.450,359.990,12.919,-0.032,0.0001,-0.2377,0.0000,0.9378,0.5000,0.0000,0.0000
54.946,Upwind,3111.111,0.638,3111.111,0.638,945.517,945.522,177.308,54.464,359.990,12.920,-0.032,0.0000,-0.2377,0.0000,0.9378,0.5000,0.0000,0.0000
55.142,Upwind,3129.304,0.635,3129.304,0.635,956.412,956.416,177.307,54.479,359.990,12.920,-0.031,0.0001,-0.2376,0.0000,0.9378,0.5000,0.0000,0.0000
55.345,Upwind,3147.499,0.632,3147.499,0.632,967.309,967.313,177.305,54.492,359.990,12.920,-0.031,0.0000,-0.2375,0.0000,0.9378,0.5000,0.0000,0.0000
55.555,Upwind,3167.213,0.629,3167.213,0.629,979.117,979.121,177.303,54.506,359.990,12.920,-0.031,0.0000,-0.2375,0.0000,0.9378,0.5000,0.0000,0.0000
55.742,Upwind,3183.897,0.626,3183.897,0.626,989.111,989.115,177.301,54.518,359.990,12.921,-0.031,0.0000,-0.2375,0.0000,0.9379,0.5000,0.0000,0.0000
55.951,Upwind,3203.616,0.623,3203.616,0.623,1000.924,1000.929,177.298,54.530,359.990,12.921,-0.031,0.0000,-0.2374,0.0000,0.9379,0.5000,0.0000,0.0000
56.149,Upwind,3220.305,0.621,3220.305,0.621,1010.922,1010.927,177.296,54.541,359.990,12.921,-0.031,0.0001,-0.2374,0.0000,0.9379,0.5000,0.0000,0.0000
56.347,Upwind,3238.513,0.618,3238.513,0.618,1021.831,1021.836,177.293,54.552,359.990,12.921,-0.030,0.0000,-0.2373,0.0000,0.9380,0.5000,0.0000,0.0000
56.546,Upwind,3256.723,0.615,3256.723,0.615,1032.743,1032.748,177.289,54.562,359.990,12.921,-0.030,0.0000,-0.2373,0.0000,0.9380,0.5000,0.0000,0.0000
56.739,Upwind,3274.936,0.613,3274.936,0.613,1043.656,1043.661,177.286,54.572,359.990,12.921,-0.030,0.0001,-0.2373,0.0000,0.9381,0.5000,0.0000,0.0000
56.947,Upwind,3293.151,0.610,3293.151,0.610,1054.571,1054.576,177.283,54.581,359.990,12.922,-0.030,0.0000,-0.2373,0.0000,0.9381,0.5000,0.0000,0.0000
57.142,Upwind,3311.369,0.607,3311.369,0.607,1065.488,1065.493,177.279,54.590,359.990,12.922,-0.030,0.0000,-0.2372,0.0000,0.9382,0.5000,0.0000,0.0000
57.347,Upwind,3329.589,0.604,3329.589,0.604,1076.407,1076.412,177.275,54.599,359.990,12.922,-0.030,0.0000,-0.2372,0.0000,0.9382,0.5000,0.0000,0.0000
57.542,Upwind,3347.812,0.602,3347.812,0.602,1087.328,1087.333,177.271,54.607,359.990,12.922,-0.030,0.0001,-0.2372,0.0000,0.9383,0.5000,0.0000,0.0000
57.739,Upwind,3366.037,0.599,3366.037,0.599,1098.250,1098.255,177.266,54.615,359.990,12.922,-0.029,0.0001,-0.2372,0.0000,0.9383,0.5000,0.0000,0.0000
57.948,Upwind,3384.264,0.596,3384.264,0.596,1109.174,1109.179,177.262,54.623,359.990,12.922,-0.029,0.0000,-0.2372,0.0000,0.9384,0.5000,0.0000,0.0000
58.145,Upwind,3402.494,0.594,3402.494,0.594,1120.099,1120.104,177.257,54.630,359.990,12.922,-0.029,0.0000,-0.2372,0.0000,0.9385,0.5000,0.0000,0.0000
58.355,Upwind,3422.246,0.591,3422.246,0.591,1131.936,1131.941,177.252,54.637,359.990,12.922,-0.029,0.0001,-0.2372,0.0000,0.9385,0.5000,0.0000,0.0000
58.549,Upwind,3438.961,0.588,3438.961,0.588,1141.953,1141.959,177.248,54.643,359.990,12.922,-0.029,0.0000,-0.2372,0.0000,0.9386,0.5000,0.0000,0.0000
58.742,Upwind,3457.198,0.586,3457.198,0.586,1152.883,1152.888,177.243,54.650,359.990,12.922,-0.029,0.0000,-0.2371,0.0000,0.9387,0.5000,0.0000,0.0000
58.948,Upwind,3475.438,0.583,3475.438,0.583,1163.813,1163.819,177.238,54.656,359.991,12.922,-0.029,0.0000,-0.2372,0.0000,0.9387,0.5000,0.0000,0.0000
59.143,Upwind,3493.679,0.581,3493.679,0.581,1174.745,1174.750,177.233,54.662,359.991,12.922,-0.029,0.0000,-0.2372,0.0000,0.9388,0.5000,0.0000,0.0000
59.352,Upwind,3513.444,0.578,3513.444,0.578,1186.589,1186.594,177.227,54.668,359.991,12.922,-0.029,0.0001,-0.2372,0.0000,0.9389,0.5000,0.0000,0.0000
59.546,Upwind,3530.170,0.576,3530.170,0.576,1196.612,1196.617,177.222,54.673,359.991,12.922,-0.029,0.0000,-0.2372,0.0000,0.9390,0.5000,0.0000,0.0000
59.742,Upwind,3548.418,0.573,3548.418,0.573,1207.547,1207.552,177.216,54.678,359.991,12.922,-0.028,0.0000,-0.2372,0.0000,0.9390,0.5000,0.0000,0.0000
59.951,Upwind,3568.190,0.571,3568.190,0.571,1218.483,1218.488,177.211,54.683,359.991,12.922,-0.028,0.0000,-0.2372,0.0000,0.9391,0.5000,0.0000,0.0000
60.147,Upwind,3584.923,0.568,3584.923,0.568,1229.420,1229.425,177.205,54.687,359.991,12.922,-0.028,0.0001,-0.2372,0.0000,0.9392,0.5000,0.0000,0.0000
60.357,Upwind,3604.700,0.566,3604.700,0.566,1241.269,1241.275,177.199,54.692,359.991,12.922,-0.028,0.0000,-0.2372,0.0000,0.9393,0.5000,0.0000,0.0000
60.548,Upwind,3621.436,0.563,3621.436,0.563,1251.296,1251.302,177.194,54.696,359.991,12.922,-0.028,0.0000,-0.2372,0.0000,0.9394,0.5000,0.0000,0.0000
60.745,Upwind,3639.696,0.561,3639.696,0.561,1262.236,1262.242,177.188,54.701,359.991,12.922,-0.028,0.0000,-0.2372,0.0000,0.9394,0.5000,0.0000,0.0000
60.956,Upwind,3659.481,0.559,3659.481,0.559,1274.088,1274.094,177.181,54.705,359.991,12.922,-0.028,0.0000,-0.2373,0.0000,0.9395,0.5000,0.0000,0.0000
61.151,Upwind,3677.746,0.556,3677.746,0.556,1285.029,1285.036,177.175,54.709,359.991,12.921,-0.028,0.0001,-0.2373,0.0000,0.9396,0.5000,0.0000,0.0000
61.340,Upwind,3694.491,0.554,3694.491,0.554,1295.060,1295.066,177.169,54.712,359.991,12.921,-0.028,0.0000,-0.2373,0.0000,0.9397,0.5000,0.0000,0.0000
61.556,Upwind,3714.283,0.552,3714.283,0.552,1306.914,1306.920,177.163,54.716,359.992,12.921,-0.028,0.0001,-0.2374,0.0000,0.9398,0.5000,0.0000,0.0000
61.751,Upwind,3732.555,0.549,3732.555,0.549,1316.946,1316.952,177.157,54.719,359.992,12.921,-0.028,0.0000,-0.2374,0.0000,0.9399,0.5000,0.0000,0.0000
61.956,Upwind,3750.829,0.547,3750.829,0.547,1328.802,1328.808,177.150,54.722,359.992,12.921,-0.028,0.0001,-0.2374,0.0000,0.9400,0.5000,0.0000,0.0000
62.150,Upwind,3769.105,0.545,3769.105,0.545,1338.834,1338.841,177.144,54.725,359.992,12.921,-0.028,0.0000,-0.2374,0.0000,0.9401,0.5000,0.0000,0.0000
62.340,Upwind,3785.860,0.543,3785.860,0.543,1348.867,1348.874,177.139,54.728,359.992,12.921,-0.028,0.0000,-0.2374,0.0000,0.9401,0.5000,0.0000,0.0000
62.542,Upwind,3804.141,0.541,3804.141,0.541,1360.725,1360.732,177.132,54.731,359.992,12.921,-0.028,0.0000,-0.2375,0.0000,0.9402,0.5000,0.0000,0.0000
62.740,Upwind,3822.424,0.539,3822.424,0.539,1371.672,1371.678,177.125,54.734,359.992,12.921,-0.028,0.0001,-0.2375,0.0000,0.9403,0.5000,0.0000,0.0000
62.947,Upwind,3840.709,0.537,3840.709,0.537,1382.619,1382.625,177.118,54.736,359.992,12.921,-0.028,0.0000,-0.2375,0.0000,0.9404,0.5000,0.0000,0.0000
63.144,Upwind,3858.996,0.535,3858.996,0.535,1393.566,1393.573,177.112,54.739,359.992,12.920,-0.028,0.0000,-0.2375,0.0000,0.9405,0.5000,0.0000,0.0000
63.348,Upwind,3877.286,0.533,3877.286,0.533,1404.514,1404.521,177.105,54.741,359.992,12.920,-0.028,0.0000,-0.2376,0.0000,0.9406,0.5000,0.0000,0.0000
63.542,Upwind,3895.578,0.531,3895.578,0.531,1415.462,1415.469,177.099,54.744,359.992,12.920,-0.028,0.0000,-0.2376,0.0000,0.9407,0.5000,0.0000,0.0000
63.743,Upwind,3913.872,0.529,3913.872,0.529,1426.411,1426.418,177.092,54.746,359.992,12.920,-0.028,0.0001,-0.2376,0.0000,0.9408,0.5000,0.0000,0.0000
63.954,Upwind,3933.693,0.527,3933.693,0.527,1438.273,1438.280,177.085,54.749,359.993,12.920,-0.028,0.0000,-0.2377,0.0000,0.9409,0.5000,0.0000,0.0000
64.154,Upwind,3951.992,0.525,3951.992,0.525,1449.223,1449.230,177.078,54.751,359.993,12.920,-0.028,0.0000,-0.2377,0.0000,0.9410,0.5000,0.0000,0.0000
64.343,Upwind,3968.768,0.523,3968.768,0.523,1459.261,1459.268,177.072,54.753,359.993,12.920,-0.028,0.0000,-0.2377,0.0000,0.9411,0.5000,0.0000,0.0000
64.545,Upwind,3987.071,0.521,3987.071,0.521,1470.212,1470.219,177.065,54.755,359.993,12.919,-0.028,0.0000,-0.2378,0.0000,0.9412,0.5000,0.0000,0.0000
64.751,Upwind,4006.902,0.519,4006.902,0.519,1482.075,1482.082,177.057,54.757,359.993,12.919,-0.028,0.0000,-0.2378,0.0000,0.9413,0.5000,0.0000,0.0000
64.952,Upwind,4025.209,0.518,4025.209,0.518,1493.027,1493.034,177.050,54.758,359.993,12.919,-0.028,0.0000,-0.2378,0.0000,0.9414,0.5000,0.0000,0.0000
65.150,Upwind,4043.519,0.516,4043.519,0.516,1503.066,1503.073,177.044,54.760,359.993,12.919,-0.028,0.0000,-0.2379,0.0000,0.9415,0.5000,0.0000,0.0000
65.350,Upwind,4061.832,0.514,4061.832,0.514,1514.018,1514.025,177.037,54.762,359.993,12.919,-0.028,0.0000,-0.2379,0.0000,0.9416,0.5000,0.0000,0.0000
65.545,Upwind,4078.620,0.513,4078.620,0.513,1524.971,1524.978,177.030,54.764,359.993,12.919,-0.028,0.0000,-0.2379,0.0000,0.9417,0.5000,0.0000,0.0000
65.747,Upwind,4096.936,0.511,4096.936,0.511,1535.923,1535.931,177.023,54.765,359.993,12.918,-0.028,0.0000,-0.2380,0.0000,0.9417,0.5000,0.0000,0.0000
65.951,Upwind,4116.781,0.509,4116.781,0.509,1547.789,1547.797,177.016,54.767,359.994,12.918,-0.028,0.0000,-0.2380,0.0000,0.9419,0.5000,0.0000,0.0000
66.147,Upwind,4133.576,0.508,4133.576,0.508,1557.830,1557.838,177.009,54.768,359.994,12.918,-0.028,0.0000,-0.2380,0.0000,0.9419,0.5000,0.0000,0.0000
66.340,Upwind,4151.899,0.506,4151.899,0.506,1568.784,1568.791,177.002,54.770,359.994,12.918,-0.028,0.0000,-0.2381,0.0000,0.9420,0.5000,0.0000,0.0000
66.551,Upwind,4171.751,0.504,4171.751,0.504,1579.738,1579.745,176.995,54.771,359.994,12.918,-0.028,0.0000,-0.2381,0.0000,0.9421,0.5000,0.0000,0.0000
66.747,Upwind,4188.551,0.503,4188.551,0.503,1590.692,1590.700,176.988,54.773,359.994,12.918,-0.028,0.0000,-0.2382,0.0000,0.9422,0.5000,0.0000,0.0000
66.956,Upwind,4208.409,0.501,4208.409,0.501,1602.560,1602.568,176.980,54.774,359.994,12.917,-0.028,0.0000,-0.2382,0.0000,0.9423,0.5000,0.0000,0.0000
67.155,Upwind,4226.741,0.500,4226.741,0.500,1613.515,1613.523,176.973,54.776,359.994,12.917,-0.028,0.0000,-0.2382,0.0000,0.9424,0.5000,0.0000,0.0000
67.340,Upwind,4243.547,0.499,4243.547,0.499,1623.557,1623.565,176.967,54.777,359.994,12.917,-0.028,0.0000,-0.2383,0.0000,0.9425,0.5000,0.0000,0.0000
67.552,Upwind,4263.412,0.497,4263.412,0.497,1635.425,1635.433,176.959,54.778,359.994,12.917,-0.028,0.0000,-0.2383,0.0000,0.9426,0.5000,0.0000,0.0000
67.749,Upwind,4280.222,0.496,4280.222,0.496,1645.468,1645.476,176.953,54.779,359.994,12.917,-0.028,0.0000,-0.2384,0.0000,0.9427,0.5000,0.0000,0.0000
67.945,Upwind,4298.563,0.494,4298.563,0.494,1656.424,1656.432,176.945,54.781,359.994,12.917,-0.028,0.0000,-0.2384,0.0000,0.9428,0.5000,0.0000,0.0000
68.155,Upwind,4318.435,0.493,4318.435,0.493,1668.293,1668.301,176.938,54.782,359.994,12.916,-0.028,0.0000,-0.2384,0.0000,0.9429,0.5000,0.0000,0.0000
68.347,Upwind,4335.251,0.492,4335.251,0.492,1678.337,1678.345,176.931,54.783,359.995,12.916,-0.028,0.0000,-0.2385,0.0000,0.9430,0.5000,0.0000,0.0000
68.551,Upwind,4355.128,0.490,4355.128,0.490,1690.206,1690.215,176.923,54.784,359.995,12.916,-0.028,0.0000,-0.2385,0.0000,0.9432,0.5000,0.0000,0.0000
68.746,Upwind,4371.948,0.489,4371.948,0.489,1700.250,1700.258,176.917,54.785,359.995,12.916,-0.028,0.0000,-0.2386,0.0000,0.9432,0.5000,0.0000,0.0000
68.941,Upwind,4390.300,0.488,4390.300,0.488,1711.207,1711.216,176.909,54.786,359.995,12.916,-0.028,0.0000,-0.2386,0.0000,0.9433,0.5000,0.0000,0.0000
69.154,Upwind,4410.184,0.487,4410.184,0.487,1723.078,1723.086,176.902,54.787,359.995,12.915,-0.028,0.0000,-0.2386,0.0000,0.9435,0.5000,0.0000,0.0000
69.345,Upwind,4427.011,0.486,4427.011,0.486,1733.122,1733.131,176.895,54.788,359.995,12.915,-0.028,0.0000,-0.2387,0.0000,0.9435,0.5000,0.0000,0.0000
69.540,Upwind,4445.369,0.485,4445.369,0.485,1744.080,1744.088,176.888,54.789,359.995,12.915,-0.028,0.0000,-0.2387,0.0000,0.9436,0.5000,0.0000,0.0000
69.751,Upwind,4465.260,0.483,4465.260,0.483,1755.038,1755.046,176.880,54.790,359.995,12.915,-0.028,0.0000,-0.2388,0.0000,0.9437,0.5000,0.0000,0.0000
69.948,Upwind,4482.093,0.482,4482.093,0.482,1765.996,1766.004,176.873,54.791,359.995,12.915,-0.028,0.0000,-0.2388,0.0000,0.9439,0.5000,0.0000,0.0000
70.146,Upwind,4500.458,0.481,4500.458,0.481,1776.954,1776.963,176.866,54.792,359.995,12.915,-0.028,0.0000,-0.2388,0.0000,0.9440,0.5000,0.0000,0.0000
70.340,Upwind,4518.825,0.480,4518.825,0.480,1787.913,1787.921,176.859,54.793,359.995,12.914,-0.028,0.0000,-0.2389,0.0000,0.9441,0.5000,0.0000,0.0000
70.549,Upwind,4537.195,0.479,4537.195,0.479,1798.871,1798.880,176.851,54.794,359.995,12.914,-0.028,0.0000,-0.2389,0.0000,0.9442,0.5000,0.0000,0.0000
70.741,Upwind,4555.567,0.478,4555.567,0.478,1809.830,1809.839,176.844,54.795,359.996,12.914,-0.029,0.0000,-0.2390,0.0000,0.9443,0.5000,0.0000,0.0000
70.947,Upwind,4573.941,0.477,4573.941,0.477,1820.789,1820.798,176.837,54.796,359.996,12.914,-0.029,0.0000,-0.2390,0.0000,0.9444,0.5000,0.0000,0.0000
71.155,Upwind,4593.848,0.476,4593.848,0.476,1832.662,1832.671,176.829,54.797,359.996,12.914,-0.029,0.0000,-0.2390,0.0000,0.9445,0.5000,0.0000,0.0000
71.361,Upwind,4613.758,0.475,4613.758,0.475,1842.708,1842.717,176.822,54.798,359.996,12.913,-0.029,0.0000,-0.2391,0.0000,0.9446,0.5000,0.0000,0.0000
71.541,Upwind,4629.076,0.475,4629.076,0.475,1853.667,1853.676,176.815,54.798,359.996,12.913,-0.029,0.0000,-0.2391,0.0000,0.9447,0.5000,0.0000,0.0000
71.748,Upwind,4647.458,0.474,4647.458,0.474,1864.627,1864.636,176.808,54.799,359.996,12.913,-0.029,0.0000,-0.2392,0.0000,0.9448,0.5000,0.0000,0.0000
71.956,Upwind,4667.376,0.473,4667.376,0.473,1876.500,1876.509,176.800,54.800,359.996,12.913,-0.029,0.0000,-0.2392,0.0000,0.9449,0.5000,0.0000,0.0000
72.157,Upwind,4685.763,0.472,4685.763,0.472,1887.460,1887.469,176.792,54.801,359.996,12.913,-0.029,0.0000,-0.2393,0.0000,0.9450,0.5000,0.0000,0.0000
72.345,Upwind,4702.620,0.471,4702.620,0.471,1897.507,1897.516,176.786,54.802,359.996,12.912,-0.029,0.0000,-0.2393,0.0000,0.9451,0.5000,0.0000,0.0000
72.554,Upwind,4722.544,0.471,4722.544,0.471,1909.381,1909.390,176.778,54.802,359.996,12.912,-0.029,0.0000,-0.2393,0.0000,0.9452,0.5000,0.0000,0.0000
72.742,Upwind,4739.405,0.470,4739.405,0.470,1919.428,1919.437,176.771,54.803,359.996,12.912,-0.029,0.0000,-0.2394,0.0000,0.9453,0.5000,0.0000,0.0000
72.947,Upwind,4757.802,0.469,4757.802,0.469,1930.389,1930.398,176.763,54.804,359.996,12.912,-0.029,0.0000,-0.2394,0.0000,0.9454,0.5000,0.0000,0.0000
73.144,Upwind,4776.200,0.469,4776.200,0.469,1941.350,1941.359,176.756,54.805,359.996,12.912,-0.029,0.0000,-0.2395,0.0000,0.9455,0.5000,0.0000,0.0000
73.339,Upwind,4794.600,0.468,4794.600,0.468,1952.310,1952.320,176.749,54.805,359.996,12.911,-0.029,0.0000,-0.2395,0.0000,0.9456,0.5000,0.0000,0.0000
73.547,Upwind,4813.003,0.467,4813.003,0.467,1963.272,1963.281,176.741,54.806,359.997,12.911,-0.029,0.0000,-0.2396,0.0000,0.9457,0.5000,0.0000,0.0000
73.746,Upwind,4831.408,0.467,4831.408,0.467,1974.233,1974.242,176.734,54.807,359.997,12.911,-0.029,0.0000,-0.2396,0.0000,0.9458,0.5000,0.0000,0.0000
73.943,Upwind,4849.815,0.466,4849.815,0.466,1985.194,1985.204,176.727,54.807,359.997,12.911,-0.029,0.0000,-0.2396,0.0000,0.9459,0.5000,0.0000,0.0000
74.146,Upwind,4868.224,0.465,4868.224,0.465,1996.156,1996.165,176.719,54.808,359.997,12.911,-0.029,0.0000,-0.2397,0.0000,0.9460,0.5000,0.0000,0.0000
74.347,Crosswind,4886.635,0.465,4886.635,0.465,2007.117,2007.126,176.698,54.795,359.997,12.911,-0.002,0.4000,-0.2934,0.0000,0.8864,0.0000,0.0000,0.0000
74.553,Crosswind,4906.572,0.465,4906.572,0.465,2018.972,2018.982,176.489,54.601,359.993,12.940,0.474,0.4000,-0.3861,0.0001,0.7834,0.0000,0.0000,0.0000
74.752,Crosswind,4924.947,0.469,4924.947,0.469,2029.860,2029.870,176.108,54.260,359.989,13.048,1.342,0.4000,-0.4755,0.0001,0.7000,0.0000,0.0000,0.0000
74.954,Crosswind,4943.282,0.481,4943.282,0.481,2040.672,2040.681,175.641,53.853,359.994,13.276,2.524,0.4000,-0.5664,0.0000,0.7000,0.0000,0.0000,0.0000
75.141,Crosswind,4960.051,0.505,4960.051,0.505,2050.512,2050.522,175.208,53.510,0.017,13.618,3.817,0.4000,-0.6504,-0.0002,0.7000,0.0000,0.0000,0.0000
75.357,Crosswind,4979.820,0.560,4979.820,0.560,2062.072,2062.082,174.689,53.225,0.085,14.208,5.537,0.4000,-0.7477,-0.0006,0.7091,0.0000,0.0000,0.0000
75.542,Crosswind,4996.505,0.637,4996.505,0.637,2071.820,2071.830,174.250,53.154,0.194,14.874,7.111,0.4000,-0.8000,-0.0010,0.7195,0.0000,0.0000,0.0000
75.739,Crosswind,5014.659,0.763,5014.659,0.763,2082.464,2082.474,173.768,53.338,0.386,15.760,8.914,0.4000,-0.8000,-0.0017,0.7310,0.0000,0.0000,0.0000
75.959,Crosswind,5034.264,0.965,5034.264,0.965,2094.075,2094.085,173.237,53.895,0.693,16.843,10.931,0.4000,-0.7969,-0.0027,0.7438,0.0000,0.0000,0.0000
76.139,Crosswind,5050.799,1.203,5050.799,1.203,2103.111,2103.121,172.818,54.573,1.007,17.717,12.506,0.4000,-0.7698,-0.0037,0.7539,0.0000,0.0000,0.0000
76.342,Crosswind,5068.775,1.548,5068.775,1.548,2115.057,2115.067,172.258,55.754,1.516,18.840,14.563,0.4000,-0.7394,-0.0051,0.7672,0.0000,0.0000,0.0000
76.543,Crosswind,5086.681,1.997,5086.681,1.997,2126.339,2126.349,171.728,57.097,2.084,19.803,16.450,0.4000,-0.7093,-0.0066,0.7797,0.0000,0.0000,0.0000
76.740,Crosswind,5104.510,2.567,5104.510,2.567,2137.907,2137.917,171.183,58.603,2.737,20.650,18.314,0.3702,-0.6798,-0.0083,0.7923,0.0000,0.0000,0.0000
76.949,Crosswind,5122.260,3.275,5122.260,3.275,2150.789,2150.799,170.584,60.314,3.528,21.401,20.263,0.3005,-0.6484,-0.0101,0.8059,0.0000,0.0000,0.0000
77.145,Crosswind,5139.926,4.133,5139.926,4.133,2163.009,2163.019,170.028,61.881,4.321,21.921,21.925,0.2455,-0.6190,-0.0118,0.8181,0.0000,0.0000,0.0000
77.349,Crosswind,5157.506,5.156,5157.506,5.156,2175.535,2175.546,169.476,63.362,5.156,22.268,23.406,0.1993,-0.5883,-0.0135,0.8297,0.0000,0.0000,0.0000
77.541,Crosswind,5175.000,6.352,5175.000,6.352,2187.267,2187.277,168.980,64.594,5.944,22.437,24.590,0.1646,-0.5596,-0.0150,0.8399,0.0000,0.0000,0.0000
77.751,Crosswind,5193.856,7.851,5193.856,7.851,2200.305,2200.316,168.454,65.758,6.812,22.469,25.690,0.1324,-0.5281,-0.0163,0.8501,0.0000,0.0000,0.0000
77.950,Crosswind,5209.736,9.288,5209.736,9.288,2214.667,2214.678,167.910,66.768,7.741,22.340,26.673,0.1032,-0.4983,-0.0171,0.8604,0.0000,0.0000,0.0000
78.142,Crosswind,5226.983,11.036,5226.983,11.036,2226.969,2226.979,167.475,67.397,8.504,22.116,27.353,0.0843,-0.4694,-0.0177,0.8683,0.0000,0.0000,0.0000
78.348,Crosswind,5244.156,12.971,5244.156,12.971,2240.496,2240.507,167.029,67.832,9.300,21.772,27.960,0.0663,-0.4386,-0.0178,0.8762,0.0000,0.0000,0.0000
78.543,Crosswind,5261.259,15.092,5261.259,15.092,2254.083,2254.094,166.617,67.997,10.047,21.341,28.452,0.0513,-0.4093,-0.0177,0.8832,0.0000,0.0000,0.0000
78.745,Crosswind,5278.299,17.397,5278.299,17.397,2268.808,2268.819,166.211,67.868,10.791,20.800,28.882,0.0373,-0.3789,-0.0172,0.8901,0.0000,0.0000,0.0000
78.940,Crosswind,5295.281,19.883,5295.281,19.883,2281.221,2281.232,165.903,67.512,11.363,20.297,29.178,0.0277,-0.3497,-0.0166,0.8952,0.0000,0.0000,0.0000
79.142,Crosswind,5312.214,22.545,5312.214,22.545,2294.664,2294.675,165.604,66.871,11.925,19.713,29.445,0.0185,-0.3194,-0.0158,0.9001,0.0000,0.0000,0.0000
79.341,Crosswind,5329.104,25.380,5329.104,25.380,2306.852,2306.863,165.364,66.061,12.382,19.154,29.647,0.0114,-0.2895,-0.0149,0.9040,0.0000,0.0000,0.0000
79.544,Crosswind,5345.956,28.382,5345.956,28.382,2321.038,2321.049,165.122,64.834,12.856,18.478,29.842,0.0046,-0.3804,-0.0140,0.9079,0.0000,0.0000,0.0000
79.741,Crosswind,5362.779,31.545,5362.779,31.545,2333.869,2333.880,164.933,63.442,13.260,17.889,29.990,-0.0003,-0.4691,-0.0132,0.9109,0.0000,0.0000,0.0000
79.945,Crosswind,5379.577,34.865,5379.577,34.865,2346.401,2346.413,164.776,61.852,13.672,17.390,30.118,-0.0042,-0.5609,-0.0124,0.9131,0.0000,0.0000,0.0000
80.144,Crosswind,5396.354,38.338,5396.354,38.338,2358.601,2358.613,164.646,60.132,14.124,17.024,30.233,-0.0071,-0.6505,-0.0118,0.9150,0.0000,0.0000,0.0000
80.339,Crosswind,5413.114,41.960,5413.114,41.960,2370.451,2370.462,164.539,58.362,14.640,16.820,30.335,-0.0093,-0.7384,-0.0113,0.9165,0.0000,0.0000,0.0000
80.545,Crosswind,5429.855,45.733,5429.855,45.733,2381.948,2381.960,164.449,56.629,15.242,16.795,30.427,-0.0107,-0.8000,-0.0109,0.9177,0.0000,0.0000,0.0000
80.744,Crosswind,5446.575,49.660,5446.575,49.660,2393.112,2393.123,164.374,55.034,15.938,16.949,30.508,-0.0114,-0.7993,-0.0107,0.9188,0.0000,0.0000,0.0000
80.940,Crosswind,5463.271,53.745,5463.271,53.745,2403.976,2403.988,164.307,53.655,16.713,17.240,30.572,-0.0112,-0.7699,-0.0107,0.9197,0.0000,0.0000,0.0000
81.147,Crosswind,5479.936,57.995,5479.936,57.995,2415.466,2415.477,164.239,52.451,17.612,17.647,30.614,-0.0103,-0.7390,-0.0107,0.9206,0.0000,0.0000,0.0000
81.350,Crosswind,5497.947,62.794,5497.947,62.794,2425.868,2425.879,164.176,51.612,18.470,18.054,30.624,-0.0081,-0.7084,-0.0109,0.9215,0.0000,0.0000,0.0000
81.539,Crosswind,5513.146,67.019,5513.146,67.019,2435.276,2435.288,164.115,51.057,19.259,18.415,30.606,-0.0054,-0.6802,-0.0111,0.9224,0.0000,0.0000,0.0000
81.744,Crosswind,5529.677,71.804,5529.677,71.804,2445.444,2445.456,164.046,50.651,20.105,18.763,30.557,-0.0018,-0.6494,-0.0113,0.9234,0.0000,0.0000,0.0000
81.946,Crosswind,5546.151,76.776,5546.151,76.776,2456.388,2456.400,163.966,50.396,20.985,19.057,30.470,0.0028,-0.6191,-0.0116,0.9245,0.0000,0.0000,0.0000
82.147,Crosswind,5562.563,81.939,5562.563,81.939,2466.453,2466.465,163.893,50.272,21.752,19.234,30.364,0.0076,-0.5889,-0.0118,0.9255,0.0000,0.0000,0.0000
82.347,Crosswind,5578.908,87.292,5578.908,87.292,2476.500,2476.512,163.822,50.202,22.465,19.308,30.237,0.0126,-0.5589,-0.0119,0.9265,0.0000,0.0000,0.0000
82.542,Crosswind,5595.187,92.834,5595.187,92.834,2485.698,2485.710,163.762,50.138,23.068,19.284,30.108,0.0172,-0.5297,-0.0121,0.9273,0.0000,0.0000,0.0000
82.743,Crosswind,5611.397,98.564,5611.397,98.564,2495.716,2495.727,163.706,50.024,23.669,19.158,29.960,0.0221,-0.4995,-0.0121,0.9280,0.0000,0.0000,0.0000
82.948,Crosswind,5627.540,104.477,5627.540,104.477,2505.702,2505.714,163.663,49.821,24.211,18.933,29.809,0.0269,-0.4688,-0.0121,0.9282,0.0000,0.0000,0.0000
83.148,Crosswind,5643.618,110.571,5643.618,110.571,2515.635,2515.647,163.637,49.492,24.697,18.616,29.661,0.0312,-0.4388,-0.0121,0.9282,0.0000,0.0000,0.0000
83.347,Crosswind,5659.634,116.840,5659.634,116.840,2526.304,2526.316,163.629,48.954,25.166,18.182,29.509,0.0356,-0.4960,-0.0121,0.9279,0.0000,0.0000,0.0000
83.544,Crosswind,5675.593,123.279,5675.593,123.279,2535.223,2535.235,163.639,48.314,25.539,17.778,29.395,0.0385,-0.5848,-0.0120,0.9274,0.0000,0.0000,0.0000
83.745,Crosswind,5691.498,129.881,5691.498,129.881,2544.801,2544.813,163.665,47.436,25.956,17.363,29.297,0.0409,-0.6754,-0.0120,0.9268,0.0000,0.0000,0.0000
83.948,Crosswind,5707.354,136.643,5707.354,136.643,2554.960,2554.973,163.710,46.320,26.457,17.002,29.230,0.0422,-0.7668,-0.0119,0.9260,0.0000,0.0000,0.0000
84.143,Crosswind,5723.163,143.561,5723.163,143.561,2563.359,2563.372,163.761,45.302,26.944,16.808,29.207,0.0421,-0.8000,-0.0119,0.9252,0.0000,0.0000,0.0000
84.343,Crosswind,5738.925,150.635,5738.925,150.635,2572.309,2572.321,163.828,44.204,27.546,16.721,29.215,0.0411,-0.8000,-0.0119,0.9243,0.0000,0.0000,0.0000
84.549,Crosswind,5754.637,157.864,5754.637,157.864,2581.765,2581.777,163.909,43.096,28.269,16.747,29.253,0.0392,-0.8000,-0.0119,0.9233,0.0000,0.0000,0.0000
84.740,Crosswind,5770.297,165.253,5770.297,165.253,2589.587,2589.600,163.982,42.261,28.926,16.845,29.303,0.0372,-0.8000,-0.0119,0.9224,0.0000,0.0000,0.0000
84.946,Crosswind,5785.900,172.802,5785.900,172.802,2598.650,2598.662,164.069,41.421,29.743,17.024,29.374,0.0346,-0.7907,-0.0120,0.9214,0.0000,0.0000,0.0000
85.140,Crosswind,5801.442,180.517,5801.442,180.517,2606.189,2606.201,164.141,40.849,30.454,17.205,29.438,0.0324,-0.7617,-0.0120,0.9205,0.0000,0.0000,0.0000
