time_s,leg,north_m,east_m,along_m,cross_m,agl_ft,altitude_ft,speed_kts,vertical_speed_fps,heading_deg,pitch_deg,roll_deg,aileron_cmd,elevator_cmd,rudder_cmd,throttle_cmd,flaps_cmd,gear_cmd,brake_cmd
1.953,Upwind,0.777,0.000,0.777,0.000,3.691,3.691,2.677,0.000,0.000,0.450,0.000,0.0000,0.0630,0.0000,0.0000,0.5000,1.0000,1.0000
2.132,Upwind,0.938,0.000,0.938,0.000,3.693,3.693,0.761,0.042,0.000,0.366,0.000,0.0000,0.0346,0.0000,0.0000,0.5000,1.0000,1.0000
2.328,Upwind,0.944,0.000,0.944,0.000,3.707,3.707,0.025,0.040,0.000,0.316,0.000,0.0000,0.0579,0.0000,0.0000,0.5000,1.0000,1.0000
2.539,Upwind,0.941,0.000,0.941,0.000,3.695,3.695,0.075,-0.126,0.000,0.455,0.000,0.0000,0.0721,0.0000,0.0000,0.5000,1.0000,1.0000
2.728,Upwind,0.941,0.000,0.941,0.000,3.679,3.679,0.013,-0.011,0.000,0.492,0.000,0.0000,0.0664,0.0000,0.0083,0.5000,1.0000,0.0000
2.932,Upwind,0.942,0.000,0.942,0.000,3.685,3.685,0.027,0.045,0.000,0.454,0.000,0.0000,0.0603,0.0000,0.1105,0.5000,1.0000,0.0000
3.129,Upwind,0.942,0.000,0.942,0.000,3.692,3.692,0.011,0.018,0.000,0.438,0.000,0.0000,0.0619,0.0000,0.2091,0.5000,1.0000,0.0000
3.328,Upwind,0.942,0.000,0.942,0.000,3.692,3.692,0.005,-0.008,0.000,0.446,0.000,0.0000,0.0633,0.0000,0.3085,0.5000,1.0000,0.0000
3.532,Upwind,0.941,0.000,0.941,0.000,3.690,3.690,0.003,-0.005,0.000,0.452,0.000,0.0000,0.0633,0.0000,0.4102,0.5000,1.0000,0.0000
3.727,Upwind,0.942,0.000,0.942,0.000,3.690,3.690,0.005,0.003,0.000,0.450,0.000,0.0000,0.0628,0.0000,0.5082,0.5000,1.0000,0.0000
3.939,Upwind,0.943,0.000,0.943,0.000,3.691,3.691,0.020,0.002,0.000,0.448,0.000,0.0000,0.0627,0.0000,0.6138,0.5000,1.0000,0.0000
4.141,Upwind,0.946,0.000,0.946,0.000,3.691,3.691,0.043,0.000,0.000,0.449,0.000,0.0000,0.0629,0.0000,0.7149,0.5000,1.0000,0.0000
4.324,Upwind,0.952,0.000,0.952,0.000,3.691,3.691,0.076,-0.001,0.000,0.449,0.000,0.0000,0.0629,0.0000,0.8064,0.5000,1.0000,0.0000
4.527,Upwind,0.963,0.000,0.963,0.000,3.691,3.691,0.124,0.000,0.000,0.449,0.000,0.0000,0.0629,0.0000,0.9079,0.5000,1.0000,0.0000
4.726,Upwind,0.979,0.000,0.979,0.000,3.691,3.691,0.190,0.000,0.000,0.449,0.000,0.0000,0.0629,0.0000,1.0000,0.5000,1.0000,0.0000
4.930,Upwind,1.006,0.000,1.006,0.000,3.691,3.691,0.283,0.000,0.000,0.449,0.000,0.0000,0.0629,0.0000,1.0000,0.5000,1.0000,0.0000
5.124,Upwind,1.038,0.000,1.038,0.000,3.691,3.691,0.383,0.000,0.000,0.449,0.000,0.0000,0.0629,0.0000,1.0000,0.5000,1.0000,0.0000
5.331,Upwind,1.090,0.000,1.090,0.000,3.691,3.691,0.531,0.000,0.000,0.450,0.000,0.0000,0.0630,0.0000,1.0000,0.5000,1.0000,0.0000
5.525,Upwind,1.149,0.000,1.149,0.000,3.691,3.691,0.686,0.000,0.000,0.450,0.000,0.0000,0.0630,0.0000,1.0000,0.5000,1.0000,0.0000
5.732,Upwind,1.239,0.000,1.239,0.000,3.691,3.691,0.910,0.000,0.000,0.450,0.000,0.0000,0.0630,0.0000,1.0000,0.5000,1.0000,0.0000
5.931,Upwind,1.347,0.000,1.347,0.000,3.691,3.691,1.162,0.000,0.000,0.450,0.000,0.0000,0.0630,0.0000,1.0000,0.5000,1.0000,0.0000
6.145,Upwind,1.498,0.000,1.498,0.000,3.691,3.691,1.465,0.000,0.000,0.450,0.000,0.0000,0.0631,0.0000,1.0000,0.5000,1.0000,0.0000
6.332,Upwind,1.657,0.000,1.657,0.000,3.691,3.691,1.825,0.000,0.000,0.451,0.000,0.0000,0.0631,0.0000,1.0000,0.5000,1.0000,0.0000
6.529,Upwind,1.869,0.000,1.869,0.000,3.691,3.691,2.252,0.000,0.000,0.451,0.000,0.0000,0.0632,0.0000,1.0000,0.5000,1.0000,0.0000
6.732,Upwind,2.131,0.000,2.131,0.000,3.691,3.691,2.753,0.000,0.000,0.451,0.000,0.0000,0.0632,0.0000,1.0000,0.5000,1.0000,0.0000
6.933,Upwind,2.448,0.000,2.448,0.000,3.691,3.691,3.337,0.000,0.000,0.452,0.000,0.0000,0.0633,0.0000,1.0000,0.5000,1.0000,0.0000
7.141,Upwind,2.831,0.000,2.831,0.000,3.691,3.691,4.010,0.000,0.000,0.452,0.000,0.0000,0.0634,0.0000,1.0000,0.5000,1.0000,0.0000
7.335,Upwind,3.289,0.000,3.289,0.000,3.691,3.691,4.782,0.000,0.000,0.453,0.000,0.0000,0.0634,0.0000,1.0000,0.5000,1.0000,0.0000
7.528,Upwind,3.833,0.000,3.833,0.000,3.691,3.691,5.582,0.000,0.000,0.453,0.000,0.0000,0.0635,0.0000,1.0000,0.5000,1.0000,0.0000
7.737,Upwind,4.474,0.000,4.474,0.000,3.691,3.691,6.648,0.000,0.000,0.454,0.000,0.0000,0.0636,0.0000,1.0000,0.5000,1.0000,0.0000
7.930,Upwind,5.223,0.000,5.223,0.000,3.691,3.691,7.755,0.000,0.000,0.454,0.000,0.0000,0.0636,0.0000,1.0000,0.5000,1.0000,0.0000
8.124,Upwind,6.016,0.000,6.016,0.000,3.691,3.691,8.879,0.001,0.000,0.455,0.000,0.0000,0.0637,0.0000,1.0000,0.5000,1.0000,0.0000
8.330,Upwind,7.096,0.000,7.096,0.000,3.691,3.691,10.272,0.001,0.000,0.455,0.000,0.0000,0.0637,0.0000,1.0000,0.5000,1.0000,0.0000
8.525,Upwind,8.130,0.000,8.130,0.000,3.691,3.691,11.449,0.001,0.000,0.455,0.000,0.0000,0.0636,0.0000,1.0000,0.5000,1.0000,0.0000
8.736,Upwind,9.496,0.000,9.496,0.000,3.692,3.692,12.840,0.001,0.000,0.454,0.000,0.0000,0.0636,0.0000,1.0000,0.5000,1.0000,0.0000
8.926,Upwind,10.772,0.000,10.772,0.000,3.692,3.692,14.015,0.001,0.000,0.454,0.000,0.0000,0.0635,0.0000,1.0000,0.5000,1.0000,0.0000
9.128,Upwind,12.424,0.000,12.424,0.000,3.692,3.692,15.404,0.001,0.000,0.454,0.000,0.0000,0.0635,0.0000,1.0000,0.5000,1.0000,0.0000
9.337,Upwind,14.086,0.000,14.086,0.000,3.692,3.692,16.684,0.002,0.000,0.453,0.000,0.0000,0.0634,0.0000,1.0000,0.5000,1.0000,0.0000
9.531,Upwind,15.879,0.000,15.879,0.000,3.693,3.693,17.963,0.002,0.000,0.453,0.000,0.0000,0.0634,0.0000,1.0000,0.5000,1.0000,0.0000
9.734,Upwind,17.804,0.000,17.804,0.000,3.693,3.693,19.241,0.002,0.000,0.452,0.000,0.0000,0.0633,0.0000,1.0000,0.5000,1.0000,0.0000
9.925,Upwind,19.684,0.000,19.684,0.000,3.693,3.693,20.411,0.002,0.000,0.452,0.000,0.0000,0.0632,0.0000,1.0000,0.5000,1.0000,0.0000
10.136,Upwind,22.048,0.000,22.048,0.000,3.694,3.694,21.793,0.002,0.000,0.451,0.000,0.0000,0.0631,0.0000,1.0000,0.5000,1.0000,0.0000
10.330,Upwind,24.367,0.000,24.367,0.000,3.694,3.694,22.962,0.002,0.000,0.451,0.000,0.0000,0.0631,0.0000,1.0000,0.5000,1.0000,0.0000
10.541,Upwind,26.817,0.000,26.817,0.000,3.695,3.695,24.341,0.002,0.000,0.450,0.000,0.0000,0.0630,0.0000,1.0000,0.5000,1.0000,0.0000
10.731,Upwind,29.398,0.000,29.398,0.000,3.695,3.695,25.507,0.003,0.000,0.450,0.000,0.0000,0.0629,0.0000,1.0000,0.5000,1.0000,0.0000
10.940,Upwind,32.110,0.000,32.110,0.000,3.696,3.696,26.884,0.003,0.000,0.449,0.000,0.0000,0.0628,0.0000,1.0000,0.5000,1.0000,0.0000
11.141,Upwind,34.952,0.000,34.952,0.000,3.696,3.696,28.153,0.003,0.000,0.448,0.000,0.0000,0.0626,0.0000,1.0000,0.5000,1.0000,0.0000
11.327,Upwind,37.925,0.000,37.925,0.000,3.697,3.697,29.315,0.003,0.000,0.447,0.000,0.0000,0.0625,0.0000,1.0000,0.5000,1.0000,0.0000
11.524,Upwind,40.764,0.000,40.764,0.000,3.698,3.698,30.582,0.004,0.000,0.446,0.000,0.0000,0.0624,0.0000,1.0000,0.5000,1.0000,0.0000
11.729,Upwind,44.261,0.000,44.261,0.000,3.698,3.698,31.847,0.004,0.000,0.445,0.000,0.0000,0.0623,0.0000,1.0000,0.5000,1.0000,0.0000
11.924,Upwind,47.340,0.001,47.340,0.001,3.699,3.699,33.111,0.004,0.000,0.444,0.000,0.0000,0.0621,0.0000,1.0000,0.5000,1.0000,0.0000
12.135,Upwind,51.119,0.001,51.119,0.001,3.700,3.700,34.479,0.004,0.000,0.443,0.000,0.0000,0.0619,0.0000,1.0000,0.5000,1.0000,0.0000
12.327,Upwind,54.435,0.001,54.435,0.001,3.701,3.701,35.739,0.004,0.000,0.442,0.000,0.0000,0.0618,0.0000,1.0000,0.5000,1.0000,0.0000
12.532,Upwind,58.495,0.001,58.495,0.001,3.702,3.702,36.894,0.005,0.000,0.441,0.000,0.0000,0.0616,0.0000,1.0000,0.5000,1.0000,0.0000
12.728,Upwind,62.377,0.001,62.377,0.001,3.702,3.702,38.151,0.005,0.000,0.440,0.000,0.0000,0.0615,0.0000,1.0000,0.5000,1.0000,0.0000
12.926,Upwind,66.050,0.001,66.050,0.001,3.704,3.704,39.512,0.005,0.000,0.438,0.000,0.0000,0.0612,0.0000,1.0000,0.5000,1.0000,0.0000
13.131,Upwind,70.530,0.001,70.530,0.001,3.705,3.705,40.766,0.005,0.000,0.437,0.000,0.0000,0.0610,0.0000,1.0000,0.5000,1.0000,0.0000
13.326,Upwind,74.439,0.001,74.439,0.001,3.706,3.706,42.019,0.006,0.000,0.436,0.000,0.0000,0.0608,0.0000,1.0000,0.5000,1.0000,0.0000
13.525,Upwind,78.826,0.001,78.826,0.001,3.707,3.707,43.270,0.006,0.000,0.434,0.000,0.0000,0.0606,0.0000,1.0000,0.5000,1.0000,0.0000
13.727,Upwind,83.725,0.001,83.725,0.001,3.708,3.708,44.519,0.006,0.000,0.433,0.000,0.0000,0.0604,0.0000,1.0000,0.5000,1.0000,0.0000
13.927,Upwind,87.988,0.002,87.988,0.002,3.709,3.709,45.766,0.006,0.000,0.431,0.000,0.0000,0.0602,0.0000,1.0000,0.5000,1.0000,0.0000
14.122,Upwind,92.761,0.002,92.761,0.002,3.711,3.711,47.012,0.007,0.000,0.429,0.000,0.0000,0.0599,0.0000,1.0000,0.5000,1.0000,0.0000
14.323,Upwind,97.662,0.002,97.662,0.002,3.712,3.712,48.152,0.008,0.000,0.428,0.000,0.0000,0.0597,0.0000,1.0000,0.5000,1.0000,0.0000
14.524,Upwind,102.691,0.002,102.691,0.002,3.714,3.714,49.496,0.008,0.000,0.425,0.000,0.0000,0.0593,0.0000,1.0000,0.5000,1.0000,0.0000
14.728,Upwind,108.283,0.002,108.283,0.002,3.715,3.715,50.736,0.008,0.001,0.423,0.000,0.0000,0.0590,0.0000,1.0000,0.5000,1.0000,0.0000
14.929,Upwind,113.578,0.002,113.578,0.002,3.717,3.717,51.973,0.009,0.001,0.421,0.000,0.0000,0.0587,0.0000,1.0000,0.5000,1.0000,0.0000
15.123,Upwind,118.543,0.003,118.543,0.003,3.719,3.719,53.105,0.009,0.001,0.419,0.000,0.0000,0.0584,0.0000,1.0000,0.5000,1.0000,0.0000
15.323,Upwind,124.081,0.003,124.081,0.003,3.721,3.721,54.441,0.010,0.001,0.416,0.000,0.0000,0.0580,0.0000,1.0000,0.5000,1.0000,0.0000
15.527,Upwind,129.746,0.003,129.746,0.003,3.723,3.723,55.671,0.010,0.001,0.414,0.000,0.0000,0.0577,0.0000,1.0000,0.5000,1.0000,0.0000
15.726,Upwind,135.538,0.003,135.538,0.003,3.725,3.725,56.900,0.010,0.001,0.411,0.000,0.0000,0.0573,0.0000,1.0000,0.5000,1.0000,0.0000
15.927,Upwind,141.954,0.004,141.954,0.004,3.727,3.727,58.125,0.011,0.001,0.408,0.000,0.0000,0.0569,0.0000,1.0000,0.5000,1.0000,0.0000
16.134,Upwind,148.008,0.004,148.008,0.004,3.729,3.729,59.349,0.010,0.001,0.406,0.000,0.0000,0.0565,0.0000,1.0000,0.5000,1.0000,0.0000
16.324,Upwind,153.668,0.004,153.668,0.004,3.730,3.730,60.468,0.008,0.001,0.403,0.000,0.0000,0.0563,0.0000,1.0000,0.5000,1.0000,0.0000
16.527,Upwind,159.963,0.004,159.963,0.004,3.732,3.732,61.789,0.008,0.001,0.401,0.000,-0.0001,0.0560,0.0000,1.0000,0.5000,1.0000,0.0000
16.724,Upwind,166.384,0.005,166.384,0.005,3.734,3.734,62.905,0.008,0.001,0.399,0.000,-0.0001,0.0557,0.0000,1.0000,0.5000,1.0000,0.0000
16.933,Upwind,173.480,0.005,173.480,0.005,3.735,3.736,64.221,0.009,0.001,0.397,0.000,-0.0001,0.0554,0.0000,1.0000,0.5000,1.0000,0.0000
17.129,Upwind,180.161,0.006,180.161,0.006,3.737,3.737,65.434,0.009,0.001,0.395,0.000,-0.0001,0.0550,0.0000,1.0000,0.5000,1.0000,0.0000
17.325,Upwind,186.394,0.006,186.394,0.006,3.739,3.739,66.644,0.009,0.002,0.392,0.000,-0.0001,0.0547,0.0000,1.0000,0.5000,1.0000,0.0000
17.524,Upwind,193.314,0.006,193.314,0.006,3.741,3.741,67.752,0.009,0.002,0.390,0.000,-0.0001,0.0544,0.0000,1.0000,0.5000,1.0000,0.0000
17.723,Upwind,200.358,0.007,200.358,0.007,3.743,3.743,69.059,0.009,0.002,0.388,0.000,-0.0001,0.0541,0.0000,1.0000,0.5000,1.0000,0.0000
17.934,Upwind,208.128,0.007,208.128,0.007,3.744,3.744,70.262,0.009,0.002,0.385,0.000,-0.0001,0.0537,0.0000,1.0000,0.5000,1.0000,0.0000
18.134,Upwind,215.430,0.008,215.430,0.008,3.746,3.746,71.464,0.010,0.002,0.383,0.000,-0.0001,0.0534,0.0000,1.0000,0.5000,1.0000,0.0000
18.324,Upwind,222.232,0.008,222.232,0.008,3.748,3.748,72.563,0.010,0.002,0.381,0.000,-0.0001,0.0531,0.0000,1.0000,0.5000,1.0000,0.0000
18.527,Upwind,229.770,0.009,229.770,0.009,3.750,3.750,73.860,0.010,0.002,0.378,0.000,-0.0001,0.0527,0.0000,1.0000,0.5000,1.0000,0.0000
18.727,Upwind,237.431,0.009,237.431,0.009,3.752,3.752,75.055,0.010,0.002,0.376,0.000,-0.0001,0.0523,0.0000,1.0000,0.5000,1.0000,0.0000
18.933,Upwind,245.869,0.010,245.869,0.010,3.754,3.754,76.247,0.010,0.003,0.373,0.000,-0.0001,0.0520,0.0000,1.0000,0.5000,1.0000,0.0000
19.124,Upwind,253.122,0.011,253.122,0.011,3.756,3.756,77.338,0.010,0.003,0.371,0.000,-0.0001,0.0516,0.0000,1.0000,0.5000,1.0000,0.0000
19.323,Upwind,261.150,0.011,261.150,0.011,3.758,3.758,78.624,0.010,0.003,0.368,0.000,-0.0001,0.0512,0.0000,1.0000,0.5000,1.0000,0.0000
19.534,Upwind,269.986,0.012,269.986,0.012,3.760,3.760,79.809,0.010,0.003,0.365,0.000,-0.0001,0.0509,0.0000,1.0000,0.5000,1.0000,0.0000
19.731,Upwind,278.269,0.013,278.269,0.013,3.762,3.762,80.992,0.011,0.003,0.363,0.000,-0.0001,0.0505,0.0000,1.0000,0.5000,1.0000,0.0000
19.925,Upwind,285.968,0.014,285.968,0.014,3.764,3.764,82.074,0.011,0.004,0.360,0.000,-0.0001,0.0501,0.0000,1.0000,0.5000,1.0000,0.0000
20.125,Upwind,294.484,0.015,294.484,0.015,3.766,3.766,83.349,0.011,0.004,0.357,0.000,-0.0001,0.0497,0.0000,1.0000,0.5000,1.0000,0.0000
20.330,Upwind,303.846,0.016,303.846,0.016,3.769,3.769,84.524,0.011,0.004,0.354,0.000,-0.0002,0.0493,0.0000,1.0000,0.5000,1.0000,0.0000
20.528,Upwind,311.878,0.017,311.878,0.017,3.771,3.771,85.697,0.011,0.004,0.352,0.000,-0.0002,0.0489,0.0000,1.0000,0.5000,1.0000,0.0000
20.726,Upwind,320.756,0.018,320.756,0.018,3.773,3.773,86.867,0.011,0.004,0.349,0.000,-0.0002,0.0486,0.0000,1.0000,0.5000,1.0000,0.0000
20.931,Upwind,330.509,0.019,330.509,0.019,3.775,3.775,88.035,0.011,0.005,0.346,0.000,-0.0002,0.0482,0.0000,1.0000,0.5000,1.0000,0.0000
21.122,Upwind,338.872,0.020,338.872,0.020,3.777,3.777,89.103,0.011,0.005,0.343,0.000,-0.0002,0.0478,0.0000,1.0000,0.5000,1.0000,0.0000
21.332,Upwind,348.885,0.021,348.885,0.021,3.780,3.780,90.362,0.012,0.005,0.340,0.000,-0.0002,0.0473,0.0000,1.0000,0.5000,1.0000,0.0000
21.531,Upwind,358.252,0.022,358.252,0.022,3.782,3.782,91.522,0.012,0.005,0.337,0.000,-0.0002,0.0469,0.0000,1.0000,0.5000,1.0000,0.0000
21.730,Upwind,367.739,0.024,367.739,0.024,3.784,3.784,92.679,0.012,0.006,0.334,0.000,-0.0002,0.0465,0.0000,1.0000,0.5000,1.0000,0.0000
21.925,Upwind,376.539,0.025,376.539,0.025,3.787,3.787,93.833,0.012,0.006,0.331,0.000,-0.0002,0.0461,0.0000,1.0000,0.5000,1.0000,0.0000
22.123,Upwind,386.253,0.026,386.253,0.026,3.789,3.789,94.889,0.012,0.006,0.329,0.000,-0.0002,0.0457,0.0000,1.0000,0.5000,1.0000,0.0000
22.325,Upwind,396.086,0.028,396.086,0.028,3.791,3.791,96.134,0.012,0.007,0.325,0.000,-0.0002,0.0452,0.0000,1.0000,0.5000,1.0000,0.0000
22.534,Upwind,406.871,0.030,406.871,0.030,3.794,3.794,97.280,0.012,0.007,0.322,0.000,-0.0003,0.0448,0.0000,1.0000,0.5000,1.0000,0.0000
22.735,Upwind,416.949,0.031,416.949,0.031,3.796,3.796,98.424,0.012,0.007,0.319,0.000,-0.0003,0.0444,0.0000,1.0000,0.5000,1.0000,0.0000
22.928,Upwind,427.145,0.033,427.145,0.033,3.799,3.799,99.565,0.012,0.007,0.316,0.000,-0.0003,0.0439,0.0000,1.0000,0.5000,1.0000,0.0000
23.131,Upwind,437.458,0.035,437.458,0.035,3.801,3.801,100.703,0.012,0.008,0.313,0.000,-0.0003,0.0435,0.0000,1.0000,0.5000,1.0000,0.0000
23.325,Upwind,447.014,0.037,447.014,0.037,3.804,3.804,101.839,0.013,0.008,0.310,0.000,-0.0003,0.0430,0.0000,1.0000,0.5000,1.0000,0.0000
23.529,Upwind,458.434,0.039,458.434,0.039,3.806,3.806,102.971,0.013,0.009,0.307,0.000,-0.0003,0.0426,0.0000,1.0000,0.5000,1.0000,0.0000
23.727,Upwind,468.204,0.041,468.204,0.041,3.809,3.809,104.101,0.013,0.009,0.303,0.000,-0.0003,0.0422,0.0000,1.0000,0.5000,1.0000,0.0000
23.934,Upwind,479.876,0.043,479.876,0.043,3.811,3.811,105.228,0.013,0.009,0.300,0.000,-0.0003,0.0417,0.0000,1.0000,0.5000,1.0000,0.0000
24.124,Upwind,489.859,0.045,489.859,0.045,3.814,3.814,106.353,0.013,0.010,0.297,0.000,-0.0004,0.0412,0.0000,1.0000,0.5000,1.0000,0.0000
24.325,Upwind,500.860,0.048,500.860,0.048,3.816,3.816,107.474,0.013,0.010,0.294,0.000,-0.0004,0.0408,0.0000,1.0000,0.5000,1.0000,0.0000
24.534,Upwind,512.907,0.050,512.907,0.050,3.819,3.819,108.593,0.013,0.010,0.290,0.000,-0.0004,0.0403,0.0000,1.0000,0.5000,1.0000,0.0000
24.731,Upwind,524.148,0.053,524.148,0.053,3.822,3.822,109.708,0.013,0.011,0.287,0.000,-0.0004,0.0399,0.0000,1.0000,0.5000,1.0000,0.0000
24.922,Upwind,534.552,0.055,534.552,0.055,3.824,3.824,110.729,0.013,0.011,0.284,0.000,-0.0004,0.0394,0.0000,1.0000,0.5000,1.0000,0.0000
25.128,Upwind,546.972,0.058,546.972,0.058,3.827,3.827,111.839,0.013,0.012,0.281,0.000,-0.0004,0.0390,0.0000,1.0000,0.5000,1.0000,0.0000
25.335,Upwind,558.556,0.061,558.556,0.061,3.830,3.830,113.038,0.013,0.012,0.277,0.000,-0.0005,0.0384,0.0000,1.0000,0.5000,1.0000,0.0000
25.535,Upwind,570.253,0.064,570.253,0.064,3.832,3.832,114.142,0.014,0.013,0.274,0.000,-0.0005,0.0380,0.0000,1.0000,0.5000,1.0000,0.0000
25.736,Upwind,582.064,0.067,582.064,0.067,3.835,3.835,115.244,0.014,0.013,0.270,0.000,-0.0005,0.0375,0.0000,1.0000,0.5000,1.0000,0.0000
25.926,Upwind,592.990,0.070,592.990,0.070,3.837,3.837,116.251,0.014,0.013,0.267,0.000,-0.0005,0.0370,0.0000,1.0000,0.5000,1.0000,0.0000
26.122,Upwind,605.017,0.074,605.017,0.074,3.840,3.840,117.346,0.014,0.014,0.264,0.000,-0.0005,0.0366,0.0000,1.0000,0.5000,1.0000,0.0000
26.325,Upwind,617.157,0.077,617.157,0.077,3.843,3.843,118.530,0.014,0.014,0.260,0.000,-0.0005,0.0360,0.0000,1.0000,0.5000,1.0000,0.0000
26.525,Upwind,629.409,0.081,629.409,0.081,3.846,3.846,119.528,0.014,0.015,0.257,0.000,-0.0006,0.0356,0.0000,1.0000,0.5000,1.0000,0.0000
26.735,Upwind,642.808,0.085,642.808,0.085,3.849,3.849,120.706,0.014,0.015,0.253,0.000,-0.0006,0.0351,0.0000,1.0000,0.5000,1.0000,0.0000
26.924,Upwind,654.248,0.089,654.248,0.089,3.851,3.851,121.609,0.014,0.016,0.250,0.000,-0.0006,0.0347,0.0000,1.0000,0.5000,1.0000,0.0000
27.133,Upwind,667.889,0.093,667.889,0.093,3.854,3.854,122.869,0.014,0.016,0.246,0.000,-0.0006,0.0341,0.0000,1.0000,0.5000,1.0000,0.0000
27.332,Upwind,680.596,0.098,680.596,0.098,3.857,3.857,123.947,0.014,0.017,0.242,0.000,-0.0006,0.0336,0.0000,1.0000,0.5000,1.0000,0.0000
27.528,Upwind,693.414,0.102,693.414,0.102,3.860,3.860,125.021,0.014,0.017,0.239,0.000,-0.0007,0.0331,0.0000,1.0000,0.5000,1.0000,0.0000
27.731,Upwind,706.342,0.107,706.342,0.107,3.863,3.863,126.092,0.014,0.018,0.235,0.000,-0.0007,0.0326,0.0000,1.0000,0.5000,1.0000,0.0000
27.929,Upwind,719.381,0.111,719.381,0.111,3.866,3.866,127.161,0.014,0.018,0.232,0.000,-0.0007,0.0321,0.0000,1.0000,0.5000,1.0000,0.0000
28.134,Upwind,732.529,0.116,732.529,0.116,3.869,3.869,128.226,0.015,0.019,0.228,0.000,-0.0007,0.0316,0.0000,1.0000,0.5000,1.0000,0.0000
28.325,Upwind,744.677,0.121,744.677,0.121,3.871,3.871,129.288,0.015,0.020,0.224,0.000,-0.0007,0.0311,0.0000,1.0000,0.5000,1.0000,0.0000
28.526,Upwind,758.035,0.126,758.035,0.126,3.874,3.874,130.259,0.015,0.020,0.221,0.000,-0.0008,0.0306,0.0000,1.0000,0.5000,1.0000,0.0000
28.728,Upwind,772.628,0.132,772.628,0.132,3.877,3.877,131.403,0.015,0.021,0.217,0.000,-0.0008,0.0301,0.0000,1.0000,0.5000,1.0000,0.0000
28.939,Upwind,786.212,0.137,786.212,0.137,3.880,3.880,132.456,0.015,0.021,0.214,0.000,-0.0008,0.0295,0.0000,1.0000,0.5000,1.0000,0.0000
29.129,Upwind,799.904,0.143,799.904,0.143,3.883,3.883,133.506,0.015,0.022,0.210,0.000,-0.0008,0.0290,0.0000,1.0000,0.5000,1.0000,0.0000
29.325,Upwind,812.549,0.149,812.549,0.149,3.886,3.886,134.553,0.015,0.022,0.206,0.000,-0.0009,0.0285,0.0000,1.0000,0.5000,1.0000,0.0000
29.524,Upwind,826.448,0.155,826.448,0.155,3.889,3.889,135.511,0.015,0.023,0.203,-0.001,-0.0009,0.0280,0.0000,1.0000,0.5000,1.0000,0.0000
29.727,Upwind,840.453,0.161,840.453,0.161,3.892,3.892,136.640,0.015,0.024,0.199,-0.001,-0.0009,0.0275,0.0000,1.0000,0.5000,1.0000,0.0000
29.923,Upwind,854.566,0.167,854.566,0.167,3.895,3.895,137.593,0.015,0.024,0.195,-0.001,-0.0009,0.0270,0.0000,1.0000,0.5000,1.0000,0.0000
30.135,Upwind,869.976,0.175,869.976,0.175,3.898,3.898,138.716,0.015,0.025,0.191,-0.001,-0.0010,0.0264,0.0000,1.0000,0.5000,1.0000,0.0000
30.325,Upwind,883.112,0.181,883.112,0.181,3.901,3.901,139.750,0.015,0.025,0.188,-0.001,-0.0010,0.0259,0.0000,1.0000,0.5000,1.0000,0.0000
30.533,Upwind,898.752,0.189,898.752,0.189,3.904,3.904,140.782,0.015,0.026,0.184,-0.001,-0.0010,0.0254,0.0000,1.0000,0.5000,1.0000,0.0000
30.735,Upwind,913.300,0.196,913.300,0.196,3.907,3.907,141.811,0.015,0.027,0.180,-0.001,-0.0010,0.0249,0.0000,1.0000,0.5000,1.0000,0.0000
30.928,Upwind,927.953,0.203,927.953,0.203,3.910,3.910,142.837,0.015,0.027,0.177,-0.001,-0.0011,0.0243,0.0000,1.0000,0.5000,1.0000,0.0000
31.125,Upwind,941.478,0.211,941.478,0.211,3.913,3.913,143.860,0.015,0.028,0.173,-0.001,-0.0011,0.0238,0.0000,1.0000,0.5000,1.0000,0.0000
31.334,Upwind,957.575,0.219,957.575,0.219,3.916,3.916,144.881,0.015,0.028,0.169,-0.001,-0.0011,0.0233,0.0000,1.0000,0.5000,1.0000,0.0000
31.523,Upwind,971.292,0.227,971.292,0.227,3.919,3.919,145.814,0.016,0.029,0.165,-0.001,-0.0012,0.0228,0.0000,1.0000,0.5000,1.0000,0.0000
31.735,Upwind,987.617,0.236,987.617,0.236,3.923,3.923,146.914,0.016,0.030,0.161,-0.001,-0.0012,0.0222,0.0000,1.0000,0.5000,1.0000,0.0000
31.929,Upwind,1002.794,0.244,1002.794,0.244,3.926,3.926,147.926,0.016,0.030,0.158,-0.001,-0.0012,0.0217,0.0000,1.0000,0.5000,1.0000,0.0000
32.128,Upwind,1018.075,0.253,1018.075,0.253,3.929,3.929,148.936,0.016,0.031,0.154,-0.001,-0.0012,0.0211,0.0000,1.0000,0.5000,1.0000,0.0000
32.330,Upwind,1033.460,0.262,1033.460,0.262,3.932,3.932,149.943,0.016,0.032,0.150,-0.001,-0.0013,0.0206,0.0000,1.0000,0.5000,1.0000,0.0000
32.535,Upwind,1048.947,0.272,1048.947,0.272,3.923,3.923,150.921,-0.099,0.032,0.220,-0.001,-0.0013,-0.6500,0.0000,1.0000,0.5000,1.0000,0.0000
32.729,Upwind,1064.534,0.281,1064.534,0.281,3.918,3.918,151.884,0.072,0.033,0.412,-0.001,-0.0013,-0.6500,0.0000,1.0000,0.5000,1.0000,0.0000
32.928,Upwind,1080.220,0.291,1080.220,0.291,3.944,3.944,152.843,0.166,0.034,0.687,-0.001,-0.0014,-0.6500,0.0000,1.0000,0.5000,1.0000,0.0000
33.130,Upwind,1096.004,0.301,1096.004,0.301,3.980,3.980,153.796,0.190,0.035,1.047,-0.001,-0.0014,-0.6500,0.0000,1.0000,0.5000,1.0000,0.0000
33.325,Upwind,1110.558,0.311,1110.558,0.311,4.017,4.017,154.664,0.216,0.035,1.450,-0.001,-0.0014,-0.6500,0.0000,1.0000,0.5000,1.0000,0.0000
33.526,Upwind,1126.528,0.321,1126.528,0.321,4.068,4.068,155.681,0.253,0.036,2.012,-0.001,-0.0015,-0.6500,0.0000,1.0000,0.5000,1.0000,0.0000
33.729,Upwind,1143.938,0.333,1143.938,0.333,4.121,4.121,156.609,0.285,0.037,2.607,-0.002,-0.0015,-0.6500,0.0000,1.0000,0.5000,1.0000,0.0000
33.925,Upwind,1158.756,0.343,1158.756,0.343,4.181,4.181,157.526,0.314,0.038,3.271,-0.002,-0.0016,-0.6500,0.0000,1.0000,0.5000,1.0000,0.0000
34.131,Upwind,1176.370,0.356,1176.370,0.356,4.247,4.247,158.431,0.340,0.039,3.997,-0.002,-0.0016,-0.6500,0.0000,1.0000,0.5000,1.0000,0.0000
34.334,Upwind,1192.726,0.367,1192.726,0.367,4.324,4.324,159.319,0.505,0.040,4.776,-0.002,-0.0015,-0.6500,0.0000,1.0000,0.5000,1.0000,0.0000
34.534,Upwind,1209.171,0.379,1209.171,0.379,4.480,4.480,160.181,1.125,0.041,5.581,-0.004,-0.0014,-0.6500,0.0000,1.0000,0.5000,1.0000,0.0000
34.733,Upwind,1225.702,0.392,1225.702,0.392,4.802,4.802,161.011,2.167,0.041,6.383,-0.008,-0.0013,-0.6500,0.0000,1.0000,0.5000,1.0000,0.0000
34.923,Upwind,1240.929,0.403,1240.929,0.403,5.312,5.312,161.739,3.441,0.042,7.097,-0.011,-0.0011,-0.6500,0.0000,1.0000,0.5000,1.0000,0.0000
35.132,Upwind,1259.009,0.417,1259.009,0.417,6.249,6.249,162.555,5.262,0.043,7.896,-0.016,-0.0009,-0.6500,0.0000,1.0000,0.5000,1.0000,0.0000
35.325,Upwind,1274.374,0.429,1274.374,0.429,7.490,7.490,163.264,7.169,0.043,8.583,-0.021,-0.0008,-0.6500,0.0000,1.0000,0.5000,1.0000,0.0000
35.527,Upwind,1291.201,0.442,1291.201,0.442,9.126,9.126,163.927,9.212,0.043,9.217,-0.025,-0.0007,-0.6500,0.0000,1.0000,0.5000,1.0000,0.0000
35.723,Upwind,1308.090,0.455,1308.090,0.455,10.992,10.992,164.495,11.161,0.043,9.755,-0.029,-0.0006,-0.6500,0.0000,1.0000,0.5000,1.0000,0.0000
35.927,Upwind,1325.036,0.469,1325.036,0.469,13.667,13.667,165.117,13.542,0.043,10.341,-0.033,-0.0004,-0.6500,0.0000,1.0000,0.5000,1.0000,0.0000
36.126,Upwind,1342.032,0.482,1342.032,0.482,16.598,16.598,165.645,15.771,0.043,10.841,-0.036,-0.0004,-0.6487,0.0000,1.0000,0.5000,1.0000,0.0000
36.322,Upwind,1359.074,0.495,1359.074,0.495,19.678,19.678,166.093,17.830,0.043,11.267,-0.039,-0.0003,-0.5599,0.0000,1.0000,0.5000,1.0000,0.0000
36.534,Upwind,1377.581,0.510,1377.581,0.510,23.805,23.805,166.585,20.257,0.042,11.692,-0.041,-0.0002,-0.4761,0.0000,1.0000,0.5000,1.0000,0.0000
36.725,Upwind,1393.274,0.522,1393.274,0.522,28.076,28.076,167.005,22.436,0.041,11.976,-0.043,-0.0002,-0.4239,0.0000,1.0000,0.5000,1.0000,0.0000
36.925,Upwind,1410.425,0.535,1410.425,0.535,32.772,32.772,167.397,24.498,0.041,12.144,-0.044,-0.0001,-0.3978,0.0000,1.0000,0.5000,1.0000,0.0000
37.124,Upwind,1427.607,0.548,1427.607,0.548,37.425,37.425,167.737,26.243,0.040,12.206,-0.045,-0.0001,-0.3931,0.0000,1.0000,0.5000,1.0000,0.0000
37.330,Upwind,1446.251,0.562,1446.251,0.562,43.317,43.317,168.118,28.102,0.039,12.192,-0.046,-0.0001,-0.4023,0.0000,1.0000,0.5000,1.0000,0.0000
37.526,Upwind,1462.053,0.573,1462.053,0.573,49.091,49.091,168.454,29.611,0.039,12.132,-0.047,-0.0001,-0.4180,0.0000,1.0000,0.5000,1.0000,0.0000
37.724,Upwind,1479.316,0.586,1479.316,0.586,55.148,55.148,168.778,30.926,0.038,12.058,-0.048,-0.0001,-0.4339,0.0000,1.0000,0.5000,1.0000,0.0000
37.929,Upwind,1498.047,0.600,1498.047,0.600,61.450,61.451,169.091,32.073,0.037,11.999,-0.048,0.0000,-0.4441,0.0000,1.0000,0.5000,1.0000,0.0000
38.131,Upwind,1515.365,0.612,1515.365,0.612,67.968,67.969,169.395,33.088,0.037,11.973,-0.049,0.0000,-0.4463,0.0000,1.0000,0.5000,1.0000,0.0000
38.329,Upwind,1532.709,0.625,1532.709,0.625,74.680,74.680,169.690,34.014,0.036,11.986,-0.049,0.0000,-0.4396,0.0000,1.0000,0.5000,1.0000,0.0000
38.530,Upwind,1550.078,0.637,1550.078,0.637,81.570,81.570,169.977,34.881,0.036,12.036,-0.049,0.0000,-0.4254,0.0000,1.0000,0.5000,1.0000,0.0000
38.723,Upwind,1566.022,0.648,1566.022,0.648,88.035,88.036,170.234,35.648,0.035,12.108,-0.049,0.0000,-0.4077,0.0000,1.0000,0.5000,1.0000,0.0000
38.934,Upwind,1584.890,0.661,1584.890,0.661,95.856,95.856,170.527,36.542,0.035,12.210,-0.050,0.0000,-0.3845,0.0000,1.0000,0.5000,1.0000,0.0000
39.129,Upwind,1602.331,0.673,1602.331,0.673,103.246,103.247,170.789,37.358,0.034,12.306,-0.050,0.0000,-0.3637,0.0000,1.0000,0.5000,1.0000,0.0000
39.323,Upwind,1618.337,0.683,1618.337,0.683,110.799,110.799,171.042,38.170,0.034,12.394,-0.050,0.0000,-0.3458,0.0000,1.0000,0.5000,1.0000,0.0000
39.527,Upwind,1635.820,0.695,1635.820,0.695,118.513,118.514,171.285,38.971,0.034,12.464,-0.050,0.0000,-0.3323,0.0000,1.0000,0.5000,1.0000,0.0000
39.723,Upwind,1653.322,0.706,1653.322,0.706,125.724,125.724,171.502,39.685,0.033,12.510,-0.050,0.0000,-0.3242,0.0000,1.0000,0.5000,1.0000,0.0000
39.933,Upwind,1672.306,0.718,1672.306,0.718,134.410,134.411,171.749,40.492,0.033,12.542,-0.051,0.0000,-0.3189,0.0000,1.0000,0.5000,1.0000,0.0000
40.133,Upwind,1689.849,0.730,1689.849,0.730,142.579,142.580,171.971,41.192,0.033,12.555,-0.051,0.0000,-0.3172,0.0000,1.0000,0.5000,1.0000,0.0000
40.340,Upwind,1707.411,0.741,1707.411,0.741,150.884,150.885,172.187,41.846,0.033,12.558,-0.051,0.0000,-0.3172,0.0000,1.0000,0.5000,0.0000,0.0000
40.531,Upwind,1724.992,0.752,1724.992,0.752,159.315,159.316,172.398,42.453,0.032,12.557,-0.051,0.0000,-0.3175,0.0000,1.0000,0.5000,0.0000,0.0000
40.733,Upwind,1742.592,0.762,1742.592,0.762,167.863,167.863,172.607,43.018,0.032,12.557,-0.051,0.0000,-0.3173,0.0000,1.0000,0.5000,0.0000,0.0000
40.927,Upwind,1760.211,0.773,1760.211,0.773,176.520,176.520,172.813,43.546,0.032,12.561,-0.050,-0.0001,-0.3158,0.0000,1.0000,0.5000,0.0000,0.0000
41.137,Upwind,1777.848,0.783,1777.848,0.783,185.279,185.280,173.016,44.044,0.032,12.571,-0.050,-0.0001,-0.3130,0.0000,0.9979,0.5000,0.0000,0.0000
41.327,Upwind,1794.032,0.793,1794.032,0.793,194.135,194.136,173.211,44.517,0.031,12.588,-0.050,-0.0001,-0.3089,0.0000,0.9952,0.5000,0.0000,0.0000
41.529,Upwind,1813.178,0.804,1813.178,0.804,203.084,203.085,173.397,44.969,0.031,12.609,-0.050,-0.0001,-0.3038,0.0000,0.9926,0.5000,0.0000,0.0000
41.727,Upwind,1829.394,0.814,1829.394,0.814,211.366,211.367,173.560,45.370,0.031,12.631,-0.051,-0.0001,-0.2989,0.0000,0.9903,0.5000,0.0000,0.0000
41.930,Upwind,1848.577,0.824,1848.577,0.824,221.245,221.246,173.745,45.827,0.030,12.657,-0.051,-0.0001,-0.2933,0.0000,0.9877,0.5000,0.0000,0.0000
42.128,Upwind,1866.300,0.834,1866.300,0.834,230.452,230.453,173.908,46.234,0.030,12.679,-0.051,0.0000,-0.2886,0.0000,0.9854,0.5000,0.0000,0.0000
42.322,Upwind,1882.559,0.843,1882.559,0.843,238.961,238.962,174.051,46.594,0.029,12.697,-0.051,0.0000,-0.2851,0.0000,0.9834,0.5000,0.0000,0.0000
42.531,Upwind,1901.791,0.854,1901.791,0.854,249.101,249.102,174.213,47.002,0.029,12.713,-0.051,-0.0001,-0.2819,0.0000,0.9812,0.5000,0.0000,0.0000
42.733,Upwind,1919.558,0.863,1919.558,0.863,258.537,258.539,174.356,47.360,0.028,12.725,-0.051,-0.0001,-0.2797,0.0000,0.9791,0.5000,0.0000,0.0000
42.931,Upwind,1937.338,0.873,1937.338,0.873,268.044,268.045,174.494,47.700,0.028,12.732,-0.051,-0.0001,-0.2783,0.0000,0.9772,0.5000,0.0000,0.0000
43.131,Upwind,1955.132,0.882,1955.132,0.882,277.616,277.617,174.627,48.020,0.028,12.738,-0.051,0.0000,-0.2772,0.0000,0.9754,0.5000,0.0000,0.0000
43.330,Upwind,1972.939,0.891,1972.939,0.891,287.250,287.252,174.755,48.323,0.027,12.742,-0.051,-0.0001,-0.2764,0.0000,0.9736,0.5000,0.0000,0.0000
43.529,Upwind,1990.759,0.900,1990.759,0.900,296.944,296.945,174.879,48.608,0.027,12.746,-0.051,-0.0001,-0.2754,0.0000,0.9718,0.5000,0.0000,0.0000
43.729,Upwind,2008.591,0.909,2008.591,0.909,306.692,306.694,174.998,48.877,0.026,12.751,-0.051,-0.0001,-0.2744,0.0000,0.9702,0.5000,0.0000,0.0000
43.929,Upwind,2026.435,0.918,2026.435,0.918,316.493,316.495,175.114,49.132,0.026,12.756,-0.051,0.0000,-0.2732,0.0000,0.9685,0.5000,0.0000,0.0000
44.133,Upwind,2044.291,0.927,2044.291,0.927,326.344,326.346,175.225,49.375,0.026,12.762,-0.051,0.0000,-0.2717,0.0000,0.9670,0.5000,0.0000,0.0000
44.325,Upwind,2060.670,0.935,2060.670,0.935,336.243,336.244,175.334,49.607,0.025,12.769,-0.051,0.0000,-0.2702,0.0000,0.9655,0.5000,0.0000,0.0000
44.529,Upwind,2080.038,0.944,2080.038,0.944,346.186,346.188,175.439,49.830,0.025,12.776,-0.051,-0.0001,-0.2686,0.0000,0.9640,0.5000,0.0000,0.0000
44.729,Upwind,2097.929,0.952,2097.929,0.952,356.174,356.176,175.541,50.044,0.024,12.783,-0.051,0.0000,-0.2672,0.0000,0.9626,0.5000,0.0000,0.0000
44.926,Upwind,2114.338,0.960,2114.338,0.960,366.203,366.205,175.641,50.249,0.024,12.789,-0.051,0.0000,-0.2658,0.0000,0.9612,0.5000,0.0000,0.0000
45.133,Upwind,2133.743,0.968,2133.743,0.968,376.273,376.275,175.737,50.446,0.024,12.795,-0.051,0.0000,-0.2647,0.0000,0.9598,0.5000,0.0000,0.0000
45.325,Upwind,2150.172,0.976,2150.172,0.976,386.381,386.383,175.831,50.636,0.023,12.799,-0.051,0.0000,-0.2637,0.0000,0.9585,0.5000,0.0000,0.0000
45.527,Upwind,2169.599,0.984,2169.599,0.984,396.527,396.528,175.922,50.816,0.023,12.803,-0.051,0.0000,-0.2629,0.0000,0.9572,0.5000,0.0000,0.0000
45.726,Upwind,2186.047,0.991,2186.047,0.991,406.707,406.709,176.008,50.989,0.023,12.807,-0.051,0.0000,-0.2622,0.0000,0.9560,0.5000,0.0000,0.0000
45.933,Upwind,2205.496,0.999,2205.496,0.999,416.921,416.923,176.089,51.153,0.022,12.810,-0.051,-0.0001,-0.2614,0.0000,0.9549,0.5000,0.0000,0.0000
46.132,Upwind,2223.458,1.007,2223.458,1.007,427.168,427.170,176.166,51.309,0.022,12.814,-0.051,-0.0001,-0.2604,0.0000,0.9538,0.5000,0.0000,0.0000
46.329,Upwind,2241.430,1.014,2241.430,1.014,437.444,437.447,176.239,51.459,0.021,12.819,-0.051,0.0000,-0.2594,0.0000,0.9528,0.5000,0.0000,0.0000
46.532,Upwind,2259.409,1.021,2259.409,1.021,447.751,447.753,176.308,51.603,0.021,12.824,-0.051,-0.0001,-0.2582,0.0000,0.9518,0.5000,0.0000,0.0000
46.726,Upwind,2275.898,1.028,2275.898,1.028,458.085,458.087,176.373,51.741,0.021,12.830,-0.051,0.0000,-0.2570,0.0000,0.9509,0.5000,0.0000,0.0000
46.925,Upwind,2293.894,1.035,2293.894,1.035,468.447,468.449,176.435,51.875,0.020,12.835,-0.051,0.0000,-0.2557,0.0000,0.9500,0.5000,0.0000,0.0000
47.122,Upwind,2311.897,1.042,2311.897,1.042,477.968,477.970,176.489,51.993,0.020,12.840,-0.051,-0.0001,-0.2547,0.0000,0.9493,0.5000,0.0000,0.0000
47.331,Upwind,2331.409,1.049,2331.409,1.049,489.248,489.250,176.548,52.128,0.020,12.846,-0.051,0.0000,-0.2535,0.0000,0.9485,0.5000,0.0000,0.0000
47.532,Upwind,2349.427,1.056,2349.427,1.056,499.686,499.688,176.600,52.247,0.019,12.850,-0.051,-0.0001,-0.2525,0.0000,0.9477,0.5000,0.0000,0.0000
47.725,Upwind,2365.949,1.062,2365.949,1.062,509.274,509.276,176.646,52.353,0.019,12.854,-0.051,-0.0001,-0.2517,0.0000,0.9471,0.5000,0.0000,0.0000
47.932,Upwind,2385.483,1.068,2385.483,1.068,520.630,520.633,176.696,52.472,0.018,12.858,-0.051,0.0000,-0.2509,0.0000,0.9464,0.5000,0.0000,0.0000
48.133,Upwind,2403.521,1.075,2403.521,1.075,531.135,531.137,176.740,52.577,0.018,12.861,-0.051,0.0000,-0.2502,0.0000,0.9458,0.5000,0.0000,0.0000
48.325,Upwind,2420.062,1.080,2420.062,1.080,540.782,540.785,176.778,52.669,0.018,12.864,-0.051,0.0000,-0.2497,0.0000,0.9453,0.5000,0.0000,0.0000
48.529,Upwind,2439.616,1.087,2439.616,1.087,552.205,552.208,176.820,52.772,0.017,12.867,-0.051,0.0000,-0.2490,0.0000,0.9447,0.5000,0.0000,0.0000
48.732,Upwind,2457.671,1.093,2457.671,1.093,562.769,562.772,176.856,52.864,0.017,12.870,-0.051,0.0000,-0.2484,0.0000,0.9441,0.5000,0.0000,0.0000
48.934,Upwind,2475.733,1.098,2475.733,1.098,573.350,573.353,176.891,52.951,0.016,12.872,-0.051,0.0000,-0.2478,0.0000,0.9437,0.5000,0.0000,0.0000
49.126,Upwind,2492.294,1.104,2492.294,1.104,583.949,583.952,176.923,53.034,0.016,12.875,-0.051,0.0000,-0.2473,0.0000,0.9432,0.5000,0.0000,0.0000
49.327,Upwind,2510.365,1.109,2510.365,1.109,594.563,594.566,176.953,53.113,0.016,12.878,-0.051,0.0000,-0.2467,0.0000,0.9428,0.5000,0.0000,0.0000
49.533,Upwind,2529.948,1.115,2529.948,1.115,605.194,605.197,176.982,53.189,0.015,12.880,-0.050,0.0000,-0.2461,0.0000,0.9424,0.5000,0.0000,0.0000
49.732,Upwind,2548.030,1.120,2548.030,1.120,615.839,615.842,177.009,53.262,0.015,12.883,-0.050,0.0000,-0.2455,0.0000,0.9420,0.5000,0.0000,0.0000
49.926,Upwind,2564.610,1.125,2564.610,1.125,626.498,626.501,177.034,53.332,0.015,12.885,-0.050,0.0000,-0.2450,0.0000,0.9417,0.5000,0.0000,0.0000
50.133,Upwind,2584.209,1.131,2584.209,1.131,637.171,637.174,177.057,53.398,0.014,12.888,-0.050,0.0000,-0.2445,0.0000,0.9413,0.5000,0.0000,0.0000
50.331,Upwind,2602.305,1.135,2602.305,1.135,647.857,647.860,177.079,53.462,0.014,12.890,-0.050,0.0000,-0.2440,0.0000,0.9410,0.5000,0.0000,0.0000
50.535,Upwind,2620.405,1.140,2620.405,1.140,658.556,658.559,177.099,53.523,0.014,12.892,-0.050,0.0000,-0.2436,0.0000,0.9407,0.5000,0.0000,0.0000
50.733,Upwind,2638.510,1.145,2638.510,1.145,669.266,669.269,177.118,53.581,0.013,12.894,-0.050,0.0000,-0.2432,0.0000,0.9405,0.5000,0.0000,0.0000
50.933,Upwind,2656.618,1.150,2656.618,1.150,679.988,679.991,177.136,53.637,0.013,12.895,-0.050,-0.0001,-0.2429,0.0000,0.9402,0.5000,0.0000,0.0000
51.131,Upwind,2674.731,1.154,2674.731,1.154,690.721,690.724,177.153,53.690,0.012,12.897,-0.050,0.0000,-0.2425,0.0000,0.9400,0.5000,0.0000,0.0000
51.328,Upwind,2692.848,1.158,2692.848,1.158,700.568,700.571,177.167,53.736,0.012,12.898,-0.050,0.0000,-0.2422,0.0000,0.9398,0.5000,0.0000,0.0000
51.533,Upwind,2710.969,1.163,2710.969,1.163,712.217,712.220,177.182,53.789,0.012,12.900,-0.050,0.0000,-0.2419,0.0000,0.9396,0.5000,0.0000,0.0000
51.724,Upwind,2727.583,1.167,2727.583,1.167,722.082,722.085,177.194,53.831,0.011,12.901,-0.049,0.0000,-0.2416,0.0000,0.9394,0.5000,0.0000,0.0000
51.924,Upwind,2745.711,1.171,2745.711,1.171,733.750,733.754,177.207,53.878,0.011,12.903,-0.049,0.0000,-0.2413,0.0000,0.9392,0.5000,0.0000,0.0000
52.128,Upwind,2765.353,1.175,2765.353,1.175,744.530,744.534,177.218,53.920,0.011,12.904,-0.049,-0.0001,-0.2410,0.0000,0.9391,0.5000,0.0000,0.0000
52.328,Upwind,2781.977,1.178,2781.977,1.178,755.318,755.322,177.228,53.960,0.010,12.905,-0.049,0.0000,-0.2407,0.0000,0.9389,0.5000,0.0000,0.0000
52.525,Upwind,2800.116,1.182,2800.116,1.182,765.214,765.218,177.237,53.995,0.010,12.906,-0.049,0.0000,-0.2405,0.0000,0.9388,0.5000,0.0000,0.0000
52.731,Upwind,2819.770,1.186,2819.770,1.186,776.917,776.921,177.246,54.035,0.010,12.908,-0.049,0.0000,-0.2403,0.0000,0.9387,0.5000,0.0000,0.0000
52.924,Upwind,2836.404,1.189,2836.404,1.189,786.826,786.830,177.253,54.067,0.009,12.909,-0.049,0.0000,-0.2400,0.0000,0.9386,0.5000,0.0000,0.0000
53.128,Upwind,2854.552,1.193,2854.552,1.193,798.545,798.548,177.261,54.102,0.009,12.910,-0.049,-0.0001,-0.2398,0.0000,0.9385,0.5000,0.0000,0.0000
53.328,Upwind,2874.217,1.196,2874.217,1.196,809.368,809.372,177.267,54.134,0.009,12.911,-0.048,0.0000,-0.2396,0.0000,0.9384,0.5000,0.0000,0.0000
53.529,Upwind,2892.373,1.199,2892.373,1.199,820.198,820.202,177.273,54.164,0.008,12.911,-0.048,0.0000,-0.2394,0.0000,0.9383,0.5000,0.0000,0.0000
53.729,Upwind,2910.531,1.202,2910.531,1.202,831.034,831.038,177.277,54.193,0.008,12.912,-0.048,0.0000,-0.2393,0.0000,0.9382,0.5000,0.0000,0.0000
53.929,Upwind,2928.693,1.205,2928.693,1.205,841.875,841.879,177.282,54.220,0.008,12.913,-0.048,0.0000,-0.2391,0.0000,0.9382,0.5000,0.0000,0.0000
54.130,Upwind,2946.857,1.208,2946.857,1.208,852.722,852.726,177.285,54.247,0.007,12.914,-0.048,0.0000,-0.2389,0.0000,0.9381,0.5000,0.0000,0.0000
54.334,Upwind,2965.025,1.211,2965.025,1.211,863.574,863.578,177.288,54.271,0.007,12.914,-0.048,0.0000,-0.2388,0.0000,0.9381,0.5000,0.0000,0.0000
54.531,Upwind,2983.196,1.214,2983.196,1.214,874.430,874.434,177.291,54.295,0.007,12.915,-0.048,0.0000,-0.2387,0.0000,0.9381,0.5000,0.0000,0.0000
54.733,Upwind,3001.369,1.216,3001.369,1.216,885.291,885.296,177.293,54.318,0.007,12.916,-0.048,0.0000,-0.2385,0.0000,0.9380,0.5000,0.0000,0.0000
54.923,Upwind,3018.031,1.219,3018.031,1.219,896.157,896.161,177.295,54.339,0.006,12.916,-0.047,0.0000,-0.2384,0.0000,0.9380,0.5000,0.0000,0.0000
55.125,Upwind,3036.210,1.221,3036.210,1.221,907.027,907.031,177.296,54.360,0.006,12.917,-0.047,0.0000,-0.2383,0.0000,0.9380,0.5000,0.0000,0.0000
55.325,Upwind,3054.392,1.223,3054.392,1.223,916.995,916.999,177.297,54.378,0.006,12.917,-0.047,0.0000,-0.2382,0.0000,0.9380,0.5000,0.0000,0.0000
55.524,Upwind,3072.576,1.226,3072.576,1.226,928.779,928.783,177.297,54.399,0.005,12.918,-0.047,0.0000,-0.2381,0.0000,0.9380,0.5000,0.0000,0.0000
55.730,Upwind,3092.279,1.228,3092.279,1.228,939.660,939.665,177.297,54.416,0.005,12.918,-0.047,0.0000,-0.2380,0.0000,0.9380,0.5000,0.0000,0.0000
55.926,Upwind,3108.954,1.230,3108.954,1.230,950.545,950.550,177.297,54.434,0.005,12.918,-0.047,0.0000,-0.2379,0.0000,0.9380,0.5000,0.0000,0.0000
56.133,Upwind,3128.662,1.232,3128.662,1.232,961.434,961.438,177.296,54.450,0.004,12.919,-0.047,0.0000,-0.2378,0.0000,0.9380,0.5000,0.0000,0.0000
56.324,Upwind,3145.342,1.233,3145.342,1.233,971.417,971.422,177.295,54.464,0.004,12.919,-0.046,0.0000,-0.2378,0.0000,0.9380,0.5000,0.0000,0.0000
56.532,Upwind,3165.056,1.235,3165.056,1.235,983.220,983.224,177.293,54.480,0.004,12.919,-0.046,0.0000,-0.2377,0.0000,0.9380,0.5000,0.0000,0.0000
56.731,Upwind,3183.257,1.237,3183.257,1.237,994.117,994.122,177.292,54.494,0.004,12.920,-0.046,0.0000,-0.2376,0.0000,0.9380,0.5000,0.0000,0.0000
56.930,Upwind,3201.461,1.239,3201.461,1.239,1005.017,1005.022,177.290,54.508,0.003,12.920,-0.046,0.0000,-0.2376,0.0000,0.9381,0.5000,0.0000,0.0000
57.130,Upwind,3219.667,1.240,3219.667,1.240,1015.920,1015.925,177.287,54.521,0.003,12.920,-0.046,0.0000,-0.2375,0.0000,0.9381,0.5000,0.0000,0.0000
57.338,Upwind,3237.875,1.241,3237.875,1.241,1026.825,1026.830,177.285,54.533,0.003,12.920,-0.046,0.0000,-0.2375,0.0000,0.9381,0.5000,0.0000,0.0000
57.529,Upwind,3256.086,1.243,3256.086,1.243,1037.733,1037.738,177.282,54.545,0.002,12.921,-0.046,0.0000,-0.2375,0.0000,0.9382,0.5000,0.0000,0.0000
57.723,Upwind,3272.782,1.244,3272.782,1.244,1047.734,1047.739,177.279,54.555,0.002,12.921,-0.045,0.0000,-0.2374,0.0000,0.9382,0.5000,0.0000,0.0000
57.923,Upwind,3290.998,1.245,3290.998,1.245,1059.555,1059.560,177.276,54.566,0.002,12.921,-0.045,0.0000,-0.2374,0.0000,0.9383,0.5000,0.0000,0.0000
58.125,Upwind,3309.216,1.246,3309.216,1.246,1070.469,1070.475,177.272,54.577,0.002,12.921,-0.045,0.0000,-0.2373,0.0000,0.9383,0.5000,0.0000,0.0000
58.324,Upwind,3327.437,1.247,3327.437,1.247,1081.386,1081.391,177.269,54.586,0.001,12.921,-0.045,0.0000,-0.2373,0.0000,0.9384,0.5000,0.0000,0.0000
58.530,Upwind,3347.179,1.248,3347.179,1.248,1092.304,1092.309,177.265,54.596,0.001,12.921,-0.045,0.0000,-0.2373,0.0000,0.9384,0.5000,0.0000,0.0000
58.735,Upwind,3365.405,1.249,3365.405,1.249,1103.224,1103.229,177.261,54.604,0.001,12.921,-0.045,0.0000,-0.2373,0.0000,0.9385,0.5000,0.0000,0.0000
58.933,Upwind,3383.634,1.250,3383.634,1.250,1114.145,1114.151,177.257,54.613,0.001,12.922,-0.045,0.0000,-0.2373,0.0000,0.9385,0.5000,0.0000,0.0000
59.136,Upwind,3401.864,1.250,3401.864,1.250,1125.069,1125.074,177.252,54.621,0.000,12.922,-0.045,0.0000,-0.2372,0.0000,0.9386,0.5000,0.0000,0.0000
59.339,Upwind,3420.098,1.251,3420.098,1.251,1135.994,1135.999,177.248,54.629,0.000,12.922,-0.044,0.0000,-0.2372,0.0000,0.9386,0.5000,0.0000,0.0000
59.525,Upwind,3436.813,1.251,3436.813,1.251,1146.920,1146.926,177.243,54.636,360.000,12.922,-0.044,0.0000,-0.2372,0.0000,0.9387,0.5000,0.0000,0.0000
59.728,Upwind,3456.571,1.252,3456.571,1.252,1157.848,1157.854,177.239,54.643,360.000,12.922,-0.044,0.0000,-0.2372,0.0000,0.9388,0.5000,0.0000,0.0000
59.928,Upwind,3474.811,1.252,3474.811,1.252,1168.777,1168.783,177.234,54.650,360.000,12.922,-0.044,0.0000,-0.2372,0.0000,0.9388,0.5000,0.0000,0.0000
60.131,Upwind,3493.054,1.252,3493.054,1.252,1179.708,1179.713,177.229,54.656,359.999,12.922,-0.044,0.0000,-0.2372,0.0000,0.9389,0.5000,0.0000,0.0000
60.334,Upwind,3511.299,1.253,3511.299,1.253,1190.640,1190.645,177.223,54.662,359.999,12.922,-0.044,0.0000,-0.2373,0.0000,0.9390,0.5000,0.0000,0.0000
60.528,Upwind,3528.026,1.253,3528.026,1.253,1201.573,1201.578,177.218,54.668,359.999,12.922,-0.044,0.0000,-0.2372,0.0000,0.9391,0.5000,0.0000,0.0000
60.724,Upwind,3546.275,1.253,3546.275,1.253,1212.507,1212.512,177.213,54.674,359.999,12.922,-0.044,0.0000,-0.2372,0.0000,0.9391,0.5000,0.0000,0.0000
60.925,Upwind,3564.527,1.253,3564.527,1.253,1223.442,1223.448,177.207,54.679,359.998,12.922,-0.044,0.0000,-0.2372,0.0000,0.9392,0.5000,0.0000,0.0000
61.125,Upwind,3582.781,1.253,3582.781,1.253,1234.378,1234.384,177.202,54.684,359.998,12.922,-0.043,0.0000,-0.2373,0.0000,0.9393,0.5000,0.0000,0.0000
61.322,Upwind,3601.038,1.253,3601.038,1.253,1244.404,1244.410,177.197,54.689,359.998,12.922,-0.043,0.0000,-0.2372,0.0000,0.9394,0.5000,0.0000,0.0000
61.532,Upwind,3620.818,1.252,3620.818,1.252,1256.254,1256.260,177.190,54.694,359.998,12.922,-0.043,0.0000,-0.2373,0.0000,0.9394,0.5000,0.0000,0.0000
61.724,Upwind,3637.558,1.252,3637.558,1.252,1267.193,1267.199,177.185,54.698,359.998,12.922,-0.043,0.0000,-0.2372,0.0000,0.9395,0.5000,0.0000,0.0000
61.922,Upwind,3655.821,1.252,3655.821,1.252,1277.221,1277.227,177.179,54.702,359.997,12.922,-0.043,0.0000,-0.2373,0.0000,0.9396,0.5000,0.0000,0.0000
62.132,Upwind,3675.609,1.251,3675.609,1.251,1289.074,1289.080,177.173,54.707,359.997,12.922,-0.043,0.0000,-0.2373,0.0000,0.9397,0.5000,0.0000,0.0000
62.323,Upwind,3692.355,1.251,3692.355,1.251,1299.104,1299.110,177.167,54.711,359.997,12.922,-0.043,0.0000,-0.2373,0.0000,0.9398,0.5000,0.0000,0.0000
62.523,Upwind,3710.625,1.250,3710.625,1.250,1310.046,1310.052,177.161,54.715,359.997,12.921,-0.043,0.0000,-0.2373,0.0000,0.9399,0.5000,0.0000,0.0000
62.723,Upwind,3728.897,1.250,3728.897,1.250,1320.989,1320.996,177.155,54.718,359.996,12.921,-0.043,0.0000,-0.2373,0.0000,0.9399,0.5000,0.0000,0.0000
62.923,Upwind,3747.172,1.249,3747.172,1.249,1331.933,1331.940,177.149,54.722,359.996,12.921,-0.042,0.0000,-0.2374,0.0000,0.9400,0.5000,0.0000,0.0000
63.128,Upwind,3766.972,1.248,3766.972,1.248,1343.790,1343.797,177.142,54.726,359.996,12.921,-0.042,0.0000,-0.2374,0.0000,0.9401,0.5000,0.0000,0.0000
63.334,Upwind,3785.252,1.247,3785.252,1.247,1354.736,1354.742,177.136,54.729,359.996,12.921,-0.042,0.0000,-0.2374,0.0000,0.9402,0.5000,0.0000,0.0000
63.531,Upwind,3803.533,1.246,3803.533,1.246,1365.682,1365.688,177.129,54.732,359.996,12.921,-0.042,0.0000,-0.2375,0.0000,0.9403,0.5000,0.0000,0.0000
63.723,Upwind,3820.294,1.245,3820.294,1.245,1376.628,1376.635,177.123,54.735,359.996,12.921,-0.042,0.0000,-0.2375,0.0000,0.9404,0.5000,0.0000,0.0000
63.929,Upwind,3840.104,1.244,3840.104,1.244,1387.575,1387.582,177.116,54.738,359.995,12.920,-0.042,0.0000,-0.2375,0.0000,0.9405,0.5000,0.0000,0.0000
64.132,Upwind,3858.392,1.243,3858.392,1.243,1398.523,1398.530,177.110,54.740,359.995,12.920,-0.042,0.0000,-0.2375,0.0000,0.9406,0.5000,0.0000,0.0000
64.322,Upwind,3875.159,1.242,3875.159,1.242,1408.559,1408.566,177.104,54.743,359.995,12.920,-0.042,0.0000,-0.2376,0.0000,0.9407,0.5000,0.0000,0.0000
64.527,Upwind,3893.451,1.241,3893.451,1.241,1420.420,1420.427,177.096,54.746,359.995,12.920,-0.042,0.0000,-0.2376,0.0000,0.9408,0.5000,0.0000,0.0000
64.723,Upwind,3911.746,1.240,3911.746,1.240,1430.457,1430.464,177.090,54.748,359.995,12.920,-0.042,0.0000,-0.2376,0.0000,0.9408,0.5000,0.0000,0.0000
64.930,Upwind,3931.569,1.238,3931.569,1.238,1442.319,1442.326,177.083,54.750,359.994,12.920,-0.041,0.0000,-0.2376,0.0000,0.9409,0.5000,0.0000,0.0000
65.130,Upwind,3949.868,1.237,3949.868,1.237,1453.270,1453.277,177.076,54.753,359.994,12.920,-0.041,0.0001,-0.2377,0.0000,0.9410,0.5000,0.0000,0.0000
65.326,Upwind,3966.645,1.236,3966.645,1.236,1464.220,1464.227,177.070,54.755,359.994,12.920,-0.041,0.0000,-0.2377,0.0000,0.9411,0.5000,0.0000,0.0000
65.524,Upwind,3984.949,1.234,3984.949,1.234,1475.172,1475.179,177.063,54.757,359.994,12.920,-0.041,0.0001,-0.2377,0.0000,0.9412,0.5000,0.0000,0.0000
65.726,Upwind,4003.255,1.233,4003.255,1.233,1486.123,1486.130,177.056,54.759,359.994,12.919,-0.041,0.0000,-0.2378,0.0000,0.9413,0.5000,0.0000,0.0000
65.929,Upwind,4023.089,1.231,4023.089,1.231,1497.075,1497.082,177.049,54.761,359.994,12.919,-0.041,0.0000,-0.2378,0.0000,0.9414,0.5000,0.0000,0.0000
66.122,Upwind,4039.874,1.229,4039.874,1.229,1507.115,1507.122,177.043,54.763,359.993,12.919,-0.041,0.0001,-0.2378,0.0000,0.9415,0.5000,0.0000,0.0000
66.331,Upwind,4059.713,1.228,4059.713,1.228,1518.980,1518.988,177.035,54.765,359.993,12.919,-0.040,0.0000,-0.2379,0.0000,0.9416,0.5000,0.0000,0.0000
66.527,Upwind,4076.502,1.226,4076.502,1.226,1529.933,1529.941,177.028,54.767,359.993,12.919,-0.040,0.0000,-0.2379,0.0000,0.9417,0.5000,0.0000,0.0000
66.725,Upwind,4094.820,1.224,4094.820,1.224,1540.887,1540.894,177.021,54.768,359.993,12.919,-0.040,0.0001,-0.2380,0.0000,0.9418,0.5000,0.0000,0.0000
66.925,Upwind,4113.139,1.222,4113.139,1.222,1551.841,1551.848,177.015,54.770,359.993,12.918,-0.040,0.0000,-0.2380,0.0000,0.9419,0.5000,0.0000,0.0000
67.123,Upwind,4131.461,1.221,4131.461,1.221,1561.882,1561.890,177.008,54.772,359.993,12.918,-0.040,0.0000,-0.2380,0.0000,0.9420,0.5000,0.0000,0.0000
67.330,Upwind,4151.312,1.218,4151.312,1.218,1573.749,1573.757,177.000,54.773,359.992,12.918,-0.039,0.0000,-0.2381,0.0000,0.9421,0.5000,0.0000,0.0000
67.533,Upwind,4169.639,1.216,4169.639,1.216,1584.704,1584.712,176.993,54.775,359.992,12.918,-0.039,0.0001,-0.2381,0.0000,0.9422,0.5000,0.0000,0.0000
67.726,Upwind,4186.440,1.215,4186.440,1.215,1595.659,1595.667,176.986,54.776,359.992,12.918,-0.039,0.0000,-0.2381,0.0000,0.9423,0.5000,0.0000,0.0000
67.922,Upwind,4204.771,1.213,4204.771,1.213,1605.702,1605.709,176.980,54.778,359.992,12.918,-0.039,0.0000,-0.2382,0.0000,0.9424,0.5000,0.0000,0.0000
68.125,Upwind,4223.103,1.210,4223.103,1.210,1617.570,1617.578,176.972,54.779,359.992,12.917,-0.039,0.0000,-0.2382,0.0000,0.9425,0.5000,0.0000,0.0000
68.334,Upwind,4242.967,1.208,4242.967,1.208,1628.526,1628.534,176.965,54.781,359.992,12.917,-0.039,0.0001,-0.2382,0.0000,0.9426,0.5000,0.0000,0.0000
68.524,Upwind,4259.776,1.206,4259.776,1.206,1638.569,1638.577,176.959,54.782,359.992,12.917,-0.038,0.0001,-0.2383,0.0000,0.9427,0.5000,0.0000,0.0000
68.729,Upwind,4279.644,1.204,4279.644,1.204,1650.439,1650.447,176.951,54.783,359.992,12.917,-0.038,0.0000,-0.2383,0.0000,0.9428,0.5000,0.0000,0.0000
68.923,Upwind,4296.457,1.202,4296.457,1.202,1661.395,1661.403,176.944,54.784,359.991,12.917,-0.038,0.0001,-0.2384,0.0000,0.9429,0.5000,0.0000,0.0000
69.124,Upwind,4314.801,1.199,4314.801,1.199,1672.352,1672.360,176.936,54.786,359.991,12.917,-0.038,0.0001,-0.2384,0.0000,0.9430,0.5000,0.0000,0.0000
69.330,Upwind,4334.676,1.197,4334.676,1.197,1683.310,1683.318,176.929,54.787,359.991,12.916,-0.038,0.0000,-0.2384,0.0000,0.9431,0.5000,0.0000,0.0000
69.534,Upwind,4353.025,1.194,4353.025,1.194,1694.267,1694.275,176.922,54.788,359.991,12.916,-0.038,0.0000,-0.2385,0.0000,0.9432,0.5000,0.0000,0.0000
69.734,Upwind,4371.376,1.192,4371.376,1.192,1705.225,1705.233,176.915,54.789,359.991,12.916,-0.037,0.0000,-0.2385,0.0000,0.9433,0.5000,0.0000,0.0000
69.933,Upwind,4389.729,1.190,4389.729,1.190,1716.183,1716.191,176.908,54.790,359.991,12.916,-0.037,0.0001,-0.2386,0.0000,0.9434,0.5000,0.0000,0.0000
70.133,Upwind,4408.084,1.187,4408.084,1.187,1727.141,1727.149,176.900,54.791,359.991,12.916,-0.037,0.0000,-0.2386,0.0000,0.9435,0.5000,0.0000,0.0000
70.331,Upwind,4426.441,1.185,4426.441,1.185,1738.099,1738.107,176.893,54.792,359.991,12.915,-0.037,0.0000,-0.2386,0.0000,0.9436,0.5000,0.0000,0.0000
70.529,Upwind,4444.801,1.182,4444.801,1.182,1749.057,1749.066,176.886,54.793,359.991,12.915,-0.037,0.0000,-0.2387,0.0000,0.9437,0.5000,0.0000,0.0000
70.725,Upwind,4461.632,1.180,4461.632,1.180,1760.016,1760.025,176.879,54.794,359.991,12.915,-0.037,0.0000,-0.2387,0.0000,0.9438,0.5000,0.0000,0.0000
70.932,Upwind,4481.527,1.177,4481.527,1.177,1770.975,1770.983,176.871,54.795,359.990,12.915,-0.036,0.0000,-0.2388,0.0000,0.9439,0.5000,0.0000,0.0000
71.133,Upwind,4499.893,1.174,4499.893,1.174,1781.934,1781.943,176.864,54.796,359.990,12.915,-0.036,0.0000,-0.2388,0.0000,0.9440,0.5000,0.0000,0.0000
71.330,Upwind,4518.261,1.172,4518.261,1.172,1792.893,1792.902,176.857,54.797,359.990,12.914,-0.036,0.0001,-0.2388,0.0000,0.9441,0.5000,0.0000,0.0000
71.533,Upwind,4536.632,1.169,4536.632,1.169,1803.853,1803.861,176.850,54.798,359.990,12.914,-0.036,0.0000,-0.2389,0.0000,0.9442,0.5000,0.0000,0.0000
71.731,Upwind,4555.005,1.167,4555.005,1.167,1814.812,1814.821,176.842,54.799,359.990,12.914,-0.036,0.0000,-0.2389,0.0000,0.9443,0.5000,0.0000,0.0000
71.930,Upwind,4573.380,1.164,4573.380,1.164,1825.772,1825.781,176.835,54.800,359.990,12.914,-0.036,0.0000,-0.2390,0.0000,0.9444,0.5000,0.0000,0.0000
72.131,Upwind,4591.757,1.161,4591.757,1.161,1836.732,1836.741,176.828,54.801,359.990,12.914,-0.036,0.0000,-0.2390,0.0000,0.9445,0.5000,0.0000,0.0000
72.328,Upwind,4610.137,1.158,4610.137,1.158,1847.692,1847.701,176.820,54.801,359.990,12.914,-0.035,0.0001,-0.2391,0.0000,0.9446,0.5000,0.0000,0.0000
72.523,Upwind,4626.987,1.156,4626.987,1.156,1857.739,1857.748,176.814,54.802,359.990,12.913,-0.035,0.0000,-0.2391,0.0000,0.9447,0.5000,0.0000,0.0000
72.732,Upwind,4646.902,1.153,4646.902,1.153,1869.613,1869.622,176.806,54.803,359.990,12.913,-0.035,0.0000,-0.2391,0.0000,0.9448,0.5000,0.0000,0.0000
72.926,Upwind,4663.756,1.150,4663.756,1.150,1880.574,1880.583,176.798,54.804,359.990,12.913,-0.035,0.0000,-0.2392,0.0000,0.9449,0.5000,0.0000,0.0000
73.124,Upwind,4682.144,1.148,4682.144,1.148,1891.535,1891.544,176.791,54.805,359.990,12.913,-0.035,0.0000,-0.2392,0.0000,0.9450,0.5000,0.0000,0.0000
73.329,Upwind,4702.067,1.145,4702.067,1.145,1902.496,1902.505,176.783,54.805,359.990,12.913,-0.035,0.0000,-0.2393,0.0000,0.9451,0.5000,0.0000,0.0000
73.525,Upwind,4718.927,1.142,4718.927,1.142,1913.457,1913.466,176.776,54.806,359.990,12.912,-0.035,0.0001,-0.2393,0.0000,0.9452,0.5000,0.0000,0.0000
73.727,Upwind,4737.322,1.139,4737.322,1.139,1924.418,1924.427,176.769,54.807,359.990,12.912,-0.034,0.0000,-0.2394,0.0000,0.9453,0.5000,0.0000,0.0000
73.935,Upwind,4757.252,1.136,4757.252,1.136,1935.379,1935.389,176.761,54.808,359.990,12.912,-0.034,0.0000,-0.2394,0.0000,0.9454,0.5000,0.0000,0.0000
74.123,Upwind,4774.118,1.133,4774.118,1.133,1945.427,1945.437,176.755,54.808,359.990,12.912,-0.034,0.0000,-0.2394,0.0000,0.9455,0.5000,0.0000,0.0000
74.330,Upwind,4794.053,1.130,4794.053,1.130,1957.303,1957.312,176.747,54.809,359.990,12.912,-0.034,0.0001,-0.2395,0.0000,0.9456,0.5000,0.0000,0.0000
74.523,Upwind,4810.923,1.128,4810.923,1.128,1967.351,1967.360,176.740,54.810,359.990,12.911,-0.034,0.0000,-0.2395,0.0000,0.9457,0.5000,0.0000,0.0000
74.733,Upwind,4830.863,1.125,4830.863,1.125,1979.226,1979.236,176.732,54.810,359.989,12.911,-0.034,0.0000,-0.2396,0.0000,0.9458,0.5000,0.0000,0.0000
74.926,Upwind,4847.737,1.122,4847.737,1.122,1990.188,1990.198,176.724,54.811,359.989,12.911,-0.034,0.0000,-0.2396,0.0000,0.9459,0.5000,0.0000,0.0000
75.130,Crosswind,4867.681,1.119,4867.681,1.119,2001.151,2001.160,176.717,54.812,359.989,12.911,-0.034,0.4000,0.2500,0.0000,0.9400,0.0000,0.0000,0.0000
75.329,Crosswind,4886.089,1.116,4886.089,1.116,2012.125,2012.134,176.622,54.907,359.988,12.784,0.163,0.4000,0.2500,0.0001,0.8406,0.0000,0.0000,0.0000
75.522,Crosswind,4902.948,1.115,4902.948,1.115,2022.180,2022.189,176.379,54.728,359.981,12.398,0.753,0.4000,0.2500,0.0001,0.7438,0.0000,0.0000,0.0000
75.728,Crosswind,4922.839,1.119,4922.839,1.119,2033.972,2033.982,175.942,54.035,359.964,11.672,1.844,0.4000,0.2500,-0.0001,0.7000,0.0000,0.0000,0.0000
75.926,Crosswind,4939.641,1.132,4939.641,1.132,2044.674,2044.684,175.541,52.903,359.937,10.806,3.140,0.4000,0.2500,-0.0004,0.7000,0.0000,0.0000,0.0000
76.127,Crosswind,4957.949,1.162,4957.949,1.162,2055.100,2055.110,175.179,51.272,359.898,9.808,4.645,0.4000,0.2500,-0.0009,0.7000,0.0000,0.0000,0.0000
76.327,Crosswind,4976.242,1.212,4976.242,1.212,2065.149,2065.159,174.864,49.137,359.844,8.727,6.307,0.4000,0.2500,-0.0014,0.7087,0.0000,0.0000,0.0000
76.525,Crosswind,4994.531,1.287,4994.531,1.287,2074.722,2074.732,174.608,46.502,359.778,7.606,8.090,0.4000,0.1180,-0.0019,0.7171,0.0000,0.0000,0.0000
76.732,Crosswind,5014.351,1.399,5014.351,1.399,2083.717,2083.727,174.423,43.375,359.709,6.536,9.965,0.4000,-0.0196,-0.0025,0.7247,0.0000,0.0000,0.0000
76.924,Crosswind,5031.136,1.522,5031.136,1.522,2091.379,2091.389,174.309,40.171,359.661,5.686,11.748,0.4000,-0.1212,-0.0029,0.7310,0.0000,0.0000,0.0000
77.124,Crosswind,5049.467,1.686,5049.467,1.686,2099.648,2099.658,174.235,36.124,359.644,4.909,13.910,0.3218,-0.2072,-0.0034,0.7378,0.0000,0.0000,0.0000
77.331,Crosswind,5069.354,1.905,5069.354,1.905,2106.491,2106.501,174.225,32.310,359.686,4.433,15.870,0.2498,-0.2485,-0.0037,0.7432,0.0000,0.0000,0.0000
77.533,Crosswind,5087.741,2.150,5087.741,2.150,2112.577,2112.588,174.271,28.579,359.796,4.176,17.704,0.1869,-0.2637,-0.0041,0.7474,0.0000,0.0000,0.0000
77.728,Crosswind,5106.157,2.443,5106.157,2.443,2117.935,2117.946,174.368,25.039,359.978,4.099,19.351,0.1345,-0.2580,-0.0046,0.7505,0.0000,0.0000,0.0000
77.934,Crosswind,5124.604,2.795,5124.604,2.795,2122.611,2122.621,174.511,21.760,0.230,4.151,20.769,0.0929,-0.2634,-0.0051,0.7522,0.0000,0.0000,0.0000
78.134,Crosswind,5143.082,3.216,5143.082,3.216,2126.657,2126.668,174.688,18.753,0.550,4.289,21.940,0.0618,-0.3449,-0.0058,0.7529,0.0000,0.0000,0.0000
78.328,Crosswind,5161.589,3.714,5161.589,3.714,2130.130,2130.141,174.885,16.026,0.947,4.514,22.862,0.0403,-0.4025,-0.0066,0.7526,0.0000,0.0000,0.0000
78.534,Crosswind,5180.124,4.300,5180.124,4.300,2133.089,2133.099,175.095,13.615,1.430,4.823,23.548,0.0271,-0.4371,-0.0075,0.7515,0.0000,0.0000,0.0000
78.724,Crosswind,5197.138,4.925,5197.138,4.925,2135.600,2135.610,175.313,11.553,1.995,5.198,24.020,0.0199,-0.4521,-0.0084,0.7497,0.0000,0.0000,0.0000
78.931,Crosswind,5217.271,5.782,5217.271,5.782,2137.734,2137.745,175.534,9.853,2.631,5.610,24.309,0.0199,-0.4506,-0.0095,0.7474,0.0000,0.0000,0.0000
79.130,Crosswind,5235.878,6.700,5235.878,6.700,2139.565,2139.575,175.753,8.509,3.319,6.026,24.449,0.0225,-0.4397,-0.0104,0.7447,0.0000,0.0000,0.0000
79.326,Crosswind,5252.950,7.657,5252.950,7.657,2141.160,2141.170,175.967,7.494,4.040,6.411,24.477,0.0270,-0.4238,-0.0111,0.7417,0.0000,0.0000,0.0000
79.535,Crosswind,5273.144,8.939,5273.144,8.939,2142.581,2142.592,176.175,6.762,4.770,6.739,24.428,0.0331,-0.4094,-0.0118,0.7387,0.0000,0.0000,0.0000
79.726,Crosswind,5290.242,10.159,5290.242,10.159,2143.880,2143.890,176.376,6.253,5.492,6.989,24.332,0.0386,-0.3984,-0.0122,0.7356,0.0000,0.0000,0.0000
79.926,Crosswind,5308.905,11.636,5308.905,11.636,2145.093,2145.104,176.572,5.902,6.191,7.153,24.219,0.0434,-0.3953,-0.0124,0.7326,0.0000,0.0000,0.0000
80.129,Crosswind,5329.133,13.412,5329.133,13.412,2146.247,2146.257,176.764,5.642,6.856,7.232,24.110,0.0466,-0.4012,-0.0124,0.7296,0.0000,0.0000,0.0000
80.330,Crosswind,5347.811,15.217,5347.811,15.217,2147.353,2147.363,176.954,5.421,7.483,7.238,24.020,0.0483,-0.4142,-0.0122,0.7267,0.0000,0.0000,0.0000
80.533,Crosswind,5366.494,17.181,5366.494,17.181,2148.415,2148.425,177.143,5.201,8.074,7.187,23.959,0.0484,-0.4332,-0.0119,0.7239,0.0000,0.0000,0.0000
80.725,Crosswind,5383.622,19.122,5383.622,19.122,2149.431,2149.441,177.334,4.949,8.631,7.104,23.933,0.0474,-0.4559,-0.0115,0.7212,0.0000,0.0000,0.0000
80.929,Crosswind,5403.868,21.588,5403.868,21.588,2150.392,2150.402,177.525,4.651,9.160,7.008,23.939,0.0448,-0.4803,-0.0111,0.7185,0.0000,0.0000,0.0000
81.132,Crosswind,5422.557,24.030,5422.557,24.030,2151.288,2151.298,177.719,4.304,9.671,6.921,23.973,0.0418,-0.5033,-0.0106,0.7159,0.0000,0.0000,0.0000
81.324,Crosswind,5439.689,26.407,5439.689,26.407,2152.111,2152.121,177.915,3.921,10.169,6.858,24.028,0.0386,-0.5234,-0.0102,0.7133,0.0000,0.0000,0.0000
81.530,Crosswind,5459.935,29.387,5459.935,29.387,2152.855,2152.865,178.111,3.517,10.661,6.829,24.097,0.0353,-0.5383,-0.0098,0.7107,0.0000,0.0000,0.0000
81.729,Crosswind,5478.621,32.303,5478.621,32.303,2153.518,2153.528,178.309,3.115,11.153,6.838,24.170,0.0324,-0.5482,-0.0095,0.7081,0.0000,0.0000,0.0000
81.932,Crosswind,5497.303,35.377,5497.303,35.377,2154.102,2154.112,178.505,2.733,11.647,6.882,24.239,0.0302,-0.5527,-0.0092,0.7056,0.0000,0.0000,0.0000
82.123,Crosswind,5514.423,38.336,5514.423,38.336,2154.574,2154.584,178.684,2.416,12.104,6.947,24.293,0.0288,-0.5527,-0.0091,0.7032,0.0000,0.0000,0.0000
82.325,Crosswind,5533.093,41.717,5533.093,41.717,2155.061,2155.071,178.893,2.094,12.648,7.046,24.341,0.0280,-0.5491,-0.0091,0.7004,0.0000,0.0000,0.0000
82.534,Crosswind,5553.308,45.562,5553.308,45.562,2155.455,2155.465,179.083,1.852,13.153,7.145,24.367,0.0283,-0.5435,-0.0091,0.7000,0.0000,0.0000,0.0000
82.727,Crosswind,5571.957,49.281,5571.957,49.281,2155.805,2155.816,179.274,1.661,13.658,7.240,24.373,0.0291,-0.5374,-0.0092,0.7000,0.0000,0.0000,0.0000
82.928,Crosswind,5590.593,53.163,5590.593,53.163,2156.122,2156.132,179.465,1.512,14.163,7.324,24.362,0.0307,-0.5323,-0.0093,0.7000,0.0000,0.0000,0.0000
83.128,Crosswind,5609.215,57.209,5609.215,57.209,2156.412,2156.423,179.658,1.395,14.666,7.389,24.336,0.0326,-0.5290,-0.0094,0.7000,0.0000,0.0000,0.0000
83.331,Crosswind,5627.822,61.420,5627.822,61.420,2156.681,2156.692,179.851,1.295,15.166,7.432,24.298,0.0347,-0.5281,-0.0095,0.7000,0.0000,0.0000,0.0000
83.522,Crosswind,5644.864,65.422,5644.864,65.422,2156.910,2156.921,180.031,1.207,15.621,7.453,24.257,0.0366,-0.5295,-0.0097,0.7000,0.0000,0.0000,0.0000
83.732,Crosswind,5664.986,70.330,5664.986,70.330,2157.160,2157.171,180.246,1.095,16.158,7.458,24.204,0.0387,-0.5338,-0.0098,0.7000,0.0000,0.0000,0.0000
83.925,Crosswind,5681.995,74.631,5681.995,74.631,2157.368,2157.378,180.448,0.977,16.651,7.448,24.157,0.0404,-0.5398,-0.0099,0.7000,0.0000,0.0000,0.0000
84.132,Crosswind,5702.076,79.889,5702.076,79.889,2157.549,2157.560,180.653,0.838,17.146,7.431,24.114,0.0417,-0.5470,-0.0099,0.7000,0.0000,0.0000,0.0000
84.328,Crosswind,5720.591,84.911,5720.591,84.911,2157.702,2157.712,180.862,0.683,17.642,7.413,24.079,0.0426,-0.5544,-0.0100,0.7000,0.0000,0.0000,0.0000
84.534,Crosswind,5739.086,90.092,5739.086,90.092,2157.822,2157.832,181.073,0.518,18.141,7.399,24.052,0.0431,-0.5612,-0.0100,0.7000,0.0000,0.0000,0.0000
84.723,Crosswind,5756.020,94.982,5756.020,94.982,2157.903,2157.913,181.270,0.362,18.601,7.393,24.037,0.0432,-0.5665,-0.0100,0.7000,0.0000,0.0000,0.0000
84.922,Crosswind,5774.471,100.470,5774.471,100.470,2157.958,2157.968,181.487,0.193,19.106,7.396,24.029,0.0430,-0.5708,-0.0099,0.7000,0.0000,0.0000,0.0000
85.126,Crosswind,5792.898,106.117,5792.898,106.117,2157.981,2157.991,181.725,0.018,19.656,7.411,24.030,0.0425,-0.5738,-0.0099,0.7000,0.0000,0.0000,0.0000
85.330,Crosswind,5812.833,112.416,5812.833,112.416,2157.969,2157.979,181.946,-0.131,20.166,7.435,24.039,0.0417,-0.5749,-0.0098,0.7000,0.0000,0.0000,0.0000
85.529,Crosswind,5831.206,118.397,5831.206,118.397,2157.929,2157.940,182.169,-0.264,20.676,7.466,24.053,0.0409,-0.5749,-0.0098,0.7000,0.0000,0.0000,0.0000
85.726,Crosswind,5848.023,124.021,5848.023,124.021,2157.865,2157.875,182.394,-0.379,21.185,7.502,24.071,0.0401,-0.5740,-0.0097,0.7000,0.0000,0.0000,0.0000
