time_s,leg,north_m,east_m,along_m,cross_m,agl_ft,altitude_ft,speed_kts,vertical_speed_fps,heading_deg,pitch_deg,roll_deg,aileron_cmd,elevator_cmd,rudder_cmd,throttle_cmd,flaps_cmd,gear_cmd,brake_cmd
1.961,Upwind,0.777,0.000,0.777,0.000,3.691,3.691,2.693,0.000,0.000,0.450,0.000,0.0000,0.0630,0.0000,0.0086,0.5000,1.0000,0.0000
2.149,Upwind,1.039,0.000,1.039,0.000,3.691,3.691,2.828,0.000,0.000,0.450,0.000,0.0000,0.0629,0.0000,0.1026,0.5000,1.0000,0.0000
2.347,Upwind,1.335,0.000,1.335,0.000,3.691,3.691,2.903,0.000,0.000,0.449,0.000,0.0000,0.0628,0.0000,0.2015,0.5000,1.0000,0.0000
2.548,Upwind,1.636,0.000,1.636,0.000,3.691,3.691,2.947,0.000,0.000,0.449,0.000,0.0000,0.0628,0.0000,0.3023,0.5000,1.0000,0.0000
2.755,Upwind,1.969,0.000,1.969,0.000,3.691,3.691,3.006,0.000,0.000,0.449,0.000,0.0000,0.0629,0.0000,0.4055,0.5000,1.0000,0.0000
2.952,Upwind,2.256,0.000,2.256,0.000,3.691,3.691,3.083,0.000,0.000,0.449,0.000,0.0000,0.0629,0.0000,0.5040,0.5000,1.0000,0.0000
3.161,Upwind,2.607,0.000,2.607,0.000,3.691,3.691,3.191,0.000,0.000,0.449,0.000,0.0000,0.0629,0.0000,0.6085,0.5000,1.0000,0.0000
3.356,Upwind,2.942,0.000,2.942,0.000,3.691,3.691,3.317,0.000,0.000,0.449,0.000,0.0000,0.0629,0.0000,0.7062,0.5000,1.0000,0.0000
3.547,Upwind,3.263,0.000,3.263,0.000,3.691,3.691,3.460,0.000,0.000,0.450,0.000,0.0000,0.0630,0.0000,0.8015,0.5000,1.0000,0.0000
3.751,Upwind,3.630,0.000,3.630,0.000,3.691,3.691,3.650,0.000,0.000,0.450,0.000,0.0000,0.0630,0.0000,0.9035,0.5000,1.0000,0.0000
3.956,Upwind,4.053,0.000,4.053,0.000,3.691,3.691,3.901,0.000,0.000,0.450,0.000,0.0000,0.0630,0.0000,1.0000,0.5000,1.0000,0.0000
4.149,Upwind,4.435,0.000,4.435,0.000,3.691,3.691,4.158,0.000,0.000,0.450,0.000,0.0000,0.0630,0.0000,1.0000,0.5000,1.0000,0.0000
4.344,Upwind,4.882,0.000,4.882,0.000,3.691,3.691,4.490,0.000,0.000,0.450,0.000,0.0000,0.0631,0.0000,1.0000,0.5000,1.0000,0.0000
4.554,Upwind,5.409,0.000,5.409,0.000,3.691,3.691,4.920,0.000,0.000,0.451,0.000,0.0000,0.0631,0.0000,1.0000,0.5000,1.0000,0.0000
4.745,Upwind,5.897,0.000,5.897,0.000,3.691,3.691,5.348,0.000,0.000,0.451,0.000,0.0000,0.0632,0.0000,1.0000,0.5000,1.0000,0.0000
4.954,Upwind,6.530,0.000,6.530,0.000,3.691,3.691,5.940,0.000,0.000,0.451,0.000,0.0000,0.0632,0.0000,1.0000,0.5000,1.0000,0.0000
5.148,Upwind,7.122,0.000,7.122,0.000,3.691,3.691,6.520,0.000,0.000,0.452,0.000,0.0000,0.0633,0.0000,1.0000,0.5000,1.0000,0.0000
5.354,Upwind,7.898,0.000,7.898,0.000,3.691,3.691,7.308,0.000,0.000,0.452,0.000,0.0000,0.0634,0.0000,1.0000,0.5000,1.0000,0.0000
5.558,Upwind,8.699,0.000,8.699,0.000,3.691,3.691,8.142,0.000,0.000,0.453,0.000,0.0000,0.0634,0.0000,1.0000,0.5000,1.0000,0.0000
5.749,Upwind,9.515,0.000,9.515,0.000,3.691,3.691,9.002,0.000,0.000,0.453,0.000,0.0000,0.0635,0.0000,1.0000,0.5000,1.0000,0.0000
5.946,Upwind,10.503,0.000,10.503,0.000,3.691,3.691,10.051,0.001,0.000,0.454,0.000,0.0000,0.0636,0.0000,1.0000,0.5000,1.0000,0.0000
6.158,Upwind,11.704,0.000,11.704,0.000,3.691,3.691,11.324,0.001,0.000,0.454,0.000,0.0000,0.0636,0.0000,1.0000,0.5000,1.0000,0.0000
6.353,Upwind,12.945,0.000,12.945,0.000,3.691,3.692,12.495,0.001,0.000,0.454,0.000,0.0000,0.0636,0.0000,1.0000,0.5000,1.0000,0.0000
6.561,Upwind,14.319,0.000,14.319,0.000,3.692,3.692,13.885,0.001,0.000,0.454,0.000,0.0000,0.0636,0.0000,1.0000,0.5000,1.0000,0.0000
6.755,Upwind,15.825,0.000,15.825,0.000,3.692,3.692,15.166,0.001,0.000,0.454,0.000,0.0000,0.0635,0.0000,1.0000,0.5000,1.0000,0.0000
6.959,Upwind,17.462,0.000,17.462,0.000,3.692,3.692,16.447,0.001,0.000,0.454,0.000,0.0000,0.0635,0.0000,1.0000,0.5000,1.0000,0.0000
7.148,Upwind,19.079,0.000,19.079,0.000,3.692,3.692,17.620,0.001,0.000,0.453,0.000,0.0000,0.0634,0.0000,1.0000,0.5000,1.0000,0.0000
7.352,Upwind,20.968,0.000,20.968,0.000,3.693,3.693,18.898,0.001,0.000,0.453,0.000,0.0000,0.0634,0.0000,1.0000,0.5000,1.0000,0.0000
7.550,Upwind,22.989,0.000,22.989,0.000,3.693,3.693,20.175,0.002,0.000,0.453,0.000,0.0000,0.0633,0.0000,1.0000,0.5000,1.0000,0.0000
7.744,Upwind,25.142,0.000,25.142,0.000,3.693,3.693,21.452,0.002,0.000,0.452,0.000,0.0000,0.0632,0.0000,1.0000,0.5000,1.0000,0.0000
7.959,Upwind,27.622,0.000,27.622,0.000,3.694,3.694,22.833,0.002,0.000,0.452,0.000,0.0000,0.0632,0.0000,1.0000,0.5000,1.0000,0.0000
8.149,Upwind,29.841,0.000,29.841,0.000,3.694,3.694,24.000,0.002,0.000,0.451,0.000,0.0000,0.0631,0.0000,1.0000,0.5000,1.0000,0.0000
8.348,Upwind,32.386,0.000,32.386,0.000,3.694,3.694,25.273,0.002,0.000,0.450,0.000,0.0000,0.0630,0.0000,1.0000,0.5000,1.0000,0.0000
8.559,Upwind,35.292,0.000,35.292,0.000,3.695,3.695,26.650,0.002,0.000,0.450,0.000,0.0000,0.0629,0.0000,1.0000,0.5000,1.0000,0.0000
8.747,Upwind,37.871,0.000,37.871,0.000,3.695,3.695,27.814,0.003,0.000,0.449,0.000,0.0000,0.0628,0.0000,1.0000,0.5000,1.0000,0.0000
8.960,Upwind,41.059,0.000,41.059,0.000,3.696,3.696,29.189,0.003,0.000,0.448,0.000,0.0000,0.0627,0.0000,1.0000,0.5000,1.0000,0.0000
9.155,Upwind,44.139,0.000,44.139,0.000,3.696,3.697,30.456,0.003,0.000,0.448,0.000,0.0000,0.0626,0.0000,1.0000,0.5000,1.0000,0.0000
9.344,Upwind,47.076,0.000,47.076,0.000,3.697,3.697,31.617,0.003,0.000,0.447,0.000,0.0000,0.0625,0.0000,1.0000,0.5000,1.0000,0.0000
9.554,Upwind,50.689,0.001,50.689,0.001,3.698,3.698,32.987,0.003,0.000,0.446,0.000,0.0000,0.0624,0.0000,1.0000,0.5000,1.0000,0.0000
9.758,Upwind,54.159,0.001,54.159,0.001,3.698,3.698,34.250,0.003,0.000,0.445,0.000,0.0000,0.0622,0.0000,1.0000,0.5000,1.0000,0.0000
9.962,Upwind,57.758,0.001,57.758,0.001,3.699,3.699,35.512,0.004,0.000,0.444,0.000,0.0000,0.0621,0.0000,1.0000,0.5000,1.0000,0.0000
10.145,Upwind,61.172,0.001,61.172,0.001,3.700,3.700,36.667,0.004,0.000,0.443,0.000,0.0000,0.0620,0.0000,1.0000,0.5000,1.0000,0.0000
10.352,Upwind,65.021,0.001,65.021,0.001,3.701,3.701,37.927,0.004,0.000,0.442,0.000,0.0000,0.0618,0.0000,1.0000,0.5000,1.0000,0.0000
10.547,Upwind,68.999,0.001,68.999,0.001,3.701,3.701,39.184,0.004,0.000,0.441,0.000,0.0000,0.0617,0.0000,1.0000,0.5000,1.0000,0.0000
10.760,Upwind,73.454,0.001,73.454,0.001,3.702,3.702,40.231,0.004,0.000,0.440,0.000,0.0000,0.0615,0.0000,1.0000,0.5000,1.0000,0.0000
10.946,Upwind,77.342,0.001,77.342,0.001,3.703,3.703,41.695,0.005,0.000,0.439,0.000,0.0000,0.0613,0.0000,1.0000,0.5000,1.0000,0.0000
11.149,Upwind,81.707,0.001,81.707,0.001,3.704,3.704,43.052,0.005,0.000,0.438,0.000,0.0000,0.0611,0.0000,1.0000,0.5000,1.0000,0.0000
11.351,Upwind,86.201,0.001,86.201,0.001,3.705,3.705,44.303,0.005,0.000,0.436,0.000,0.0000,0.0609,0.0000,1.0000,0.5000,1.0000,0.0000
11.544,Upwind,90.824,0.002,90.824,0.002,3.706,3.706,45.448,0.006,0.000,0.435,0.000,0.0000,0.0607,0.0000,1.0000,0.5000,1.0000,0.0000
11.747,Upwind,95.575,0.002,95.575,0.002,3.707,3.707,46.800,0.006,0.000,0.433,0.000,0.0000,0.0605,0.0000,1.0000,0.5000,1.0000,0.0000
11.947,Upwind,100.455,0.002,100.455,0.002,3.708,3.708,47.942,0.006,0.000,0.432,0.000,0.0000,0.0603,0.0000,1.0000,0.5000,1.0000,0.0000
12.158,Upwind,105.886,0.002,105.886,0.002,3.710,3.710,49.290,0.006,0.000,0.430,0.000,0.0000,0.0601,0.0000,1.0000,0.5000,1.0000,0.0000
12.352,Upwind,111.032,0.002,111.032,0.002,3.711,3.711,50.532,0.007,0.001,0.428,0.000,0.0000,0.0598,0.0000,1.0000,0.5000,1.0000,0.0000
12.550,Upwind,115.861,0.002,115.861,0.002,3.712,3.712,51.772,0.007,0.001,0.427,0.000,0.0000,0.0596,0.0000,1.0000,0.5000,1.0000,0.0000
12.751,Upwind,121.252,0.003,121.252,0.003,3.714,3.714,53.010,0.007,0.001,0.425,0.000,0.0000,0.0593,0.0000,1.0000,0.5000,1.0000,0.0000
12.948,Upwind,126.770,0.003,126.770,0.003,3.715,3.715,54.247,0.008,0.001,0.423,0.000,0.0000,0.0590,0.0000,1.0000,0.5000,1.0000,0.0000
13.150,Upwind,132.415,0.003,132.415,0.003,3.717,3.717,55.481,0.008,0.001,0.421,0.000,0.0000,0.0588,0.0000,1.0000,0.5000,1.0000,0.0000
13.345,Upwind,138.187,0.003,138.187,0.003,3.718,3.718,56.611,0.008,0.001,0.419,0.000,0.0000,0.0585,0.0000,1.0000,0.5000,1.0000,0.0000
13.555,Upwind,144.583,0.003,144.583,0.003,3.720,3.720,57.944,0.008,0.001,0.417,0.000,0.0000,0.0582,0.0000,1.0000,0.5000,1.0000,0.0000
13.746,Upwind,150.111,0.004,150.111,0.004,3.721,3.721,59.070,0.009,0.001,0.415,0.000,0.0000,0.0579,0.0000,1.0000,0.5000,1.0000,0.0000
13.949,Upwind,156.263,0.004,156.263,0.004,3.723,3.723,60.296,0.009,0.001,0.413,0.000,0.0000,0.0575,0.0000,1.0000,0.5000,1.0000,0.0000
14.152,Upwind,162.540,0.004,162.540,0.004,3.725,3.725,61.622,0.010,0.001,0.410,0.000,-0.0001,0.0572,0.0000,1.0000,0.5000,1.0000,0.0000
14.347,Upwind,168.944,0.005,168.944,0.005,3.727,3.727,62.742,0.011,0.001,0.408,0.000,-0.0001,0.0568,0.0000,1.0000,0.5000,1.0000,0.0000
14.547,Upwind,175.473,0.005,175.473,0.005,3.729,3.729,64.062,0.011,0.001,0.405,0.000,-0.0001,0.0564,0.0000,1.0000,0.5000,1.0000,0.0000
14.749,Upwind,182.127,0.005,182.127,0.005,3.732,3.732,65.278,0.012,0.001,0.402,0.000,-0.0001,0.0560,0.0000,1.0000,0.5000,1.0000,0.0000
14.949,Upwind,188.906,0.006,188.906,0.006,3.734,3.734,66.492,0.012,0.002,0.399,0.000,-0.0001,0.0555,0.0000,1.0000,0.5000,1.0000,0.0000
15.154,Upwind,196.391,0.006,196.391,0.006,3.736,3.736,67.703,0.012,0.002,0.396,0.000,-0.0001,0.0551,0.0000,1.0000,0.5000,1.0000,0.0000
15.356,Upwind,203.430,0.007,203.430,0.007,3.739,3.739,68.912,0.013,0.002,0.393,0.000,-0.0001,0.0546,0.0000,1.0000,0.5000,1.0000,0.0000
15.546,Upwind,209.991,0.007,209.991,0.007,3.741,3.741,70.017,0.013,0.002,0.389,0.000,-0.0001,0.0542,0.0000,1.0000,0.5000,1.0000,0.0000
15.758,Upwind,217.879,0.008,217.879,0.008,3.744,3.744,71.320,0.014,0.002,0.386,0.000,-0.0001,0.0537,0.0000,1.0000,0.5000,1.0000,0.0000
15.948,Upwind,224.668,0.008,224.668,0.008,3.747,3.747,72.420,0.014,0.002,0.383,0.000,-0.0001,0.0532,0.0000,1.0000,0.5000,1.0000,0.0000
16.152,Upwind,232.191,0.009,232.191,0.009,3.750,3.750,73.717,0.012,0.002,0.379,0.000,-0.0001,0.0527,0.0000,1.0000,0.5000,1.0000,0.0000
16.355,Upwind,240.480,0.009,240.480,0.009,3.752,3.752,74.912,0.010,0.002,0.376,0.000,-0.0001,0.0523,0.0000,1.0000,0.5000,1.0000,0.0000
16.547,Upwind,247.607,0.010,247.607,0.010,3.754,3.754,76.005,0.010,0.003,0.373,0.000,-0.0001,0.0521,0.0000,1.0000,0.5000,1.0000,0.0000
16.746,Upwind,255.499,0.011,255.499,0.011,3.756,3.756,77.196,0.010,0.003,0.371,0.000,-0.0001,0.0517,0.0000,1.0000,0.5000,1.0000,0.0000
16.952,Upwind,264.186,0.011,264.186,0.011,3.758,3.758,78.482,0.010,0.003,0.368,0.000,-0.0001,0.0513,0.0000,1.0000,0.5000,1.0000,0.0000
17.153,Upwind,272.333,0.012,272.333,0.012,3.760,3.760,79.667,0.010,0.003,0.366,0.000,-0.0001,0.0509,0.0000,1.0000,0.5000,1.0000,0.0000
17.358,Upwind,280.601,0.013,280.601,0.013,3.762,3.762,80.850,0.011,0.003,0.363,0.000,-0.0001,0.0505,0.0000,1.0000,0.5000,1.0000,0.0000
17.548,Upwind,288.287,0.014,288.287,0.014,3.764,3.764,81.932,0.011,0.004,0.360,0.000,-0.0001,0.0502,0.0000,1.0000,0.5000,1.0000,0.0000
17.751,Upwind,296.788,0.015,296.788,0.015,3.766,3.766,83.208,0.011,0.004,0.357,0.000,-0.0001,0.0498,0.0000,1.0000,0.5000,1.0000,0.0000
17.953,Upwind,306.134,0.016,306.134,0.016,3.768,3.768,84.384,0.011,0.004,0.355,0.000,-0.0002,0.0494,0.0000,1.0000,0.5000,1.0000,0.0000
18.146,Upwind,314.153,0.016,314.153,0.016,3.770,3.770,85.459,0.011,0.004,0.352,0.000,-0.0002,0.0490,0.0000,1.0000,0.5000,1.0000,0.0000
18.352,Upwind,323.017,0.017,323.017,0.017,3.773,3.773,86.727,0.011,0.004,0.349,0.000,-0.0002,0.0486,0.0000,1.0000,0.5000,1.0000,0.0000
18.547,Upwind,332.001,0.019,332.001,0.019,3.775,3.775,87.895,0.011,0.005,0.346,0.000,-0.0002,0.0482,0.0000,1.0000,0.5000,1.0000,0.0000
18.752,Upwind,341.104,0.020,341.104,0.020,3.777,3.777,89.060,0.011,0.005,0.343,0.000,-0.0002,0.0478,0.0000,1.0000,0.5000,1.0000,0.0000
18.946,Upwind,350.328,0.021,350.328,0.021,3.779,3.779,90.126,0.011,0.005,0.341,0.000,-0.0002,0.0474,0.0000,1.0000,0.5000,1.0000,0.0000
19.155,Upwind,360.455,0.022,360.455,0.022,3.782,3.782,91.382,0.012,0.005,0.338,0.000,-0.0002,0.0470,0.0000,1.0000,0.5000,1.0000,0.0000
19.352,Upwind,369.927,0.024,369.927,0.024,3.784,3.784,92.540,0.012,0.006,0.335,0.000,-0.0002,0.0466,0.0000,1.0000,0.5000,1.0000,0.0000
19.544,Upwind,378.714,0.025,378.714,0.025,3.786,3.786,93.598,0.012,0.006,0.332,0.000,-0.0002,0.0462,0.0000,1.0000,0.5000,1.0000,0.0000
19.749,Upwind,388.414,0.026,388.414,0.026,3.789,3.789,94.846,0.012,0.006,0.329,0.000,-0.0002,0.0457,0.0000,1.0000,0.5000,1.0000,0.0000
19.947,Upwind,398.232,0.028,398.232,0.028,3.791,3.791,95.900,0.012,0.006,0.326,0.000,-0.0002,0.0453,0.0000,1.0000,0.5000,1.0000,0.0000
20.153,Upwind,409.002,0.029,409.002,0.029,3.794,3.794,97.142,0.012,0.007,0.323,0.000,-0.0003,0.0449,0.0000,1.0000,0.5000,1.0000,0.0000
20.345,Upwind,418.223,0.031,418.223,0.031,3.796,3.796,98.191,0.012,0.007,0.320,0.000,-0.0003,0.0445,0.0000,1.0000,0.5000,1.0000,0.0000
20.552,Upwind,429.248,0.033,429.248,0.033,3.798,3.798,99.428,0.012,0.007,0.316,0.000,-0.0003,0.0440,0.0000,1.0000,0.5000,1.0000,0.0000
20.747,Upwind,438.684,0.034,438.684,0.034,3.801,3.801,100.566,0.012,0.008,0.313,0.000,-0.0003,0.0435,0.0000,1.0000,0.5000,1.0000,0.0000
20.948,Upwind,449.090,0.036,449.090,0.036,3.803,3.803,101.607,0.013,0.008,0.310,0.000,-0.0003,0.0431,0.0000,1.0000,0.5000,1.0000,0.0000
21.147,Upwind,459.613,0.038,459.613,0.038,3.806,3.806,102.741,0.013,0.008,0.307,0.000,-0.0003,0.0427,0.0000,1.0000,0.5000,1.0000,0.0000
21.345,Upwind,470.252,0.040,470.252,0.040,3.808,3.808,103.871,0.013,0.009,0.304,0.000,-0.0003,0.0422,0.0000,1.0000,0.5000,1.0000,0.0000
21.547,Upwind,481.007,0.043,481.007,0.043,3.811,3.811,105.092,0.013,0.009,0.301,0.000,-0.0003,0.0418,0.0000,1.0000,0.5000,1.0000,0.0000
21.748,Upwind,491.879,0.045,491.879,0.045,3.813,3.813,106.123,0.013,0.010,0.298,0.000,-0.0004,0.0413,0.0000,1.0000,0.5000,1.0000,0.0000
21.957,Upwind,503.786,0.047,503.786,0.047,3.816,3.816,107.339,0.013,0.010,0.294,0.000,-0.0004,0.0408,0.0000,1.0000,0.5000,1.0000,0.0000
22.146,Upwind,513.967,0.050,513.967,0.050,3.818,3.818,108.365,0.013,0.010,0.291,0.000,-0.0004,0.0404,0.0000,1.0000,0.5000,1.0000,0.0000
22.355,Upwind,526.124,0.052,526.124,0.052,3.821,3.821,109.574,0.013,0.011,0.287,0.000,-0.0004,0.0399,0.0000,1.0000,0.5000,1.0000,0.0000
22.555,Upwind,537.466,0.055,537.466,0.055,3.824,3.824,110.687,0.013,0.011,0.284,0.000,-0.0004,0.0394,0.0000,1.0000,0.5000,1.0000,0.0000
22.750,Upwind,547.962,0.058,547.962,0.058,3.827,3.827,111.797,0.013,0.012,0.281,0.000,-0.0004,0.0390,0.0000,1.0000,0.5000,1.0000,0.0000
22.954,Upwind,560.491,0.061,560.491,0.061,3.829,3.829,112.904,0.013,0.012,0.277,0.000,-0.0004,0.0385,0.0000,1.0000,0.5000,1.0000,0.0000
23.155,Upwind,572.175,0.064,572.175,0.064,3.832,3.832,114.009,0.014,0.012,0.274,0.000,-0.0005,0.0380,0.0000,1.0000,0.5000,1.0000,0.0000
23.347,Upwind,582.984,0.067,582.984,0.067,3.835,3.835,115.110,0.014,0.013,0.271,0.000,-0.0005,0.0375,0.0000,1.0000,0.5000,1.0000,0.0000
23.552,Upwind,595.882,0.070,595.882,0.070,3.837,3.837,116.209,0.014,0.013,0.267,0.000,-0.0005,0.0371,0.0000,1.0000,0.5000,1.0000,0.0000
23.751,Upwind,606.898,0.073,606.898,0.073,3.840,3.840,117.305,0.014,0.014,0.264,0.000,-0.0005,0.0366,0.0000,1.0000,0.5000,1.0000,0.0000
23.951,Upwind,619.025,0.077,619.025,0.077,3.843,3.843,118.397,0.014,0.014,0.260,0.000,-0.0005,0.0361,0.0000,1.0000,0.5000,1.0000,0.0000
24.153,Upwind,632.288,0.081,632.288,0.081,3.846,3.846,119.487,0.014,0.015,0.257,0.000,-0.0006,0.0356,0.0000,1.0000,0.5000,1.0000,0.0000
24.353,Upwind,644.648,0.085,644.648,0.085,3.848,3.848,120.574,0.014,0.015,0.253,0.000,-0.0006,0.0351,0.0000,1.0000,0.5000,1.0000,0.0000
24.550,Upwind,656.076,0.088,656.076,0.088,3.851,3.851,121.658,0.014,0.016,0.250,0.000,-0.0006,0.0346,0.0000,1.0000,0.5000,1.0000,0.0000
24.750,Upwind,668.649,0.092,668.649,0.092,3.854,3.854,122.738,0.014,0.016,0.246,0.000,-0.0006,0.0341,0.0000,1.0000,0.5000,1.0000,0.0000
24.945,Upwind,681.334,0.097,681.334,0.097,3.857,3.857,123.726,0.014,0.017,0.243,0.000,-0.0006,0.0337,0.0000,1.0000,0.5000,1.0000,0.0000
25.144,Upwind,694.129,0.101,694.129,0.101,3.859,3.859,124.801,0.014,0.017,0.240,0.000,-0.0007,0.0332,0.0000,1.0000,0.5000,1.0000,0.0000
25.351,Upwind,707.034,0.105,707.034,0.105,3.863,3.863,125.962,0.014,0.018,0.236,0.000,-0.0007,0.0326,0.0000,1.0000,0.5000,1.0000,0.0000
25.548,Upwind,720.050,0.110,720.050,0.110,3.865,3.865,127.031,0.014,0.018,0.232,0.000,-0.0007,0.0321,0.0000,1.0000,0.5000,1.0000,0.0000
25.750,Upwind,733.176,0.115,733.176,0.115,3.868,3.868,128.096,0.015,0.019,0.229,0.000,-0.0007,0.0316,0.0000,1.0000,0.5000,1.0000,0.0000
25.948,Upwind,746.411,0.120,746.411,0.120,3.871,3.871,129.159,0.015,0.019,0.225,0.000,-0.0007,0.0311,0.0000,1.0000,0.5000,1.0000,0.0000
26.149,Upwind,759.755,0.125,759.755,0.125,3.874,3.874,130.218,0.015,0.020,0.221,0.000,-0.0008,0.0306,0.0000,1.0000,0.5000,1.0000,0.0000
26.354,Upwind,774.334,0.131,774.334,0.131,3.877,3.877,131.274,0.015,0.021,0.218,0.000,-0.0008,0.0301,0.0000,1.0000,0.5000,1.0000,0.0000
26.548,Upwind,786.769,0.136,786.769,0.136,3.880,3.880,132.327,0.015,0.021,0.214,0.000,-0.0008,0.0296,0.0000,1.0000,0.5000,1.0000,0.0000
26.744,Upwind,800.439,0.142,800.439,0.142,3.883,3.883,133.290,0.015,0.022,0.211,0.000,-0.0008,0.0291,0.0000,1.0000,0.5000,1.0000,0.0000
26.954,Upwind,815.370,0.148,815.370,0.148,3.886,3.886,134.425,0.015,0.022,0.207,0.000,-0.0009,0.0286,0.0000,1.0000,0.5000,1.0000,0.0000
27.146,Upwind,828.102,0.154,828.102,0.154,3.889,3.889,135.383,0.015,0.023,0.203,-0.001,-0.0009,0.0281,0.0000,1.0000,0.5000,1.0000,0.0000
27.354,Upwind,843.266,0.161,843.266,0.161,3.892,3.892,136.513,0.015,0.023,0.199,-0.001,-0.0009,0.0275,0.0000,1.0000,0.5000,1.0000,0.0000
27.547,Upwind,856.195,0.166,856.195,0.166,3.895,3.895,137.553,0.015,0.024,0.196,-0.001,-0.0009,0.0270,0.0000,1.0000,0.5000,1.0000,0.0000
27.745,Upwind,870.401,0.173,870.401,0.173,3.898,3.898,138.503,0.015,0.025,0.192,-0.001,-0.0010,0.0265,0.0000,1.0000,0.5000,1.0000,0.0000
27.948,Upwind,884.715,0.180,884.715,0.180,3.901,3.901,139.624,0.015,0.025,0.188,-0.001,-0.0010,0.0260,0.0000,1.0000,0.5000,1.0000,0.0000
28.145,Upwind,899.134,0.187,899.134,0.187,3.904,3.904,140.570,0.015,0.026,0.185,-0.001,-0.0010,0.0255,0.0000,1.0000,0.5000,1.0000,0.0000
28.353,Upwind,914.875,0.195,914.875,0.195,3.907,3.907,141.685,0.015,0.026,0.181,-0.001,-0.0010,0.0249,0.0000,1.0000,0.5000,1.0000,0.0000
28.549,Upwind,928.291,0.202,928.291,0.202,3.910,3.910,142.711,0.015,0.027,0.177,-0.001,-0.0011,0.0244,0.0000,1.0000,0.5000,1.0000,0.0000
28.748,Upwind,943.028,0.209,943.028,0.209,3.913,3.913,143.735,0.015,0.028,0.173,-0.001,-0.0011,0.0239,0.0000,1.0000,0.5000,1.0000,0.0000
28.949,Upwind,957.870,0.217,957.870,0.217,3.916,3.916,144.756,0.015,0.028,0.169,-0.001,-0.0011,0.0233,0.0000,1.0000,0.5000,1.0000,0.0000
29.146,Upwind,972.817,0.226,972.817,0.226,3.919,3.919,145.689,0.016,0.029,0.166,-0.001,-0.0012,0.0229,0.0000,1.0000,0.5000,1.0000,0.0000
29.355,Upwind,989.128,0.235,989.128,0.235,3.922,3.922,146.790,0.016,0.030,0.162,-0.001,-0.0012,0.0223,0.0000,1.0000,0.5000,1.0000,0.0000
29.554,Upwind,1004.292,0.243,1004.292,0.243,3.925,3.925,147.802,0.016,0.030,0.158,-0.001,-0.0012,0.0217,0.0000,1.0000,0.5000,1.0000,0.0000
29.750,Upwind,1018.284,0.251,1018.284,0.251,3.928,3.928,148.812,0.016,0.031,0.154,-0.001,-0.0012,0.0212,0.0000,1.0000,0.5000,1.0000,0.0000
29.949,Upwind,1033.648,0.260,1033.648,0.260,3.932,3.932,149.819,0.016,0.032,0.150,-0.001,-0.0013,0.0207,0.0000,1.0000,0.5000,1.0000,0.0000
30.155,Upwind,1050.408,0.270,1050.408,0.270,3.927,3.927,150.803,-0.096,0.032,0.197,-0.001,-0.0013,-0.6500,0.0000,1.0000,0.5000,1.0000,0.0000
30.350,Upwind,1064.681,0.279,1064.681,0.279,3.916,3.916,151.768,0.037,0.033,0.374,-0.001,-0.0013,-0.6500,0.0000,1.0000,0.5000,1.0000,0.0000
30.546,Upwind,1080.346,0.289,1080.346,0.289,3.936,3.936,152.648,0.155,0.034,0.610,-0.001,-0.0014,-0.6500,0.0000,1.0000,0.5000,1.0000,0.0000
30.748,Upwind,1096.110,0.299,1096.110,0.299,3.974,3.974,153.681,0.186,0.035,0.982,-0.001,-0.0014,-0.6500,0.0000,1.0000,0.5000,1.0000,0.0000
30.948,Upwind,1111.972,0.309,1111.972,0.309,4.010,4.010,154.550,0.212,0.035,1.374,-0.001,-0.0014,-0.6500,0.0000,1.0000,0.5000,1.0000,0.0000
31.145,Upwind,1127.931,0.320,1127.931,0.320,4.056,4.056,155.490,0.245,0.036,1.877,-0.001,-0.0015,-0.6500,0.0000,1.0000,0.5000,1.0000,0.0000
31.355,Upwind,1145.328,0.331,1145.328,0.331,4.113,4.113,156.498,0.280,0.037,2.506,-0.002,-0.0015,-0.6500,0.0000,1.0000,0.5000,1.0000,0.0000
31.552,Upwind,1160.136,0.342,1160.136,0.342,4.172,4.172,157.417,0.310,0.038,3.160,-0.002,-0.0016,-0.6500,0.0000,1.0000,0.5000,1.0000,0.0000
31.750,Upwind,1176.380,0.353,1176.380,0.353,4.236,4.236,158.323,0.336,0.039,3.877,-0.002,-0.0016,-0.6500,0.0000,1.0000,0.5000,1.0000,0.0000
31.948,Upwind,1192.716,0.365,1192.716,0.365,4.309,4.310,159.214,0.450,0.040,4.650,-0.002,-0.0016,-0.6500,0.0000,1.0000,0.5000,1.0000,0.0000
32.148,Upwind,1209.144,0.377,1209.144,0.377,4.447,4.447,160.081,1.001,0.040,5.453,-0.004,-0.0014,-0.6500,0.0000,1.0000,0.5000,1.0000,0.0000
32.353,Upwind,1227.038,0.390,1227.038,0.390,4.739,4.739,160.916,1.982,0.041,6.258,-0.007,-0.0013,-0.6500,0.0000,1.0000,0.5000,1.0000,0.0000
32.548,Upwind,1242.256,0.402,1242.256,0.402,5.265,5.265,161.714,3.335,0.042,7.040,-0.011,-0.0011,-0.6500,0.0000,1.0000,0.5000,1.0000,0.0000
32.747,Upwind,1258.934,0.414,1258.934,0.414,6.093,6.093,162.472,4.989,0.043,7.784,-0.015,-0.0010,-0.6500,0.0000,1.0000,0.5000,1.0000,0.0000
32.949,Upwind,1275.685,0.427,1275.685,0.427,7.275,7.275,163.187,6.869,0.043,8.479,-0.020,-0.0008,-0.6500,0.0000,1.0000,0.5000,1.0000,0.0000
33.145,Upwind,1292.505,0.440,1292.505,0.440,8.703,8.703,163.804,8.724,0.043,9.070,-0.024,-0.0007,-0.6500,0.0000,1.0000,0.5000,1.0000,0.0000
33.347,Upwind,1309.388,0.454,1309.388,0.454,10.840,10.840,164.482,11.015,0.043,9.715,-0.029,-0.0006,-0.6500,0.0000,1.0000,0.5000,1.0000,0.0000
33.547,Upwind,1326.328,0.467,1326.328,0.467,13.261,13.261,165.061,13.209,0.043,10.261,-0.032,-0.0005,-0.6500,0.0000,1.0000,0.5000,1.0000,0.0000
33.754,Upwind,1344.738,0.481,1344.738,0.481,16.126,16.126,165.595,15.437,0.043,10.767,-0.036,-0.0004,-0.6500,0.0000,1.0000,0.5000,1.0000,0.0000
33.951,Upwind,1360.358,0.494,1360.358,0.494,19.437,19.437,166.089,17.683,0.043,11.236,-0.038,-0.0003,-0.5657,0.0000,1.0000,0.5000,1.0000,0.0000
34.153,Upwind,1378.862,0.508,1378.862,0.508,23.199,23.199,166.546,19.929,0.042,11.638,-0.041,-0.0002,-0.4865,0.0000,1.0000,0.5000,1.0000,0.0000
34.353,Upwind,1395.981,0.521,1395.981,0.521,27.405,27.405,166.970,22.120,0.041,11.939,-0.043,-0.0002,-0.4312,0.0000,1.0000,0.5000,1.0000,0.0000
34.555,Upwind,1413.133,0.534,1413.133,0.534,32.040,32.040,167.366,24.205,0.041,12.125,-0.044,-0.0002,-0.4013,0.0000,1.0000,0.5000,1.0000,0.0000
34.753,Upwind,1430.315,0.547,1430.315,0.547,37.076,37.076,167.739,26.128,0.040,12.203,-0.045,-0.0001,-0.3931,0.0000,1.0000,0.5000,1.0000,0.0000
34.954,Upwind,1447.525,0.560,1447.525,0.560,42.479,42.479,168.092,27.868,0.039,12.198,-0.046,-0.0001,-0.4003,0.0000,1.0000,0.5000,1.0000,0.0000
35.149,Upwind,1463.325,0.572,1463.325,0.572,48.210,48.210,168.430,29.408,0.039,12.143,-0.047,-0.0001,-0.4153,0.0000,1.0000,0.5000,1.0000,0.0000
35.347,Upwind,1480.587,0.585,1480.587,0.585,54.229,54.229,168.755,30.753,0.038,12.070,-0.048,-0.0001,-0.4316,0.0000,1.0000,0.5000,1.0000,0.0000
35.552,Upwind,1497.875,0.597,1497.875,0.597,60.499,60.499,169.070,31.924,0.038,12.007,-0.048,0.0000,-0.4431,0.0000,1.0000,0.5000,1.0000,0.0000
35.752,Upwind,1516.633,0.611,1516.633,0.611,66.989,66.989,169.374,32.957,0.037,11.975,-0.048,0.0000,-0.4467,0.0000,1.0000,0.5000,1.0000,0.0000
35.948,Upwind,1532.529,0.622,1532.529,0.622,73.676,73.676,169.671,33.896,0.036,11.982,-0.049,0.0000,-0.4414,0.0000,1.0000,0.5000,1.0000,0.0000
36.152,Upwind,1551.343,0.635,1551.343,0.635,80.543,80.543,169.959,34.770,0.036,12.027,-0.049,0.0000,-0.4281,0.0000,1.0000,0.5000,1.0000,0.0000
36.346,Upwind,1567.285,0.646,1567.285,0.646,87.581,87.581,170.239,35.610,0.035,12.102,-0.049,0.0000,-0.4093,0.0000,1.0000,0.5000,1.0000,0.0000
36.556,Upwind,1586.152,0.659,1586.152,0.659,94.786,94.786,170.511,36.436,0.035,12.195,-0.050,0.0000,-0.3878,0.0000,1.0000,0.5000,1.0000,0.0000
36.752,Upwind,1602.138,0.670,1602.138,0.670,102.155,102.155,170.774,37.253,0.034,12.291,-0.050,0.0000,-0.3668,0.0000,1.0000,0.5000,1.0000,0.0000
36.948,Upwind,1619.598,0.682,1619.598,0.682,109.053,109.053,171.007,37.998,0.034,12.374,-0.050,0.0000,-0.3500,0.0000,1.0000,0.5000,1.0000,0.0000
37.150,Upwind,1637.079,0.693,1637.079,0.693,117.380,117.381,171.272,38.868,0.034,12.453,-0.050,0.0000,-0.3343,0.0000,1.0000,0.5000,1.0000,0.0000
37.345,Upwind,1654.581,0.705,1654.581,0.705,124.572,124.573,171.490,39.586,0.033,12.502,-0.050,0.0000,-0.3255,0.0000,1.0000,0.5000,1.0000,0.0000
37.552,Upwind,1673.564,0.717,1673.564,0.717,133.238,133.239,171.738,40.399,0.033,12.538,-0.051,0.0000,-0.3194,0.0000,1.0000,0.5000,1.0000,0.0000
37.749,Upwind,1689.644,0.727,1689.644,0.727,141.389,141.390,171.961,41.106,0.033,12.554,-0.051,0.0000,-0.3173,0.0000,1.0000,0.5000,1.0000,0.0000
37.952,Upwind,1708.668,0.739,1708.668,0.739,149.677,149.678,172.177,41.767,0.033,12.558,-0.051,0.0000,-0.3171,0.0000,1.0000,0.5000,1.0000,0.0000
38.146,Upwind,1724.783,0.749,1724.783,0.749,158.093,158.094,172.388,42.381,0.032,12.558,-0.051,0.0000,-0.3174,0.0000,1.0000,0.5000,0.0000,0.0000
38.353,Upwind,1743.848,0.761,1743.848,0.761,166.627,166.628,172.597,42.953,0.032,12.557,-0.051,0.0000,-0.3173,0.0000,1.0000,0.5000,0.0000,0.0000
38.552,Upwind,1759.997,0.771,1759.997,0.771,175.271,175.272,172.804,43.486,0.032,12.561,-0.050,-0.0001,-0.3161,0.0000,1.0000,0.5000,0.0000,0.0000
38.750,Upwind,1777.632,0.781,1777.632,0.781,184.019,184.020,173.007,43.989,0.032,12.570,-0.050,-0.0001,-0.3134,0.0000,0.9981,0.5000,0.0000,0.0000
38.946,Upwind,1795.286,0.792,1795.286,0.792,192.124,192.125,173.186,44.426,0.031,12.584,-0.050,-0.0001,-0.3098,0.0000,0.9956,0.5000,0.0000,0.0000
39.150,Upwind,1812.957,0.802,1812.957,0.802,201.804,201.805,173.389,44.920,0.031,12.606,-0.051,-0.0001,-0.3046,0.0000,0.9927,0.5000,0.0000,0.0000
39.344,Upwind,1830.646,0.812,1830.646,0.812,210.076,210.077,173.552,45.322,0.031,12.627,-0.051,-0.0001,-0.2997,0.0000,0.9905,0.5000,0.0000,0.0000
39.548,Upwind,1848.352,0.823,1848.352,0.823,219.946,219.947,173.737,45.781,0.030,12.653,-0.051,0.0000,-0.2940,0.0000,0.9879,0.5000,0.0000,0.0000
39.745,Upwind,1866.073,0.833,1866.073,0.833,228.373,228.375,173.887,46.156,0.030,12.674,-0.051,-0.0001,-0.2897,0.0000,0.9858,0.5000,0.0000,0.0000
39.946,Upwind,1883.809,0.842,1883.809,0.842,237.644,237.646,174.044,46.551,0.029,12.694,-0.051,-0.0001,-0.2857,0.0000,0.9836,0.5000,0.0000,0.0000
40.154,Upwind,1903.040,0.853,1903.040,0.853,247.775,247.776,174.207,46.961,0.029,12.711,-0.051,0.0000,-0.2823,0.0000,0.9813,0.5000,0.0000,0.0000
40.350,Upwind,1919.325,0.862,1919.325,0.862,257.204,257.205,174.350,47.321,0.029,12.723,-0.051,0.0000,-0.2801,0.0000,0.9793,0.5000,0.0000,0.0000
40.547,Upwind,1937.104,0.871,1937.104,0.871,266.702,266.704,174.489,47.663,0.028,12.731,-0.051,0.0000,-0.2785,0.0000,0.9773,0.5000,0.0000,0.0000
40.754,Upwind,1956.380,0.881,1956.380,0.881,276.268,276.269,174.622,47.986,0.028,12.737,-0.051,-0.0001,-0.2774,0.0000,0.9755,0.5000,0.0000,0.0000
40.947,Upwind,1972.702,0.890,1972.702,0.890,285.091,285.092,174.739,48.266,0.027,12.741,-0.051,0.0000,-0.2766,0.0000,0.9738,0.5000,0.0000,0.0000
41.152,Upwind,1990.520,0.899,1990.520,0.899,295.582,295.584,174.874,48.578,0.027,12.746,-0.051,0.0000,-0.2756,0.0000,0.9720,0.5000,0.0000,0.0000
41.355,Upwind,2009.837,0.909,2009.837,0.909,305.325,305.327,174.993,48.849,0.026,12.750,-0.051,0.0000,-0.2745,0.0000,0.9703,0.5000,0.0000,0.0000
41.545,Upwind,2026.193,0.917,2026.193,0.917,314.303,314.304,175.099,49.085,0.026,12.755,-0.051,0.0000,-0.2734,0.0000,0.9688,0.5000,0.0000,0.0000
41.748,Upwind,2044.048,0.925,2044.048,0.925,324.967,324.968,175.221,49.350,0.026,12.761,-0.051,0.0000,-0.2719,0.0000,0.9671,0.5000,0.0000,0.0000
41.946,Upwind,2061.914,0.934,2061.914,0.934,334.034,334.035,175.321,49.565,0.025,12.767,-0.051,0.0000,-0.2706,0.0000,0.9657,0.5000,0.0000,0.0000
42.150,Upwind,2079.792,0.942,2079.792,0.942,344.799,344.801,175.435,49.807,0.025,12.775,-0.051,-0.0001,-0.2689,0.0000,0.9641,0.5000,0.0000,0.0000
42.354,Upwind,2099.172,0.951,2099.172,0.951,354.782,354.784,175.537,50.022,0.025,12.782,-0.051,-0.0001,-0.2674,0.0000,0.9627,0.5000,0.0000,0.0000
42.550,Upwind,2115.581,0.959,2115.581,0.959,364.807,364.809,175.637,50.228,0.024,12.788,-0.051,0.0000,-0.2660,0.0000,0.9613,0.5000,0.0000,0.0000
42.748,Upwind,2133.492,0.967,2133.492,0.967,374.873,374.875,175.733,50.426,0.024,12.794,-0.051,0.0000,-0.2649,0.0000,0.9599,0.5000,0.0000,0.0000
42.952,Upwind,2152.907,0.976,2152.907,0.976,384.977,384.979,175.827,50.616,0.023,12.799,-0.051,0.0000,-0.2639,0.0000,0.9586,0.5000,0.0000,0.0000
43.150,Upwind,2169.345,0.983,2169.345,0.983,395.119,395.121,175.918,50.798,0.023,12.803,-0.051,0.0000,-0.2631,0.0000,0.9573,0.5000,0.0000,0.0000
43.353,Upwind,2188.783,0.991,2188.783,0.991,404.446,404.448,175.997,50.957,0.023,12.806,-0.051,-0.0001,-0.2624,0.0000,0.9562,0.5000,0.0000,0.0000
43.555,Upwind,2206.735,0.999,2206.735,0.999,415.507,415.509,176.086,51.136,0.022,12.810,-0.051,0.0000,-0.2615,0.0000,0.9550,0.5000,0.0000,0.0000
43.746,Upwind,2223.200,1.006,2223.200,1.006,424.895,424.897,176.157,51.280,0.022,12.813,-0.051,0.0000,-0.2607,0.0000,0.9540,0.5000,0.0000,0.0000
43.956,Upwind,2242.668,1.014,2242.668,1.014,436.023,436.025,176.237,51.443,0.022,12.818,-0.051,-0.0001,-0.2595,0.0000,0.9529,0.5000,0.0000,0.0000
44.155,Upwind,2260.648,1.021,2260.648,1.021,446.326,446.329,176.306,51.588,0.021,12.823,-0.051,0.0000,-0.2584,0.0000,0.9519,0.5000,0.0000,0.0000
44.352,Upwind,2278.635,1.028,2278.635,1.028,456.658,456.660,176.371,51.727,0.021,12.829,-0.051,-0.0001,-0.2572,0.0000,0.9510,0.5000,0.0000,0.0000
44.552,Upwind,2295.131,1.035,2295.131,1.035,467.017,467.019,176.434,51.861,0.020,12.834,-0.051,0.0000,-0.2559,0.0000,0.9501,0.5000,0.0000,0.0000
44.755,Upwind,2314.635,1.042,2314.635,1.042,477.402,477.404,176.492,51.990,0.020,12.840,-0.051,0.0000,-0.2548,0.0000,0.9493,0.5000,0.0000,0.0000
44.954,Upwind,2332.645,1.049,2332.645,1.049,487.813,487.815,176.548,52.115,0.020,12.845,-0.051,0.0000,-0.2537,0.0000,0.9485,0.5000,0.0000,0.0000
45.145,Upwind,2349.161,1.055,2349.161,1.055,497.377,497.380,176.596,52.225,0.019,12.849,-0.051,0.0000,-0.2528,0.0000,0.9478,0.5000,0.0000,0.0000
45.353,Upwind,2368.688,1.062,2368.688,1.062,507.834,507.836,176.645,52.340,0.019,12.853,-0.051,0.0000,-0.2519,0.0000,0.9472,0.5000,0.0000,0.0000
45.554,Upwind,2386.719,1.068,2386.719,1.068,519.187,519.190,176.696,52.460,0.018,12.857,-0.051,0.0000,-0.2511,0.0000,0.9464,0.5000,0.0000,0.0000
45.755,Upwind,2404.757,1.074,2404.757,1.074,529.690,529.692,176.740,52.565,0.018,12.861,-0.051,0.0000,-0.2504,0.0000,0.9458,0.5000,0.0000,0.0000
45.951,Upwind,2421.297,1.080,2421.297,1.080,540.213,540.216,176.781,52.666,0.018,12.864,-0.051,0.0000,-0.2498,0.0000,0.9452,0.5000,0.0000,0.0000
46.154,Upwind,2440.851,1.087,2440.851,1.087,550.756,550.758,176.820,52.762,0.017,12.866,-0.051,-0.0001,-0.2492,0.0000,0.9447,0.5000,0.0000,0.0000
46.345,Upwind,2457.401,1.092,2457.401,1.092,560.436,560.439,176.854,52.846,0.017,12.869,-0.051,-0.0001,-0.2486,0.0000,0.9442,0.5000,0.0000,0.0000
46.547,Upwind,2475.462,1.098,2475.462,1.098,571.897,571.899,176.891,52.941,0.017,12.872,-0.051,0.0000,-0.2480,0.0000,0.9437,0.5000,0.0000,0.0000
46.750,Upwind,2493.528,1.103,2493.528,1.103,582.493,582.496,176.924,53.024,0.016,12.874,-0.051,0.0000,-0.2474,0.0000,0.9433,0.5000,0.0000,0.0000
46.954,Upwind,2513.106,1.109,2513.106,1.109,593.106,593.109,176.954,53.104,0.016,12.877,-0.051,0.0000,-0.2468,0.0000,0.9428,0.5000,0.0000,0.0000
47.153,Upwind,2531.182,1.115,2531.182,1.115,603.735,603.737,176.983,53.180,0.015,12.880,-0.050,0.0000,-0.2462,0.0000,0.9424,0.5000,0.0000,0.0000
47.359,Upwind,2549.264,1.120,2549.264,1.120,614.378,614.381,177.010,53.253,0.015,12.882,-0.050,-0.0001,-0.2457,0.0000,0.9420,0.5000,0.0000,0.0000
47.560,Upwind,2567.351,1.125,2567.351,1.125,625.036,625.039,177.035,53.323,0.015,12.885,-0.050,0.0000,-0.2452,0.0000,0.9417,0.5000,0.0000,0.0000
47.755,Upwind,2585.442,1.130,2585.442,1.130,635.707,635.710,177.059,53.390,0.014,12.887,-0.050,0.0000,-0.2447,0.0000,0.9414,0.5000,0.0000,0.0000
47.953,Upwind,2603.538,1.135,2603.538,1.135,646.392,646.395,177.081,53.454,0.014,12.889,-0.050,0.0000,-0.2442,0.0000,0.9411,0.5000,0.0000,0.0000
48.154,Upwind,2621.638,1.140,2621.638,1.140,657.088,657.092,177.101,53.515,0.014,12.891,-0.050,0.0000,-0.2438,0.0000,0.9408,0.5000,0.0000,0.0000
48.347,Upwind,2638.234,1.145,2638.234,1.145,667.797,667.801,177.120,53.574,0.013,12.893,-0.050,0.0000,-0.2434,0.0000,0.9405,0.5000,0.0000,0.0000
48.550,Upwind,2656.342,1.149,2656.342,1.149,678.518,678.521,177.138,53.630,0.013,12.895,-0.050,0.0000,-0.2430,0.0000,0.9402,0.5000,0.0000,0.0000
48.755,Upwind,2675.964,1.154,2675.964,1.154,689.249,689.252,177.155,53.683,0.013,12.897,-0.050,0.0000,-0.2426,0.0000,0.9400,0.5000,0.0000,0.0000
48.953,Upwind,2694.081,1.158,2694.081,1.158,699.991,699.994,177.170,53.734,0.012,12.898,-0.050,0.0000,-0.2423,0.0000,0.9398,0.5000,0.0000,0.0000
49.152,Upwind,2710.691,1.162,2710.691,1.162,710.742,710.746,177.184,53.782,0.012,12.900,-0.050,0.0000,-0.2420,0.0000,0.9396,0.5000,0.0000,0.0000
49.345,Upwind,2728.815,1.167,2728.815,1.167,720.606,720.610,177.196,53.824,0.011,12.901,-0.049,0.0000,-0.2417,0.0000,0.9394,0.5000,0.0000,0.0000
49.551,Upwind,2746.943,1.171,2746.943,1.171,732.273,732.277,177.210,53.872,0.011,12.902,-0.049,0.0000,-0.2414,0.0000,0.9392,0.5000,0.0000,0.0000
49.748,Upwind,2765.075,1.175,2765.075,1.175,743.052,743.056,177.221,53.914,0.011,12.904,-0.049,0.0000,-0.2411,0.0000,0.9391,0.5000,0.0000,0.0000
49.944,Upwind,2783.210,1.178,2783.210,1.178,752.940,752.943,177.230,53.951,0.010,12.905,-0.049,0.0000,-0.2409,0.0000,0.9390,0.5000,0.0000,0.0000
50.146,Upwind,2801.348,1.182,2801.348,1.182,763.734,763.737,177.240,53.990,0.010,12.906,-0.049,0.0000,-0.2406,0.0000,0.9388,0.5000,0.0000,0.0000
50.346,Upwind,2819.490,1.186,2819.490,1.186,774.535,774.539,177.248,54.026,0.010,12.907,-0.049,0.0000,-0.2404,0.0000,0.9387,0.5000,0.0000,0.0000
50.545,Upwind,2837.636,1.189,2837.636,1.189,785.344,785.348,177.256,54.061,0.009,12.908,-0.049,0.0000,-0.2402,0.0000,0.9386,0.5000,0.0000,0.0000
50.753,Upwind,2857.297,1.193,2857.297,1.193,797.061,797.065,177.264,54.097,0.009,12.909,-0.049,0.0000,-0.2399,0.0000,0.9385,0.5000,0.0000,0.0000
50.945,Upwind,2873.936,1.196,2873.936,1.196,806.982,806.985,177.269,54.126,0.009,12.910,-0.049,0.0000,-0.2397,0.0000,0.9384,0.5000,0.0000,0.0000
51.146,Upwind,2892.092,1.199,2892.092,1.199,818.712,818.716,177.275,54.159,0.008,12.911,-0.048,0.0000,-0.2395,0.0000,0.9383,0.5000,0.0000,0.0000
51.351,Upwind,2910.250,1.202,2910.250,1.202,829.547,829.551,177.280,54.188,0.008,12.912,-0.048,0.0000,-0.2394,0.0000,0.9383,0.5000,0.0000,0.0000
51.548,Upwind,2928.411,1.205,2928.411,1.205,840.388,840.392,177.285,54.216,0.008,12.912,-0.048,0.0000,-0.2392,0.0000,0.9382,0.5000,0.0000,0.0000
51.747,Upwind,2946.575,1.208,2946.575,1.208,850.329,850.333,177.288,54.240,0.008,12.913,-0.048,0.0000,-0.2391,0.0000,0.9381,0.5000,0.0000,0.0000
51.952,Upwind,2964.743,1.211,2964.743,1.211,862.084,862.088,177.291,54.267,0.007,12.914,-0.048,0.0000,-0.2389,0.0000,0.9381,0.5000,0.0000,0.0000
52.146,Upwind,2982.913,1.214,2982.913,1.214,872.940,872.944,177.294,54.291,0.007,12.915,-0.048,0.0000,-0.2388,0.0000,0.9381,0.5000,0.0000,0.0000
52.355,Upwind,3002.601,1.217,3002.601,1.217,883.800,883.805,177.296,54.314,0.007,12.915,-0.048,0.0000,-0.2386,0.0000,0.9380,0.5000,0.0000,0.0000
52.549,Upwind,3019.263,1.219,3019.263,1.219,894.665,894.669,177.298,54.335,0.006,12.916,-0.047,0.0000,-0.2385,0.0000,0.9380,0.5000,0.0000,0.0000
52.748,Upwind,3037.442,1.221,3037.442,1.221,905.534,905.539,177.299,54.356,0.006,12.916,-0.047,0.0000,-0.2384,0.0000,0.9380,0.5000,0.0000,0.0000
52.955,Upwind,3057.139,1.224,3057.139,1.224,916.407,916.412,177.300,54.376,0.006,12.917,-0.047,0.0000,-0.2383,0.0000,0.9380,0.5000,0.0000,0.0000
53.149,Upwind,3073.808,1.226,3073.808,1.226,927.284,927.289,177.300,54.395,0.005,12.917,-0.047,0.0000,-0.2382,0.0000,0.9380,0.5000,0.0000,0.0000
53.362,Upwind,3093.511,1.228,3093.511,1.228,937.258,937.263,177.300,54.411,0.005,12.918,-0.047,0.0000,-0.2381,0.0000,0.9380,0.5000,0.0000,0.0000
53.551,Upwind,3110.185,1.230,3110.185,1.230,948.142,948.147,177.300,54.428,0.005,12.918,-0.047,0.0000,-0.2380,0.0000,0.9380,0.5000,0.0000,0.0000
53.760,Upwind,3129.894,1.232,3129.894,1.232,959.937,959.941,177.299,54.446,0.004,12.918,-0.047,0.0000,-0.2379,0.0000,0.9380,0.5000,0.0000,0.0000
53.950,Upwind,3146.574,1.234,3146.574,1.234,969.920,969.924,177.298,54.460,0.004,12.919,-0.046,0.0000,-0.2379,0.0000,0.9380,0.5000,0.0000,0.0000
54.144,Upwind,3164.772,1.236,3164.772,1.236,980.813,980.818,177.297,54.475,0.004,12.919,-0.046,0.0000,-0.2378,0.0000,0.9380,0.5000,0.0000,0.0000
54.355,Upwind,3184.489,1.237,3184.489,1.237,992.618,992.623,177.295,54.491,0.004,12.919,-0.046,0.0000,-0.2377,0.0000,0.9380,0.5000,0.0000,0.0000
54.552,Upwind,3202.693,1.239,3202.693,1.239,1003.517,1003.522,177.293,54.504,0.003,12.920,-0.046,0.0000,-0.2377,0.0000,0.9381,0.5000,0.0000,0.0000
54.754,Upwind,3220.899,1.241,3220.899,1.241,1014.419,1014.424,177.291,54.517,0.003,12.920,-0.046,0.0000,-0.2376,0.0000,0.9381,0.5000,0.0000,0.0000
54.950,Upwind,3237.590,1.242,3237.590,1.242,1025.324,1025.329,177.288,54.529,0.003,12.920,-0.046,0.0000,-0.2376,0.0000,0.9381,0.5000,0.0000,0.0000
55.151,Upwind,3255.801,1.243,3255.801,1.243,1036.231,1036.236,177.286,54.541,0.003,12.920,-0.046,0.0000,-0.2375,0.0000,0.9382,0.5000,0.0000,0.0000
55.346,Upwind,3274.014,1.244,3274.014,1.244,1047.140,1047.145,177.283,54.552,0.002,12.920,-0.046,0.0000,-0.2375,0.0000,0.9382,0.5000,0.0000,0.0000
55.548,Upwind,3292.230,1.246,3292.230,1.246,1058.052,1058.057,177.279,54.563,0.002,12.921,-0.045,0.0000,-0.2375,0.0000,0.9383,0.5000,0.0000,0.0000
55.748,Upwind,3310.448,1.247,3310.448,1.247,1068.966,1068.971,177.276,54.573,0.002,12.921,-0.045,0.0000,-0.2374,0.0000,0.9383,0.5000,0.0000,0.0000
55.955,Upwind,3330.188,1.248,3330.188,1.248,1079.881,1079.886,177.272,54.583,0.001,12.921,-0.045,0.0000,-0.2374,0.0000,0.9384,0.5000,0.0000,0.0000
56.152,Upwind,3346.892,1.248,3346.892,1.248,1090.799,1090.804,177.269,54.592,0.001,12.921,-0.045,0.0000,-0.2374,0.0000,0.9384,0.5000,0.0000,0.0000
56.344,Upwind,3365.118,1.249,3365.118,1.249,1100.808,1100.813,177.265,54.601,0.001,12.921,-0.045,0.0000,-0.2374,0.0000,0.9385,0.5000,0.0000,0.0000
56.550,Upwind,3383.346,1.250,3383.346,1.250,1112.639,1112.644,177.260,54.610,0.001,12.921,-0.045,0.0000,-0.2374,0.0000,0.9385,0.5000,0.0000,0.0000
56.752,Upwind,3401.577,1.251,3401.577,1.251,1123.562,1123.567,177.256,54.618,0.000,12.921,-0.045,0.0000,-0.2373,0.0000,0.9386,0.5000,0.0000,0.0000
56.947,Upwind,3419.810,1.251,3419.810,1.251,1134.486,1134.492,177.252,54.626,0.000,12.921,-0.045,0.0000,-0.2373,0.0000,0.9386,0.5000,0.0000,0.0000
57.148,Upwind,3438.045,1.252,3438.045,1.252,1145.412,1145.417,177.247,54.633,360.000,12.921,-0.044,0.0000,-0.2373,0.0000,0.9387,0.5000,0.0000,0.0000
57.347,Upwind,3456.283,1.252,3456.283,1.252,1155.429,1155.434,177.243,54.639,360.000,12.921,-0.044,0.0000,-0.2373,0.0000,0.9388,0.5000,0.0000,0.0000
57.554,Upwind,3476.043,1.253,3476.043,1.253,1167.268,1167.273,177.237,54.647,360.000,12.921,-0.044,0.0000,-0.2373,0.0000,0.9388,0.5000,0.0000,0.0000
57.747,Upwind,3492.766,1.253,3492.766,1.253,1177.287,1177.293,177.233,54.653,359.999,12.921,-0.044,0.0000,-0.2373,0.0000,0.9389,0.5000,0.0000,0.0000
57.948,Upwind,3511.011,1.253,3511.011,1.253,1189.129,1189.135,177.227,54.659,359.999,12.921,-0.044,0.0000,-0.2373,0.0000,0.9390,0.5000,0.0000,0.0000
58.152,Upwind,3529.258,1.253,3529.258,1.253,1200.061,1200.067,177.222,54.665,359.999,12.921,-0.044,0.0000,-0.2373,0.0000,0.9391,0.5000,0.0000,0.0000
58.349,Upwind,3547.507,1.253,3547.507,1.253,1210.995,1211.001,177.217,54.671,359.999,12.921,-0.044,0.0000,-0.2373,0.0000,0.9391,0.5000,0.0000,0.0000
58.550,Upwind,3565.759,1.253,3565.759,1.253,1221.929,1221.935,177.211,54.676,359.998,12.921,-0.044,0.0000,-0.2373,0.0000,0.9392,0.5000,0.0000,0.0000
58.750,Upwind,3584.013,1.253,3584.013,1.253,1232.865,1232.871,177.206,54.681,359.998,12.921,-0.043,0.0000,-0.2373,0.0000,0.9393,0.5000,0.0000,0.0000
58.949,Upwind,3602.270,1.253,3602.270,1.253,1242.890,1242.896,177.200,54.686,359.998,12.921,-0.043,0.0000,-0.2374,0.0000,0.9394,0.5000,0.0000,0.0000
59.155,Upwind,3622.050,1.253,3622.050,1.253,1253.828,1253.834,177.195,54.690,359.998,12.921,-0.043,0.0000,-0.2374,0.0000,0.9394,0.5000,0.0000,0.0000
59.356,Upwind,3640.312,1.253,3640.312,1.253,1265.678,1265.684,177.188,54.695,359.998,12.921,-0.043,0.0000,-0.2374,0.0000,0.9395,0.5000,0.0000,0.0000
59.550,Upwind,3657.053,1.252,3657.053,1.252,1275.706,1275.712,177.183,54.699,359.997,12.921,-0.043,0.0000,-0.2374,0.0000,0.9396,0.5000,0.0000,0.0000
59.748,Upwind,3675.319,1.252,3675.319,1.252,1287.558,1287.564,177.176,54.704,359.997,12.921,-0.043,0.0000,-0.2374,0.0000,0.9397,0.5000,0.0000,0.0000
59.947,Upwind,3693.587,1.251,3693.587,1.251,1298.499,1298.505,177.170,54.708,359.997,12.921,-0.043,0.0000,-0.2374,0.0000,0.9398,0.5000,0.0000,0.0000
60.153,Upwind,3713.380,1.251,3713.380,1.251,1309.441,1309.447,177.164,54.712,359.997,12.921,-0.043,0.0000,-0.2374,0.0000,0.9399,0.5000,0.0000,0.0000
60.354,Upwind,3731.652,1.250,3731.652,1.250,1320.384,1320.390,177.158,54.716,359.996,12.921,-0.043,0.0000,-0.2374,0.0000,0.9399,0.5000,0.0000,0.0000
60.548,Upwind,3748.404,1.249,3748.404,1.249,1330.415,1330.421,177.152,54.719,359.996,12.921,-0.042,0.0000,-0.2374,0.0000,0.9400,0.5000,0.0000,0.0000
60.756,Upwind,3768.204,1.249,3768.204,1.249,1342.271,1342.278,177.146,54.723,359.996,12.921,-0.042,0.0000,-0.2375,0.0000,0.9401,0.5000,0.0000,0.0000
60.945,Upwind,3784.961,1.248,3784.961,1.248,1352.304,1352.310,177.140,54.726,359.996,12.921,-0.042,0.0000,-0.2375,0.0000,0.9402,0.5000,0.0000,0.0000
61.150,Upwind,3803.242,1.247,3803.242,1.247,1364.162,1364.168,177.133,54.729,359.996,12.920,-0.042,0.0000,-0.2376,0.0000,0.9403,0.5000,0.0000,0.0000
61.348,Upwind,3821.526,1.246,3821.526,1.246,1375.108,1375.114,177.126,54.732,359.995,12.920,-0.042,0.0000,-0.2376,0.0000,0.9404,0.5000,0.0000,0.0000
61.550,Upwind,3839.812,1.245,3839.812,1.245,1386.054,1386.061,177.120,54.735,359.995,12.920,-0.042,0.0000,-0.2376,0.0000,0.9405,0.5000,0.0000,0.0000
61.748,Upwind,3858.100,1.244,3858.100,1.244,1397.002,1397.008,177.113,54.738,359.995,12.920,-0.042,0.0000,-0.2376,0.0000,0.9406,0.5000,0.0000,0.0000
61.946,Upwind,3876.391,1.243,3876.391,1.243,1407.949,1407.956,177.107,54.740,359.995,12.920,-0.042,0.0000,-0.2377,0.0000,0.9407,0.5000,0.0000,0.0000
62.147,Upwind,3894.684,1.242,3894.684,1.242,1418.898,1418.904,177.100,54.743,359.995,12.920,-0.042,0.0000,-0.2377,0.0000,0.9408,0.5000,0.0000,0.0000
62.347,Upwind,3912.979,1.240,3912.979,1.240,1429.846,1429.853,177.094,54.745,359.995,12.920,-0.042,0.0000,-0.2377,0.0000,0.9408,0.5000,0.0000,0.0000
62.546,Upwind,3931.276,1.239,3931.276,1.239,1439.883,1439.890,177.087,54.747,359.994,12.920,-0.042,0.0000,-0.2377,0.0000,0.9409,0.5000,0.0000,0.0000
62.756,Upwind,3951.101,1.238,3951.101,1.238,1451.745,1451.752,177.080,54.750,359.994,12.919,-0.041,0.0000,-0.2378,0.0000,0.9410,0.5000,0.0000,0.0000
62.950,Upwind,3967.877,1.236,3967.877,1.236,1462.695,1462.702,177.073,54.752,359.994,12.919,-0.041,0.0000,-0.2378,0.0000,0.9411,0.5000,0.0000,0.0000
63.148,Upwind,3986.181,1.235,3986.181,1.235,1472.733,1472.741,177.067,54.754,359.994,12.919,-0.041,0.0001,-0.2378,0.0000,0.9412,0.5000,0.0000,0.0000
63.352,Upwind,4004.488,1.233,4004.488,1.233,1484.597,1484.604,177.060,54.756,359.994,12.919,-0.041,0.0001,-0.2379,0.0000,0.9413,0.5000,0.0000,0.0000
63.550,Upwind,4022.796,1.232,4022.796,1.232,1495.549,1495.556,177.053,54.758,359.993,12.919,-0.041,0.0000,-0.2379,0.0000,0.9414,0.5000,0.0000,0.0000
63.747,Upwind,4041.107,1.230,4041.107,1.230,1505.588,1505.595,177.047,54.760,359.993,12.919,-0.041,0.0000,-0.2379,0.0000,0.9415,0.5000,0.0000,0.0000
63.954,Upwind,4060.946,1.228,4060.946,1.228,1517.453,1517.460,177.039,54.762,359.993,12.918,-0.040,0.0000,-0.2380,0.0000,0.9416,0.5000,0.0000,0.0000
64.150,Upwind,4077.735,1.227,4077.735,1.227,1528.405,1528.412,177.032,54.764,359.993,12.918,-0.040,0.0000,-0.2380,0.0000,0.9417,0.5000,0.0000,0.0000
64.349,Upwind,4096.052,1.225,4096.052,1.225,1539.358,1539.365,177.025,54.766,359.993,12.918,-0.040,0.0000,-0.2380,0.0000,0.9418,0.5000,0.0000,0.0000
64.557,Upwind,4115.899,1.223,4115.899,1.223,1550.311,1550.319,177.018,54.767,359.993,12.918,-0.040,0.0001,-0.2381,0.0000,0.9419,0.5000,0.0000,0.0000
64.755,Upwind,4134.221,1.221,4134.221,1.221,1561.265,1561.272,177.011,54.769,359.993,12.918,-0.040,0.0000,-0.2381,0.0000,0.9420,0.5000,0.0000,0.0000
64.948,Upwind,4151.018,1.219,4151.018,1.219,1571.306,1571.313,177.005,54.770,359.992,12.918,-0.039,0.0000,-0.2381,0.0000,0.9421,0.5000,0.0000,0.0000
65.157,Upwind,4170.871,1.217,4170.871,1.217,1583.173,1583.181,176.997,54.772,359.992,12.918,-0.039,0.0000,-0.2382,0.0000,0.9422,0.5000,0.0000,0.0000
65.349,Upwind,4187.672,1.215,4187.672,1.215,1594.127,1594.135,176.990,54.773,359.992,12.917,-0.039,0.0000,-0.2382,0.0000,0.9423,0.5000,0.0000,0.0000
65.551,Upwind,4206.003,1.213,4206.003,1.213,1604.169,1604.177,176.984,54.775,359.992,12.917,-0.039,0.0000,-0.2383,0.0000,0.9424,0.5000,0.0000,0.0000
65.747,Upwind,4224.336,1.211,4224.336,1.211,1615.124,1615.132,176.976,54.776,359.992,12.917,-0.039,0.0000,-0.2383,0.0000,0.9425,0.5000,0.0000,0.0000
65.956,Upwind,4244.199,1.209,4244.199,1.209,1626.993,1627.000,176.969,54.778,359.992,12.917,-0.039,0.0000,-0.2383,0.0000,0.9426,0.5000,0.0000,0.0000
66.153,Upwind,4262.537,1.206,4262.537,1.206,1637.948,1637.956,176.962,54.779,359.992,12.917,-0.038,0.0000,-0.2384,0.0000,0.9427,0.5000,0.0000,0.0000
66.355,Upwind,4280.876,1.204,4280.876,1.204,1648.904,1648.912,176.954,54.780,359.992,12.916,-0.038,0.0000,-0.2384,0.0000,0.9428,0.5000,0.0000,0.0000
66.550,Upwind,4297.690,1.202,4297.690,1.202,1659.860,1659.868,176.947,54.781,359.991,12.916,-0.038,0.0000,-0.2385,0.0000,0.9429,0.5000,0.0000,0.0000
66.751,Upwind,4316.034,1.200,4316.034,1.200,1670.817,1670.825,176.940,54.783,359.991,12.916,-0.038,0.0000,-0.2385,0.0000,0.9430,0.5000,0.0000,0.0000
66.957,Upwind,4335.909,1.197,4335.909,1.197,1681.773,1681.781,176.933,54.784,359.991,12.916,-0.038,0.0000,-0.2385,0.0000,0.9431,0.5000,0.0000,0.0000
67.145,Upwind,4352.728,1.195,4352.728,1.195,1691.817,1691.825,176.926,54.785,359.991,12.916,-0.038,0.0000,-0.2386,0.0000,0.9432,0.5000,0.0000,0.0000
67.347,Upwind,4371.079,1.193,4371.079,1.193,1702.774,1702.782,176.919,54.786,359.991,12.916,-0.037,0.0000,-0.2386,0.0000,0.9433,0.5000,0.0000,0.0000
67.552,Upwind,4390.961,1.190,4390.961,1.190,1714.644,1714.653,176.911,54.787,359.991,12.915,-0.037,0.0000,-0.2386,0.0000,0.9434,0.5000,0.0000,0.0000
67.747,Upwind,4407.786,1.188,4407.786,1.188,1724.689,1724.697,176.905,54.788,359.991,12.915,-0.037,0.0000,-0.2387,0.0000,0.9435,0.5000,0.0000,0.0000
67.956,Upwind,4427.674,1.185,4427.674,1.185,1736.560,1736.568,176.897,54.789,359.991,12.915,-0.037,0.0000,-0.2387,0.0000,0.9436,0.5000,0.0000,0.0000
68.145,Upwind,4444.503,1.183,4444.503,1.183,1746.604,1746.613,176.890,54.790,359.991,12.915,-0.037,0.0000,-0.2388,0.0000,0.9437,0.5000,0.0000,0.0000
68.353,Upwind,4462.865,1.180,4462.865,1.180,1758.476,1758.484,176.882,54.791,359.991,12.915,-0.037,0.0000,-0.2388,0.0000,0.9438,0.5000,0.0000,0.0000
68.550,Upwind,4481.229,1.178,4481.229,1.178,1769.434,1769.442,176.875,54.792,359.990,12.914,-0.036,0.0001,-0.2389,0.0000,0.9439,0.5000,0.0000,0.0000
68.758,Upwind,4501.125,1.175,4501.125,1.175,1780.392,1780.401,176.868,54.793,359.990,12.914,-0.036,0.0000,-0.2389,0.0000,0.9440,0.5000,0.0000,0.0000
68.947,Upwind,4517.963,1.172,4517.963,1.172,1791.351,1791.360,176.860,54.794,359.990,12.914,-0.036,0.0000,-0.2389,0.0000,0.9441,0.5000,0.0000,0.0000
69.151,Upwind,4536.333,1.170,4536.333,1.170,1802.310,1802.319,176.853,54.795,359.990,12.914,-0.036,0.0000,-0.2390,0.0000,0.9442,0.5000,0.0000,0.0000
69.349,Upwind,4554.706,1.167,4554.706,1.167,1813.269,1813.278,176.846,54.796,359.990,12.914,-0.036,0.0000,-0.2390,0.0000,0.9443,0.5000,0.0000,0.0000
69.551,Upwind,4573.081,1.164,4573.081,1.164,1824.228,1824.237,176.838,54.797,359.990,12.914,-0.036,0.0001,-0.2391,0.0000,0.9444,0.5000,0.0000,0.0000
69.744,Upwind,4591.458,1.162,4591.458,1.162,1834.274,1834.283,176.832,54.797,359.990,12.913,-0.036,0.0000,-0.2391,0.0000,0.9445,0.5000,0.0000,0.0000
69.953,Upwind,4609.837,1.159,4609.837,1.159,1846.147,1846.156,176.824,54.798,359.990,12.913,-0.035,0.0001,-0.2391,0.0000,0.9446,0.5000,0.0000,0.0000
70.145,Upwind,4628.219,1.156,4628.219,1.156,1856.194,1856.202,176.817,54.799,359.990,12.913,-0.035,0.0000,-0.2392,0.0000,0.9447,0.5000,0.0000,0.0000
70.348,Upwind,4646.602,1.153,4646.602,1.153,1868.067,1868.076,176.809,54.800,359.990,12.913,-0.035,0.0000,-0.2392,0.0000,0.9448,0.5000,0.0000,0.0000
70.550,Upwind,4664.988,1.151,4664.988,1.151,1879.027,1879.036,176.802,54.801,359.990,12.913,-0.035,0.0001,-0.2393,0.0000,0.9449,0.5000,0.0000,0.0000
70.745,Upwind,4683.376,1.148,4683.376,1.148,1889.074,1889.083,176.795,54.801,359.990,12.912,-0.035,0.0000,-0.2393,0.0000,0.9450,0.5000,0.0000,0.0000
70.953,Upwind,4703.299,1.145,4703.299,1.145,1900.947,1900.956,176.787,54.802,359.990,12.912,-0.035,0.0000,-0.2394,0.0000,0.9451,0.5000,0.0000,0.0000
71.145,Upwind,4720.159,1.142,4720.159,1.142,1910.994,1911.004,176.780,54.803,359.990,12.912,-0.035,0.0000,-0.2394,0.0000,0.9452,0.5000,0.0000,0.0000
71.353,Upwind,4740.087,1.139,4740.087,1.139,1922.868,1922.878,176.772,54.804,359.990,12.912,-0.034,0.0001,-0.2395,0.0000,0.9453,0.5000,0.0000,0.0000
71.555,Upwind,4758.484,1.136,4758.484,1.136,1933.829,1933.838,176.765,54.804,359.990,12.912,-0.034,0.0000,-0.2395,0.0000,0.9454,0.5000,0.0000,0.0000
71.748,Upwind,4775.350,1.134,4775.350,1.134,1944.790,1944.799,176.757,54.805,359.990,12.911,-0.034,0.0000,-0.2395,0.0000,0.9455,0.5000,0.0000,0.0000
71.944,Upwind,4793.751,1.131,4793.751,1.131,1954.838,1954.847,176.751,54.806,359.990,12.911,-0.034,0.0000,-0.2396,0.0000,0.9456,0.5000,0.0000,0.0000
72.148,Upwind,4812.155,1.128,4812.155,1.128,1966.712,1966.722,176.742,54.806,359.989,12.911,-0.034,0.0000,-0.2396,0.0000,0.9457,0.5000,0.0000,0.0000
72.346,Upwind,4830.561,1.125,4830.561,1.125,1976.760,1976.770,176.736,54.807,359.989,12.911,-0.034,0.0000,-0.2397,0.0000,0.9458,0.5000,0.0000,0.0000
72.555,Upwind,4850.503,1.122,4850.503,1.122,1988.635,1988.644,176.728,54.808,359.989,12.911,-0.034,0.0001,-0.2397,0.0000,0.9459,0.5000,0.0000,0.0000
72.744,Upwind,4867.379,1.119,4867.379,1.119,1998.683,1998.693,176.721,54.808,359.989,12.910,-0.034,0.0000,-0.2398,0.0000,0.9460,0.5000,0.0000,0.0000
72.955,Crosswind,4887.322,1.116,4887.322,1.116,2010.566,2010.576,176.646,54.901,359.989,12.828,0.057,0.2800,0.2500,0.0001,0.8520,0.0000,0.0000,0.0000
73.148,Crosswind,4904.184,1.114,4904.184,1.114,2020.625,2020.635,176.418,54.776,359.985,12.485,0.424,0.2800,0.2500,0.0001,0.7556,0.0000,0.0000,0.0000
73.353,Crosswind,4924.079,1.115,4924.079,1.115,2032.437,2032.446,175.991,54.164,359.974,11.799,1.147,0.2800,0.2500,0.0000,0.7000,0.0000,0.0000,0.0000
73.547,Crosswind,4940.884,1.122,4940.884,1.122,2043.172,2043.182,175.584,53.113,359.957,10.958,2.025,0.2800,0.2500,-0.0003,0.7000,0.0000,0.0000,0.0000
73.754,Crosswind,4960.717,1.142,4960.717,1.142,2053.649,2053.659,175.216,51.571,359.931,9.978,3.057,0.2800,0.2500,-0.0006,0.7000,0.0000,0.0000,0.0000
73.956,Crosswind,4979.009,1.175,4979.009,1.175,2063.767,2063.777,174.893,49.530,359.895,8.905,4.202,0.2390,0.2500,-0.0009,0.7068,0.0000,0.0000,0.0000
74.153,Crosswind,4995.772,1.220,4995.772,1.220,2073.428,2073.438,174.626,46.996,359.851,7.782,5.395,0.1911,0.1415,-0.0013,0.7149,0.0000,0.0000,0.0000
74.358,Crosswind,5015.588,1.295,5015.588,1.295,2082.532,2082.542,174.428,43.970,359.804,6.691,6.565,0.1479,-0.0014,-0.0017,0.7219,0.0000,0.0000,0.0000
74.548,Crosswind,5032.367,1.376,5032.367,1.376,2090.990,2091.000,174.294,40.549,359.770,5.736,7.662,0.1095,-0.1187,-0.0020,0.7277,0.0000,0.0000,0.0000
74.752,Crosswind,5052.220,1.494,5052.220,1.494,2098.735,2098.745,174.213,36.880,359.762,4.987,8.652,0.0774,-0.2013,-0.0023,0.7325,0.0000,0.0000,0.0000
74.957,Crosswind,5070.570,1.627,5070.570,1.627,2105.736,2105.746,174.185,33.133,359.792,4.472,9.514,0.0520,-0.2484,-0.0026,0.7360,0.0000,0.0000,0.0000
75.144,Crosswind,5087.414,1.771,5087.414,1.771,2111.500,2111.511,174.205,29.770,359.858,4.201,10.185,0.0332,-0.2670,-0.0028,0.7382,0.0000,0.0000,0.0000
75.349,Crosswind,5105.816,1.954,5105.816,1.954,2117.103,2117.113,174.272,26.296,359.973,4.096,10.783,0.0179,-0.2646,-0.0030,0.7394,0.0000,0.0000,0.0000
75.556,Crosswind,5125.783,2.190,5125.783,2.190,2122.421,2122.431,174.393,22.857,0.145,4.150,11.277,0.0069,-0.2442,-0.0034,0.7395,0.0000,0.0000,0.0000
75.746,Crosswind,5142.705,2.423,5142.705,2.423,2126.368,2126.378,174.528,20.250,0.323,4.283,11.580,0.0016,-0.2664,-0.0037,0.7387,0.0000,0.0000,0.0000
75.953,Crosswind,5162.734,2.744,5162.734,2.744,2130.452,2130.462,174.708,17.507,0.567,4.507,11.816,-0.0008,-0.3239,-0.0041,0.7371,0.0000,0.0000,0.0000
76.148,Crosswind,5179.706,3.058,5179.706,3.058,2133.728,2133.738,174.886,15.305,0.826,4.778,11.935,-0.0006,-0.3566,-0.0045,0.7350,0.0000,0.0000,0.0000
76.349,Crosswind,5198.245,3.449,5198.245,3.449,2136.596,2136.606,175.071,13.433,1.116,5.103,11.977,0.0020,-0.3670,-0.0049,0.7326,0.0000,0.0000,0.0000
76.546,Crosswind,5216.808,3.896,5216.808,3.896,2138.924,2138.935,175.246,12.017,1.403,5.427,11.965,0.0056,-0.3211,-0.0053,0.7301,0.0000,0.0000,0.0000
76.750,Crosswind,5235.394,4.402,5235.394,4.402,2141.378,2141.389,175.455,10.695,1.755,5.785,11.907,0.0100,-0.2758,-0.0056,0.7269,0.0000,0.0000,0.0000
76.944,Crosswind,5254.002,4.971,5254.002,4.971,2143.256,2143.266,175.633,9.822,2.050,6.025,11.836,0.0139,-0.2506,-0.0058,0.7242,0.0000,0.0000,0.0000
77.154,Crosswind,5274.184,5.662,5274.184,5.662,2145.291,2145.302,175.844,8.993,2.387,6.204,11.740,0.0178,-0.2363,-0.0059,0.7209,0.0000,0.0000,0.0000
77.352,Crosswind,5291.279,6.308,5291.279,6.308,2147.024,2147.034,176.039,8.341,2.679,6.262,11.653,0.0209,-0.2374,-0.0060,0.7178,0.0000,0.0000,0.0000
77.559,Crosswind,5311.503,7.147,5311.503,7.147,2148.501,2148.511,176.221,7.776,2.930,6.231,11.581,0.0227,-0.2510,-0.0059,0.7150,0.0000,0.0000,0.0000
77.747,Crosswind,5328.634,7.919,5328.634,7.919,2149.993,2150.004,176.424,7.140,3.186,6.122,11.518,0.0241,-0.2717,-0.0058,0.7120,0.0000,0.0000,0.0000
77.949,Crosswind,5347.342,8.827,5347.342,8.827,2151.461,2151.471,176.650,6.393,3.445,5.948,11.470,0.0247,-0.2999,-0.0057,0.7086,0.0000,0.0000,0.0000
78.152,Crosswind,5366.070,9.803,5366.070,9.803,2152.665,2152.675,176.865,5.638,3.671,5.762,11.447,0.0243,-0.3269,-0.0055,0.7055,0.0000,0.0000,0.0000
78.348,Crosswind,5384.819,10.847,5384.819,10.847,2153.631,2153.641,177.069,4.893,3.871,5.592,11.441,0.0235,-0.3496,-0.0053,0.7026,0.0000,0.0000,0.0000
78.545,Crosswind,5403.589,11.957,5403.589,11.957,2154.524,2154.534,177.298,4.033,4.083,5.426,11.449,0.0223,-0.3703,-0.0051,0.7000,0.0000,0.0000,0.0000
78.750,Crosswind,5422.381,13.134,5422.381,13.134,2155.294,2155.304,177.557,3.068,4.310,5.282,11.471,0.0208,-0.3872,-0.0049,0.7000,0.0000,0.0000,0.0000
78.953,Crosswind,5442.764,14.485,5442.764,14.485,2155.818,2155.828,177.807,2.174,4.520,5.188,11.498,0.0194,-0.3965,-0.0048,0.7000,0.0000,0.0000,0.0000
79.145,Crosswind,5460.032,15.690,5460.032,15.690,2156.143,2156.153,178.046,1.373,4.712,5.133,11.525,0.0183,-0.4011,-0.0047,0.7000,0.0000,0.0000,0.0000
79.350,Crosswind,5478.893,17.070,5478.893,17.070,2156.341,2156.351,178.337,0.467,4.941,5.103,11.556,0.0173,-0.4027,-0.0046,0.7000,0.0000,0.0000,0.0000
79.545,Crosswind,5497.778,18.518,5497.778,18.518,2156.360,2156.370,178.592,-0.251,5.137,5.099,11.578,0.0168,-0.4016,-0.0045,0.7000,0.0000,0.0000,0.0000
79.749,Crosswind,5516.687,20.035,5516.687,20.035,2156.219,2156.229,178.900,-1.038,5.369,5.109,11.597,0.0165,-0.3993,-0.0045,0.7000,0.0000,0.0000,0.0000
79.949,Crosswind,5535.621,21.623,5535.621,21.623,2155.972,2155.982,179.168,-1.651,5.566,5.122,11.606,0.0166,-0.3975,-0.0045,0.7000,0.0000,0.0000,0.0000
80.152,Crosswind,5556.161,23.423,5556.161,23.423,2155.541,2155.551,179.490,-2.318,5.799,5.134,11.608,0.0170,-0.3964,-0.0046,0.7000,0.0000,0.0000,0.0000
80.348,Crosswind,5573.565,25.011,5573.565,25.011,2155.020,2155.030,179.793,-2.887,6.015,5.137,11.602,0.0177,-0.3969,-0.0046,0.7000,0.0000,0.0000,0.0000
80.545,Crosswind,5592.574,26.813,5592.574,26.813,2154.445,2154.455,180.077,-3.379,6.214,5.130,11.591,0.0185,-0.3989,-0.0047,0.7000,0.0000,0.0000,0.0000
80.748,Crosswind,5611.610,28.688,5611.610,28.688,2153.652,2153.663,180.418,-3.934,6.449,5.111,11.573,0.0194,-0.4026,-0.0047,0.7000,0.0000,0.0000,0.0000
80.955,Crosswind,5632.261,30.800,5632.261,30.800,2152.816,2152.826,180.739,-4.430,6.667,5.082,11.553,0.0203,-0.4074,-0.0048,0.7000,0.0000,0.0000,0.0000
81.146,Crosswind,5649.759,32.654,5649.759,32.654,2151.963,2151.973,181.038,-4.876,6.868,5.050,11.534,0.0211,-0.4123,-0.0048,0.7000,0.0000,0.0000,0.0000
81.347,Crosswind,5668.873,34.746,5668.873,34.746,2150.850,2150.860,181.399,-5.397,7.107,5.008,11.513,0.0218,-0.4184,-0.0049,0.7000,0.0000,0.0000,0.0000
81.548,Crosswind,5688.014,36.912,5688.014,36.912,2149.722,2149.733,181.738,-5.874,7.329,4.969,11.496,0.0223,-0.4238,-0.0049,0.7000,0.0000,0.0000,0.0000
81.758,Crosswind,5708.781,39.340,5708.781,39.340,2148.500,2148.511,182.084,-6.347,7.552,4.931,11.481,0.0226,-0.4287,-0.0049,0.7000,0.0000,0.0000,0.0000
81.949,Crosswind,5726.379,41.462,5726.379,41.462,2147.297,2147.308,182.405,-6.774,7.758,4.901,11.472,0.0228,-0.4326,-0.0049,0.7000,0.0000,0.0000,0.0000
82.154,Crosswind,5747.206,44.050,5747.206,44.050,2145.776,2145.787,182.791,-7.261,8.001,4.870,11.466,0.0227,-0.4364,-0.0049,0.7000,0.0000,0.0000,0.0000
82.351,Crosswind,5764.854,46.307,5764.854,46.307,2144.281,2144.291,183.152,-7.691,8.226,4.846,11.464,0.0226,-0.4392,-0.0049,0.7000,0.0000,0.0000,0.0000
82.545,Crosswind,5784.134,48.842,5784.134,48.842,2142.836,2142.846,183.487,-8.068,8.432,4.829,11.466,0.0223,-0.4412,-0.0049,0.7000,0.0000,0.0000,0.0000
82.748,Crosswind,5803.442,51.451,5803.442,51.451,2141.042,2141.052,183.888,-8.493,8.675,4.813,11.471,0.0219,-0.4431,-0.0048,0.7000,0.0000,0.0000,0.0000
82.955,Crosswind,5824.391,54.363,5824.391,54.363,2139.306,2139.316,184.262,-8.864,8.898,4.802,11.478,0.0215,-0.4445,-0.0048,0.7000,0.0000,0.0000,0.0000
83.154,Crosswind,5843.758,57.130,5843.758,57.130,2137.497,2137.508,184.640,-9.215,9.120,4.792,11.487,0.0211,-0.4458,-0.0048,0.7000,0.0000,0.0000,0.0000
83.345,Crosswind,5861.536,59.734,5861.536,59.734,2135.780,2135.790,184.990,-9.521,9.322,4.783,11.495,0.0208,-0.4470,-0.0047,0.7000,0.0000,0.0000,0.0000
83.549,Crosswind,5880.958,62.648,5880.958,62.648,2133.679,2133.690,185.407,-9.865,9.560,4.773,11.505,0.0204,-0.4485,-0.0047,0.7000,0.0000,0.0000,0.0000
83.754,Crosswind,5902.031,65.893,5902.031,65.893,2131.676,2131.686,185.795,-10.167,9.778,4.764,11.513,0.0202,-0.4499,-0.0047,0.7000,0.0000,0.0000,0.0000
83.957,Crosswind,5921.512,68.968,5921.512,68.968,2129.613,2129.623,186.187,-10.457,9.996,4.754,11.519,0.0200,-0.4513,-0.0047,0.7000,0.0000,0.0000,0.0000
84.147,Crosswind,5939.396,71.856,5939.396,71.856,2127.494,2127.504,186.582,-10.736,10.213,4.743,11.525,0.0198,-0.4529,-0.0047,0.7000,0.0000,0.0000,0.0000
84.348,Crosswind,5958.932,75.081,5958.932,75.081,2125.503,2125.513,186.947,-10.984,10.411,4.733,11.528,0.0198,-0.4543,-0.0047,0.7000,0.0000,0.0000,0.0000
84.546,Crosswind,5978.497,78.385,5978.497,78.385,2123.092,2123.102,187.382,-11.267,10.645,4.721,11.531,0.0197,-0.4559,-0.0047,0.7000,0.0000,0.0000,0.0000
84.747,Crosswind,5998.090,81.768,5998.090,81.768,2121.005,2121.015,187.753,-11.499,10.844,4.712,11.532,0.0198,-0.4572,-0.0047,0.7000,0.0000,0.0000,0.0000
84.955,Crosswind,6019.349,85.522,6019.349,85.522,2118.484,2118.495,188.194,-11.766,11.078,4.701,11.532,0.0198,-0.4586,-0.0046,0.7000,0.0000,0.0000,0.0000
85.150,Crosswind,6037.364,88.771,6037.364,88.771,2116.107,2116.117,188.605,-12.005,11.294,4.692,11.531,0.0199,-0.4598,-0.0046,0.7000,0.0000,0.0000,0.0000
85.349,Crosswind,6057.043,92.392,6057.043,92.392,2113.683,2113.693,189.018,-12.238,11.511,4.684,11.530,0.0199,-0.4608,-0.0046,0.7000,0.0000,0.0000,0.0000
