time_s,leg,north_m,east_m,along_m,cross_m,agl_ft,altitude_ft,speed_kts,vertical_speed_fps,heading_deg,pitch_deg,roll_deg,aileron_cmd,elevator_cmd,rudder_cmd,throttle_cmd,flaps_cmd,gear_cmd,brake_cmd
1.848,Upwind,0.596,0.000,0.596,0.000,3.691,3.691,2.511,0.001,0.000,0.450,0.000,0.0000,0.0201,0.0000,0.0000,0.5000,1.0000,1.0000
2.041,Upwind,0.736,0.000,0.736,0.000,3.693,3.693,0.564,0.046,0.000,0.359,0.000,0.0000,0.0339,0.0000,0.0000,0.5000,1.0000,1.0000
2.243,Upwind,0.738,0.000,0.738,0.000,3.707,3.707,0.025,0.030,0.000,0.325,0.000,0.0000,0.0593,0.0000,0.0000,0.5000,1.0000,1.0000
2.437,Upwind,0.736,0.000,0.736,0.000,3.694,3.694,0.073,-0.122,0.000,0.458,0.000,0.0000,0.0715,0.0000,0.0000,0.5000,1.0000,1.0000
2.641,Upwind,0.735,0.000,0.735,0.000,3.679,3.679,0.008,-0.004,0.000,0.488,0.000,0.0000,0.0658,0.0000,0.0213,0.5000,1.0000,0.0000
2.837,Upwind,0.736,0.000,0.736,0.000,3.685,3.685,0.026,0.042,0.000,0.452,0.000,0.0000,0.0603,0.0000,0.1190,0.5000,1.0000,0.0000
3.029,Upwind,0.737,0.000,0.737,0.000,3.691,3.691,0.011,0.019,0.000,0.438,0.000,0.0000,0.0620,0.0000,0.2151,0.5000,1.0000,0.0000
3.239,Upwind,0.737,0.000,0.737,0.000,3.692,3.692,0.006,-0.009,0.000,0.447,0.000,0.0000,0.0633,0.0000,0.3201,0.5000,1.0000,0.0000
3.438,Upwind,0.737,0.000,0.737,0.000,3.690,3.690,0.010,-0.004,0.000,0.452,0.000,0.0000,0.0632,0.0000,0.4196,0.5000,1.0000,0.0000
3.636,Upwind,0.739,0.000,0.739,0.000,3.690,3.690,0.025,0.003,0.000,0.450,0.000,0.0000,0.0628,0.0000,0.5188,0.5000,1.0000,0.0000
3.827,Upwind,0.743,0.000,0.743,0.000,3.691,3.691,0.050,0.002,0.000,0.448,0.000,0.0000,0.0627,0.0000,0.6143,0.5000,1.0000,0.0000
4.025,Upwind,0.750,0.000,0.750,0.000,3.691,3.691,0.088,0.000,0.000,0.449,0.000,0.0000,0.0629,0.0000,0.7132,0.5000,1.0000,0.0000
4.231,Upwind,0.763,0.000,0.763,0.000,3.691,3.691,0.141,-0.001,0.000,0.449,0.000,0.0000,0.0629,0.0000,0.8159,0.5000,1.0000,0.0000
4.425,Upwind,0.779,0.000,0.779,0.000,3.691,3.691,0.211,0.000,0.000,0.449,0.000,0.0000,0.0629,0.0000,0.9133,0.5000,1.0000,0.0000
4.636,Upwind,0.808,0.000,0.808,0.000,3.691,3.691,0.302,0.000,0.000,0.449,0.000,0.0000,0.0629,0.0000,1.0000,0.5000,1.0000,0.0000
4.828,Upwind,0.846,0.000,0.846,0.000,3.691,3.691,0.416,0.000,0.000,0.449,0.000,0.0000,0.0629,0.0000,1.0000,0.5000,1.0000,0.0000
5.027,Upwind,0.892,0.000,0.892,0.000,3.691,3.691,0.560,0.000,0.000,0.450,0.000,0.0000,0.0630,0.0000,1.0000,0.5000,1.0000,0.0000
5.229,Upwind,0.965,0.000,0.965,0.000,3.691,3.691,0.736,0.000,0.000,0.450,0.000,0.0000,0.0630,0.0000,1.0000,0.5000,1.0000,0.0000
5.437,Upwind,1.053,0.000,1.053,0.000,3.691,3.691,0.951,0.000,0.000,0.450,0.000,0.0000,0.0630,0.0000,1.0000,0.5000,1.0000,0.0000
5.636,Upwind,1.166,0.000,1.166,0.000,3.691,3.691,1.212,0.000,0.000,0.450,0.000,0.0000,0.0630,0.0000,1.0000,0.5000,1.0000,0.0000
5.831,Upwind,1.309,0.000,1.309,0.000,3.691,3.691,1.524,0.000,0.000,0.450,0.000,0.0000,0.0631,0.0000,1.0000,0.5000,1.0000,0.0000
6.032,Upwind,1.488,0.000,1.488,0.000,3.691,3.691,1.896,0.000,0.000,0.451,0.000,0.0000,0.0631,0.0000,1.0000,0.5000,1.0000,0.0000
6.232,Upwind,1.709,0.000,1.709,0.000,3.691,3.691,2.335,0.000,0.000,0.451,0.000,0.0000,0.0632,0.0000,1.0000,0.5000,1.0000,0.0000
6.424,Upwind,1.954,0.000,1.954,0.000,3.691,3.691,2.849,0.000,0.000,0.451,0.000,0.0000,0.0632,0.0000,1.0000,0.5000,1.0000,0.0000
6.628,Upwind,2.278,0.000,2.278,0.000,3.691,3.691,3.447,0.000,0.000,0.452,0.000,0.0000,0.0633,0.0000,1.0000,0.5000,1.0000,0.0000
6.834,Upwind,2.703,0.000,2.703,0.000,3.691,3.691,4.137,0.000,0.000,0.452,0.000,0.0000,0.0634,0.0000,1.0000,0.5000,1.0000,0.0000
7.032,Upwind,3.175,0.000,3.175,0.000,3.691,3.691,4.927,0.000,0.000,0.453,0.000,0.0000,0.0634,0.0000,1.0000,0.5000,1.0000,0.0000
7.235,Upwind,3.735,0.000,3.735,0.000,3.691,3.691,5.822,0.000,0.000,0.453,0.000,0.0000,0.0635,0.0000,1.0000,0.5000,1.0000,0.0000
7.426,Upwind,4.334,0.000,4.334,0.000,3.691,3.691,6.742,0.000,0.000,0.454,0.000,0.0000,0.0636,0.0000,1.0000,0.5000,1.0000,0.0000
7.634,Upwind,5.163,0.000,5.163,0.000,3.691,3.691,7.959,0.000,0.000,0.454,0.000,0.0000,0.0636,0.0000,1.0000,0.5000,1.0000,0.0000
7.826,Upwind,5.976,0.000,5.976,0.000,3.691,3.691,9.209,0.001,0.000,0.455,0.000,0.0000,0.0637,0.0000,1.0000,0.5000,1.0000,0.0000
8.024,Upwind,6.990,0.000,6.990,0.000,3.691,3.691,10.494,0.001,0.000,0.455,0.000,0.0000,0.0637,0.0000,1.0000,0.5000,1.0000,0.0000
8.227,Upwind,8.136,0.000,8.136,0.000,3.691,3.691,11.778,0.001,0.000,0.455,0.000,0.0000,0.0636,0.0000,1.0000,0.5000,1.0000,0.0000
8.432,Upwind,9.526,0.000,9.526,0.000,3.692,3.692,13.061,0.001,0.000,0.454,0.000,0.0000,0.0636,0.0000,1.0000,0.5000,1.0000,0.0000
8.636,Upwind,10.947,0.000,10.947,0.000,3.692,3.692,14.344,0.001,0.000,0.454,0.000,0.0000,0.0635,0.0000,1.0000,0.5000,1.0000,0.0000
8.828,Upwind,12.500,0.000,12.500,0.000,3.692,3.692,15.625,0.001,0.000,0.454,0.000,0.0000,0.0635,0.0000,1.0000,0.5000,1.0000,0.0000
9.035,Upwind,14.184,0.000,14.184,0.000,3.692,3.692,16.905,0.002,0.000,0.453,0.000,0.0000,0.0634,0.0000,1.0000,0.5000,1.0000,0.0000
9.229,Upwind,16.001,0.000,16.001,0.000,3.693,3.693,18.184,0.002,0.000,0.453,0.000,0.0000,0.0633,0.0000,1.0000,0.5000,1.0000,0.0000
9.433,Upwind,17.948,0.000,17.948,0.000,3.693,3.693,19.462,0.002,0.000,0.452,0.000,0.0000,0.0633,0.0000,1.0000,0.5000,1.0000,0.0000
9.632,Upwind,20.027,0.000,20.027,0.000,3.693,3.693,20.738,0.002,0.000,0.452,0.000,0.0000,0.0632,0.0000,1.0000,0.5000,1.0000,0.0000
9.830,Upwind,22.238,0.000,22.238,0.000,3.694,3.694,22.014,0.002,0.000,0.451,0.000,0.0000,0.0631,0.0000,1.0000,0.5000,1.0000,0.0000
10.037,Upwind,24.579,0.000,24.579,0.000,3.694,3.694,23.288,0.002,0.000,0.451,0.000,0.0000,0.0630,0.0000,1.0000,0.5000,1.0000,0.0000
10.229,Upwind,27.052,0.000,27.052,0.000,3.695,3.695,24.561,0.002,0.000,0.450,0.000,0.0000,0.0629,0.0000,1.0000,0.5000,1.0000,0.0000
10.431,Upwind,29.656,0.000,29.656,0.000,3.695,3.695,25.833,0.003,0.000,0.449,0.000,0.0000,0.0629,0.0000,1.0000,0.5000,1.0000,0.0000
10.629,Upwind,32.390,0.000,32.390,0.000,3.696,3.696,27.103,0.003,0.000,0.449,0.000,0.0000,0.0627,0.0000,1.0000,0.5000,1.0000,0.0000
10.828,Upwind,35.011,0.000,35.011,0.000,3.696,3.696,28.372,0.003,0.000,0.448,0.000,0.0000,0.0626,0.0000,1.0000,0.5000,1.0000,0.0000
11.036,Upwind,38.250,0.000,38.250,0.000,3.697,3.697,29.640,0.003,0.000,0.447,0.000,0.0000,0.0625,0.0000,1.0000,0.5000,1.0000,0.0000
11.231,Upwind,41.376,0.000,41.376,0.000,3.698,3.698,30.907,0.004,0.000,0.446,0.000,0.0000,0.0624,0.0000,1.0000,0.5000,1.0000,0.0000
11.429,Upwind,44.632,0.000,44.632,0.000,3.698,3.698,32.172,0.004,0.000,0.445,0.000,0.0000,0.0622,0.0000,1.0000,0.5000,1.0000,0.0000
11.634,Upwind,48.018,0.001,48.018,0.001,3.699,3.699,33.435,0.004,0.000,0.444,0.000,0.0000,0.0621,0.0000,1.0000,0.5000,1.0000,0.0000
11.831,Upwind,51.534,0.001,51.534,0.001,3.700,3.700,34.697,0.004,0.000,0.443,0.000,0.0000,0.0620,0.0000,1.0000,0.5000,1.0000,0.0000
12.031,Upwind,55.180,0.001,55.180,0.001,3.701,3.701,35.958,0.004,0.000,0.442,0.000,0.0000,0.0618,0.0000,1.0000,0.5000,1.0000,0.0000
12.224,Upwind,58.636,0.001,58.636,0.001,3.702,3.702,37.217,0.005,0.000,0.441,0.000,0.0000,0.0616,0.0000,1.0000,0.5000,1.0000,0.0000
12.432,Upwind,62.860,0.001,62.860,0.001,3.703,3.703,38.474,0.005,0.000,0.440,0.000,0.0000,0.0614,0.0000,1.0000,0.5000,1.0000,0.0000
12.630,Upwind,66.894,0.001,66.894,0.001,3.703,3.704,39.730,0.005,0.000,0.438,0.000,0.0000,0.0613,0.0000,1.0000,0.5000,1.0000,0.0000
12.835,Upwind,71.058,0.001,71.058,0.001,3.705,3.705,40.984,0.005,0.000,0.437,0.000,0.0000,0.0611,0.0000,1.0000,0.5000,1.0000,0.0000
13.039,Upwind,75.350,0.001,75.350,0.001,3.706,3.706,42.237,0.006,0.000,0.436,0.000,0.0000,0.0608,0.0000,1.0000,0.5000,1.0000,0.0000
13.230,Upwind,79.771,0.001,79.771,0.001,3.707,3.707,43.487,0.006,0.000,0.434,0.000,0.0000,0.0606,0.0000,1.0000,0.5000,1.0000,0.0000
13.433,Upwind,84.320,0.001,84.320,0.001,3.708,3.708,44.736,0.006,0.000,0.433,0.000,0.0000,0.0604,0.0000,1.0000,0.5000,1.0000,0.0000
13.628,Upwind,88.998,0.002,88.998,0.002,3.709,3.709,45.984,0.006,0.000,0.431,0.000,0.0000,0.0602,0.0000,1.0000,0.5000,1.0000,0.0000
13.832,Upwind,93.804,0.002,93.804,0.002,3.710,3.711,47.229,0.007,0.000,0.429,0.000,0.0000,0.0599,0.0000,1.0000,0.5000,1.0000,0.0000
14.024,Upwind,98.322,0.002,98.322,0.002,3.712,3.712,48.369,0.007,0.000,0.428,0.000,0.0000,0.0597,0.0000,1.0000,0.5000,1.0000,0.0000
14.238,Upwind,103.800,0.002,103.800,0.002,3.713,3.713,49.714,0.008,0.000,0.426,0.000,0.0000,0.0594,0.0000,1.0000,0.5000,1.0000,0.0000
14.426,Upwind,108.553,0.002,108.553,0.002,3.715,3.715,50.953,0.008,0.001,0.423,0.000,0.0000,0.0591,0.0000,1.0000,0.5000,1.0000,0.0000
14.630,Upwind,114.307,0.002,114.307,0.002,3.717,3.717,52.190,0.009,0.001,0.421,0.000,0.0000,0.0588,0.0000,1.0000,0.5000,1.0000,0.0000
14.830,Upwind,119.751,0.003,119.751,0.003,3.719,3.719,53.425,0.009,0.001,0.419,0.000,0.0000,0.0584,0.0000,1.0000,0.5000,1.0000,0.0000
15.032,Upwind,125.322,0.003,125.322,0.003,3.720,3.720,54.658,0.010,0.001,0.417,0.000,0.0000,0.0581,0.0000,1.0000,0.5000,1.0000,0.0000
15.233,Upwind,131.020,0.003,131.020,0.003,3.722,3.722,55.888,0.010,0.001,0.414,0.000,0.0000,0.0577,0.0000,1.0000,0.5000,1.0000,0.0000
15.430,Upwind,136.844,0.003,136.844,0.003,3.724,3.724,57.117,0.010,0.001,0.412,0.000,0.0000,0.0574,0.0000,1.0000,0.5000,1.0000,0.0000
15.626,Upwind,142.294,0.004,142.294,0.004,3.726,3.726,58.342,0.011,0.001,0.409,0.000,0.0000,0.0570,0.0000,1.0000,0.5000,1.0000,0.0000
15.836,Upwind,148.871,0.004,148.871,0.004,3.729,3.729,59.566,0.011,0.001,0.406,0.000,0.0000,0.0566,0.0000,1.0000,0.5000,1.0000,0.0000
16.029,Upwind,155.074,0.004,155.074,0.004,3.731,3.731,60.787,0.010,0.001,0.403,0.000,0.0000,0.0562,0.0000,1.0000,0.5000,1.0000,0.0000
16.227,Upwind,160.869,0.004,160.869,0.004,3.732,3.732,62.005,0.009,0.001,0.401,0.000,-0.0001,0.0559,0.0000,1.0000,0.5000,1.0000,0.0000
16.430,Upwind,167.854,0.005,167.854,0.005,3.734,3.734,63.222,0.008,0.001,0.399,0.000,-0.0001,0.0556,0.0000,1.0000,0.5000,1.0000,0.0000
16.623,Upwind,173.879,0.005,173.879,0.005,3.736,3.736,64.335,0.009,0.001,0.397,0.000,-0.0001,0.0553,0.0000,1.0000,0.5000,1.0000,0.0000
16.826,Upwind,180.572,0.006,180.572,0.006,3.737,3.737,65.548,0.009,0.001,0.395,0.000,-0.0001,0.0550,0.0000,1.0000,0.5000,1.0000,0.0000
17.025,Upwind,187.389,0.006,187.389,0.006,3.739,3.739,66.758,0.009,0.002,0.392,0.000,-0.0001,0.0547,0.0000,1.0000,0.5000,1.0000,0.0000
17.236,Upwind,194.915,0.006,194.915,0.006,3.741,3.741,68.067,0.009,0.002,0.390,0.000,-0.0001,0.0543,0.0000,1.0000,0.5000,1.0000,0.0000
17.425,Upwind,201.396,0.007,201.396,0.007,3.743,3.743,69.273,0.009,0.002,0.387,0.000,-0.0001,0.0540,0.0000,1.0000,0.5000,1.0000,0.0000
17.632,Upwind,209.191,0.007,209.191,0.007,3.745,3.745,70.476,0.009,0.002,0.385,0.000,-0.0001,0.0537,0.0000,1.0000,0.5000,1.0000,0.0000
17.823,Upwind,215.899,0.008,215.899,0.008,3.746,3.746,71.577,0.010,0.002,0.383,0.000,-0.0001,0.0534,0.0000,1.0000,0.5000,1.0000,0.0000
18.030,Upwind,223.961,0.008,223.961,0.008,3.749,3.749,72.876,0.010,0.002,0.380,0.000,-0.0001,0.0530,0.0000,1.0000,0.5000,1.0000,0.0000
18.227,Upwind,230.896,0.009,230.896,0.009,3.750,3.750,74.072,0.010,0.002,0.378,0.000,-0.0001,0.0526,0.0000,1.0000,0.5000,1.0000,0.0000
18.433,Upwind,239.225,0.010,239.225,0.010,3.752,3.752,75.267,0.010,0.003,0.375,0.000,-0.0001,0.0523,0.0000,1.0000,0.5000,1.0000,0.0000
18.633,Upwind,247.041,0.010,247.041,0.010,3.754,3.754,76.458,0.010,0.003,0.373,0.000,-0.0001,0.0519,0.0000,1.0000,0.5000,1.0000,0.0000
18.823,Upwind,254.313,0.011,254.313,0.011,3.756,3.756,77.549,0.010,0.003,0.370,0.000,-0.0001,0.0516,0.0000,1.0000,0.5000,1.0000,0.0000
19.033,Upwind,263.040,0.012,263.040,0.012,3.758,3.758,78.835,0.010,0.003,0.367,0.000,-0.0001,0.0512,0.0000,1.0000,0.5000,1.0000,0.0000
19.227,Upwind,270.536,0.012,270.536,0.012,3.760,3.760,80.019,0.010,0.003,0.365,0.000,-0.0001,0.0508,0.0000,1.0000,0.5000,1.0000,0.0000
19.424,Upwind,278.831,0.013,278.831,0.013,3.763,3.763,81.201,0.011,0.003,0.362,0.000,-0.0001,0.0504,0.0000,1.0000,0.5000,1.0000,0.0000
19.632,Upwind,287.953,0.014,287.953,0.014,3.765,3.765,82.381,0.011,0.004,0.359,0.000,-0.0001,0.0500,0.0000,1.0000,0.5000,1.0000,0.0000
19.830,Upwind,296.500,0.015,296.500,0.015,3.767,3.767,83.558,0.011,0.004,0.357,0.000,-0.0001,0.0497,0.0000,1.0000,0.5000,1.0000,0.0000
20.030,Upwind,305.169,0.016,305.169,0.016,3.769,3.769,84.733,0.011,0.004,0.354,0.000,-0.0002,0.0493,0.0000,1.0000,0.5000,1.0000,0.0000
20.232,Upwind,313.957,0.017,313.957,0.017,3.771,3.771,85.905,0.011,0.004,0.351,0.000,-0.0002,0.0489,0.0000,1.0000,0.5000,1.0000,0.0000
20.432,Upwind,322.867,0.018,322.867,0.018,3.773,3.773,87.075,0.011,0.004,0.348,0.000,-0.0002,0.0485,0.0000,1.0000,0.5000,1.0000,0.0000
20.625,Upwind,331.139,0.019,331.139,0.019,3.776,3.776,88.242,0.011,0.005,0.345,0.000,-0.0002,0.0481,0.0000,1.0000,0.5000,1.0000,0.0000
20.830,Upwind,341.046,0.020,341.046,0.020,3.778,3.778,89.406,0.011,0.005,0.343,0.000,-0.0002,0.0477,0.0000,1.0000,0.5000,1.0000,0.0000
21.026,Upwind,349.538,0.021,349.538,0.021,3.780,3.780,90.568,0.012,0.005,0.340,0.000,-0.0002,0.0473,0.0000,1.0000,0.5000,1.0000,0.0000
21.226,Upwind,358.916,0.023,358.916,0.023,3.782,3.782,91.631,0.012,0.005,0.337,0.000,-0.0002,0.0469,0.0000,1.0000,0.5000,1.0000,0.0000
21.425,Upwind,368.414,0.024,368.414,0.024,3.785,3.785,92.787,0.012,0.006,0.334,0.000,-0.0002,0.0465,0.0000,1.0000,0.5000,1.0000,0.0000
21.628,Upwind,378.837,0.025,378.837,0.025,3.787,3.787,93.942,0.012,0.006,0.331,0.000,-0.0002,0.0460,0.0000,1.0000,0.5000,1.0000,0.0000
21.831,Upwind,388.582,0.027,388.582,0.027,3.789,3.789,95.189,0.012,0.006,0.328,0.000,-0.0002,0.0456,0.0000,1.0000,0.5000,1.0000,0.0000
22.023,Upwind,397.619,0.028,397.619,0.028,3.792,3.792,96.242,0.012,0.007,0.325,0.000,-0.0002,0.0452,0.0000,1.0000,0.5000,1.0000,0.0000
22.236,Upwind,408.427,0.030,408.427,0.030,3.794,3.794,97.483,0.012,0.007,0.322,0.000,-0.0003,0.0447,0.0000,1.0000,0.5000,1.0000,0.0000
22.429,Upwind,418.526,0.032,418.526,0.032,3.797,3.797,98.627,0.012,0.007,0.319,0.000,-0.0003,0.0443,0.0000,1.0000,0.5000,1.0000,0.0000
22.626,Upwind,427.887,0.033,427.887,0.033,3.799,3.799,99.767,0.012,0.008,0.315,0.000,-0.0003,0.0439,0.0000,1.0000,0.5000,1.0000,0.0000
22.825,Upwind,438.211,0.035,438.211,0.035,3.802,3.802,100.905,0.012,0.008,0.312,0.000,-0.0003,0.0434,0.0000,1.0000,0.5000,1.0000,0.0000
23.029,Upwind,449.527,0.037,449.527,0.037,3.804,3.804,102.040,0.013,0.008,0.309,0.000,-0.0003,0.0430,0.0000,1.0000,0.5000,1.0000,0.0000
23.224,Upwind,459.209,0.039,459.209,0.039,3.806,3.806,103.078,0.013,0.009,0.306,0.000,-0.0003,0.0426,0.0000,1.0000,0.5000,1.0000,0.0000
23.424,Upwind,469.883,0.041,469.883,0.041,3.809,3.809,104.207,0.013,0.009,0.303,0.000,-0.0003,0.0421,0.0000,1.0000,0.5000,1.0000,0.0000
23.632,Upwind,481.577,0.044,481.577,0.044,3.812,3.812,105.428,0.013,0.009,0.300,0.000,-0.0003,0.0416,0.0000,1.0000,0.5000,1.0000,0.0000
23.838,Upwind,492.493,0.046,492.493,0.046,3.814,3.814,106.552,0.013,0.010,0.296,0.000,-0.0004,0.0412,0.0000,1.0000,0.5000,1.0000,0.0000
24.031,Upwind,503.523,0.048,503.523,0.048,3.817,3.817,107.673,0.013,0.010,0.293,0.000,-0.0004,0.0407,0.0000,1.0000,0.5000,1.0000,0.0000
24.224,Upwind,513.736,0.051,513.736,0.051,3.819,3.819,108.791,0.013,0.010,0.290,0.000,-0.0004,0.0402,0.0000,1.0000,0.5000,1.0000,0.0000
24.431,Upwind,525.930,0.053,525.930,0.053,3.822,3.822,109.906,0.013,0.011,0.286,0.000,-0.0004,0.0398,0.0000,1.0000,0.5000,1.0000,0.0000
24.635,Upwind,537.306,0.056,537.306,0.056,3.825,3.825,111.018,0.013,0.011,0.283,0.000,-0.0004,0.0393,0.0000,1.0000,0.5000,1.0000,0.0000
24.833,Upwind,548.795,0.059,548.795,0.059,3.827,3.827,112.128,0.013,0.012,0.280,0.000,-0.0004,0.0388,0.0000,1.0000,0.5000,1.0000,0.0000
25.032,Upwind,560.399,0.062,560.399,0.062,3.830,3.830,113.234,0.014,0.012,0.276,0.000,-0.0005,0.0384,0.0000,1.0000,0.5000,1.0000,0.0000
25.225,Upwind,571.136,0.065,571.136,0.065,3.832,3.832,114.246,0.014,0.013,0.273,0.000,-0.0005,0.0379,0.0000,1.0000,0.5000,1.0000,0.0000
25.425,Upwind,582.957,0.068,582.957,0.068,3.835,3.835,115.439,0.014,0.013,0.270,0.000,-0.0005,0.0374,0.0000,1.0000,0.5000,1.0000,0.0000
25.629,Upwind,595.891,0.071,595.891,0.071,3.838,3.838,116.537,0.014,0.014,0.266,0.000,-0.0005,0.0369,0.0000,1.0000,0.5000,1.0000,0.0000
25.832,Upwind,607.948,0.075,607.948,0.075,3.841,3.841,117.631,0.014,0.014,0.263,0.000,-0.0005,0.0364,0.0000,1.0000,0.5000,1.0000,0.0000
26.024,Upwind,619.099,0.078,619.099,0.078,3.843,3.843,118.632,0.014,0.014,0.260,0.000,-0.0005,0.0360,0.0000,1.0000,0.5000,1.0000,0.0000
26.230,Upwind,632.398,0.082,632.398,0.082,3.846,3.846,119.812,0.014,0.015,0.256,0.000,-0.0006,0.0355,0.0000,1.0000,0.5000,1.0000,0.0000
26.437,Upwind,644.791,0.086,644.791,0.086,3.849,3.849,120.898,0.014,0.015,0.252,0.000,-0.0006,0.0350,0.0000,1.0000,0.5000,1.0000,0.0000
26.631,Upwind,657.296,0.090,657.296,0.090,3.852,3.852,121.981,0.014,0.016,0.249,0.000,-0.0006,0.0345,0.0000,1.0000,0.5000,1.0000,0.0000
26.828,Upwind,668.856,0.094,668.856,0.094,3.855,3.855,123.061,0.014,0.016,0.245,0.000,-0.0006,0.0340,0.0000,1.0000,0.5000,1.0000,0.0000
27.025,Upwind,681.574,0.098,681.574,0.098,3.858,3.858,124.138,0.014,0.017,0.242,0.000,-0.0006,0.0335,0.0000,1.0000,0.5000,1.0000,0.0000
27.227,Upwind,694.402,0.102,694.402,0.102,3.860,3.860,125.211,0.014,0.017,0.238,0.000,-0.0007,0.0330,0.0000,1.0000,0.5000,1.0000,0.0000
27.430,Upwind,708.424,0.107,708.424,0.107,3.863,3.863,126.282,0.014,0.018,0.235,0.000,-0.0007,0.0325,0.0000,1.0000,0.5000,1.0000,0.0000
27.629,Upwind,721.482,0.112,721.482,0.112,3.866,3.866,127.350,0.014,0.019,0.231,0.000,-0.0007,0.0320,0.0000,1.0000,0.5000,1.0000,0.0000
27.826,Upwind,733.548,0.117,733.548,0.117,3.869,3.869,128.414,0.015,0.019,0.227,0.000,-0.0007,0.0315,0.0000,1.0000,0.5000,1.0000,0.0000
28.034,Upwind,747.926,0.122,747.926,0.122,3.872,3.872,129.476,0.015,0.020,0.224,0.000,-0.0007,0.0310,0.0000,1.0000,0.5000,1.0000,0.0000
28.233,Upwind,761.312,0.127,761.312,0.127,3.875,3.875,130.534,0.015,0.020,0.220,0.000,-0.0008,0.0305,0.0000,1.0000,0.5000,1.0000,0.0000
28.431,Upwind,774.806,0.133,774.806,0.133,3.878,3.878,131.590,0.015,0.021,0.217,0.000,-0.0008,0.0300,0.0000,1.0000,0.5000,1.0000,0.0000
28.629,Upwind,788.409,0.138,788.409,0.138,3.881,3.881,132.642,0.015,0.021,0.213,0.000,-0.0008,0.0294,0.0000,1.0000,0.5000,1.0000,0.0000
28.829,Upwind,802.120,0.144,802.120,0.144,3.884,3.884,133.692,0.015,0.022,0.209,0.000,-0.0008,0.0289,0.0000,1.0000,0.5000,1.0000,0.0000
29.025,Upwind,814.784,0.150,814.784,0.150,3.887,3.887,134.738,0.015,0.022,0.206,-0.001,-0.0009,0.0284,0.0000,1.0000,0.5000,1.0000,0.0000
29.226,Upwind,828.701,0.156,828.701,0.156,3.890,3.890,135.783,0.015,0.023,0.202,-0.001,-0.0009,0.0279,0.0000,1.0000,0.5000,1.0000,0.0000
29.435,Upwind,843.900,0.163,843.900,0.163,3.893,3.893,136.824,0.015,0.024,0.198,-0.001,-0.0009,0.0274,0.0000,1.0000,0.5000,1.0000,0.0000
29.630,Upwind,858.040,0.169,858.040,0.169,3.896,3.896,137.863,0.015,0.024,0.195,-0.001,-0.0009,0.0269,0.0000,1.0000,0.5000,1.0000,0.0000
29.831,Upwind,872.288,0.176,872.288,0.176,3.899,3.899,138.900,0.015,0.025,0.191,-0.001,-0.0010,0.0263,0.0000,1.0000,0.5000,1.0000,0.0000
30.034,Upwind,886.642,0.183,886.642,0.183,3.902,3.902,139.934,0.015,0.025,0.187,-0.001,-0.0010,0.0258,0.0000,1.0000,0.5000,1.0000,0.0000
30.227,Upwind,899.893,0.189,899.893,0.189,3.904,3.904,140.879,0.015,0.026,0.184,-0.001,-0.0010,0.0253,0.0000,1.0000,0.5000,1.0000,0.0000
30.428,Upwind,915.668,0.197,915.668,0.197,3.908,3.908,141.993,0.015,0.027,0.180,-0.001,-0.0011,0.0248,0.0000,1.0000,0.5000,1.0000,0.0000
30.626,Upwind,929.113,0.204,929.113,0.204,3.911,3.911,143.018,0.015,0.027,0.176,-0.001,-0.0011,0.0242,0.0000,1.0000,0.5000,1.0000,0.0000
30.828,Upwind,945.117,0.213,945.117,0.213,3.914,3.914,144.041,0.015,0.028,0.172,-0.001,-0.0011,0.0237,0.0000,1.0000,0.5000,1.0000,0.0000
31.032,Upwind,959.999,0.221,959.999,0.221,3.917,3.917,145.061,0.015,0.029,0.168,-0.001,-0.0011,0.0232,0.0000,1.0000,0.5000,1.0000,0.0000
31.229,Upwind,974.987,0.229,974.987,0.229,3.920,3.920,146.079,0.016,0.029,0.165,-0.001,-0.0012,0.0227,0.0000,1.0000,0.5000,1.0000,0.0000
31.426,Upwind,988.816,0.237,988.816,0.237,3.923,3.923,147.094,0.016,0.030,0.161,-0.001,-0.0012,0.0221,0.0000,1.0000,0.5000,1.0000,0.0000
31.631,Upwind,1005.274,0.246,1005.274,0.246,3.926,3.926,148.106,0.016,0.031,0.157,-0.001,-0.0012,0.0216,0.0000,1.0000,0.5000,1.0000,0.0000
31.831,Upwind,1020.574,0.255,1020.574,0.255,3.929,3.929,149.115,0.016,0.031,0.153,-0.001,-0.0013,0.0211,0.0000,1.0000,0.5000,1.0000,0.0000
32.027,Upwind,1034.689,0.263,1034.689,0.263,3.932,3.932,150.121,0.016,0.032,0.149,-0.001,-0.0013,0.0000,0.0000,1.0000,0.5000,1.0000,0.0000
32.226,Upwind,1050.188,0.273,1050.188,0.273,3.934,3.934,151.123,0.000,0.032,0.154,-0.001,-0.0013,-0.1594,0.0000,1.0000,0.5000,1.0000,0.0000
32.428,Upwind,1067.093,0.283,1067.093,0.283,3.931,3.931,152.113,-0.027,0.033,0.184,-0.001,-0.0013,-0.3209,0.0000,1.0000,0.5000,1.0000,0.0000
32.636,Upwind,1082.803,0.293,1082.803,0.293,3.926,3.926,153.091,-0.022,0.034,0.224,-0.001,-0.0014,-0.4871,0.0000,1.0000,0.5000,1.0000,0.0000
32.828,Upwind,1097.292,0.302,1097.292,0.302,3.926,3.926,154.055,0.031,0.035,0.287,-0.001,-0.0014,-0.6405,0.0000,1.0000,0.5000,1.0000,0.0000
33.037,Upwind,1114.522,0.313,1114.522,0.313,3.938,3.938,155.009,0.089,0.035,0.448,-0.001,-0.0015,-0.6500,0.0000,1.0000,0.5000,1.0000,0.0000
33.234,Upwind,1130.529,0.324,1130.529,0.324,3.962,3.962,155.958,0.147,0.036,0.724,-0.001,-0.0015,-0.6500,0.0000,1.0000,0.5000,1.0000,0.0000
33.427,Upwind,1145.287,0.334,1145.287,0.334,3.996,3.996,156.899,0.196,0.037,1.107,-0.002,-0.0015,-0.6500,0.0000,1.0000,0.5000,1.0000,0.0000
33.633,Upwind,1162.832,0.346,1162.832,0.346,4.040,4.040,157.834,0.241,0.038,1.590,-0.002,-0.0016,-0.6500,0.0000,1.0000,0.5000,1.0000,0.0000
33.830,Upwind,1179.128,0.357,1179.128,0.357,4.092,4.092,158.759,0.282,0.039,2.166,-0.002,-0.0016,-0.6500,0.0000,1.0000,0.5000,1.0000,0.0000
34.031,Upwind,1195.519,0.369,1195.519,0.369,4.152,4.152,159.673,0.319,0.040,2.828,-0.002,-0.0016,-0.6500,0.0000,1.0000,0.5000,1.0000,0.0000
34.233,Upwind,1212.002,0.381,1212.002,0.381,4.219,4.219,160.575,0.351,0.041,3.568,-0.002,-0.0017,-0.6500,0.0000,1.0000,0.5000,1.0000,0.0000
34.426,Upwind,1227.193,0.393,1227.193,0.393,4.289,4.289,161.388,0.452,0.041,4.306,-0.002,-0.0016,-0.6500,0.0000,1.0000,0.5000,1.0000,0.0000
34.631,Upwind,1245.243,0.406,1245.243,0.406,4.444,4.444,162.321,1.073,0.042,5.223,-0.004,-0.0015,-0.6500,0.0000,1.0000,0.5000,1.0000,0.0000
34.834,Upwind,1261.995,0.419,1261.995,0.419,4.757,4.757,163.148,2.127,0.043,6.079,-0.008,-0.0013,-0.6500,0.0000,1.0000,0.5000,1.0000,0.0000
35.034,Upwind,1278.829,0.432,1278.829,0.432,5.321,5.321,163.936,3.581,0.044,6.916,-0.012,-0.0012,-0.6500,0.0000,1.0000,0.5000,1.0000,0.0000
35.237,Upwind,1295.740,0.446,1295.740,0.446,6.211,6.211,164.681,5.360,0.044,7.714,-0.017,-0.0010,-0.6500,0.0000,1.0000,0.5000,1.0000,0.0000
35.426,Upwind,1311.305,0.458,1311.305,0.458,7.481,7.482,165.381,7.381,0.044,8.464,-0.021,-0.0008,-0.6500,0.0000,1.0000,0.5000,1.0000,0.0000
35.633,Upwind,1329.772,0.473,1329.772,0.473,9.174,9.174,166.032,9.563,0.045,9.159,-0.026,-0.0007,-0.6500,0.0000,1.0000,0.5000,1.0000,0.0000
35.828,Upwind,1345.453,0.486,1345.453,0.486,11.313,11.314,166.635,11.850,0.045,9.802,-0.030,-0.0006,-0.6500,0.0000,1.0000,0.5000,1.0000,0.0000
36.032,Upwind,1364.044,0.501,1364.044,0.501,13.919,13.919,167.189,14.219,0.045,10.394,-0.034,-0.0005,-0.6500,0.0000,1.0000,0.5000,1.0000,0.0000
36.229,Upwind,1381.254,0.515,1381.254,0.515,17.004,17.004,167.695,16.627,0.044,10.942,-0.038,-0.0004,-0.6224,0.0000,1.0000,0.5000,1.0000,0.0000
36.423,Upwind,1397.067,0.528,1397.067,0.528,20.572,20.572,168.160,19.062,0.044,11.440,-0.041,-0.0003,-0.5196,0.0000,1.0000,0.5000,1.0000,0.0000
36.625,Upwind,1414.352,0.541,1414.352,0.541,24.271,24.271,168.554,21.281,0.043,11.812,-0.043,-0.0002,-0.4490,0.0000,1.0000,0.5000,1.0000,0.0000
36.824,Upwind,1431.670,0.555,1431.670,0.555,29.159,29.159,168.983,23.818,0.042,12.115,-0.045,-0.0002,-0.3950,0.0000,1.0000,0.5000,1.0000,0.0000
37.027,Upwind,1449.017,0.569,1449.017,0.569,34.144,34.144,169.350,26.003,0.042,12.260,-0.046,-0.0001,-0.3749,0.0000,1.0000,0.5000,1.0000,0.0000
37.226,Upwind,1466.390,0.582,1466.390,0.582,39.547,39.548,169.694,27.996,0.041,12.294,-0.048,-0.0001,-0.3766,0.0000,1.0000,0.5000,1.0000,0.0000
37.429,Upwind,1485.239,0.596,1485.239,0.596,45.327,45.328,170.021,29.766,0.040,12.250,-0.048,-0.0001,-0.3920,0.0000,1.0000,0.5000,1.0000,0.0000
37.627,Upwind,1501.210,0.609,1501.210,0.609,51.439,51.439,170.333,31.312,0.040,12.168,-0.049,-0.0001,-0.4117,0.0000,1.0000,0.5000,1.0000,0.0000
37.826,Upwind,1518.656,0.622,1518.656,0.622,57.838,57.838,170.633,32.645,0.039,12.082,-0.050,-0.0001,-0.4292,0.0000,1.0000,0.5000,1.0000,0.0000
38.028,Upwind,1536.126,0.635,1536.126,0.635,64.485,64.485,170.924,33.800,0.038,12.022,-0.050,0.0000,-0.4391,0.0000,1.0000,0.5000,1.0000,0.0000
38.236,Upwind,1555.077,0.648,1555.077,0.648,71.349,71.350,171.206,34.826,0.038,12.003,-0.050,0.0000,-0.4385,0.0000,1.0000,0.5000,1.0000,0.0000
38.433,Upwind,1572.596,0.661,1572.596,0.661,78.409,78.410,171.480,35.764,0.037,12.030,-0.051,0.0000,-0.4284,0.0000,1.0000,0.5000,1.0000,0.0000
38.625,Upwind,1588.674,0.673,1588.674,0.673,85.651,85.651,171.746,36.648,0.036,12.096,-0.051,0.0000,-0.4108,0.0000,1.0000,0.5000,1.0000,0.0000
38.835,Upwind,1607.701,0.686,1607.701,0.686,93.067,93.068,172.003,37.512,0.036,12.190,-0.051,0.0000,-0.3883,0.0000,1.0000,0.5000,1.0000,0.0000
39.033,Upwind,1625.285,0.698,1625.285,0.698,100.655,100.655,172.251,38.363,0.035,12.295,-0.052,0.0000,-0.3648,0.0000,1.0000,0.5000,1.0000,0.0000
39.228,Upwind,1642.890,0.710,1642.890,0.710,107.759,107.760,172.471,39.141,0.035,12.390,-0.052,0.0000,-0.3449,0.0000,1.0000,0.5000,1.0000,0.0000
39.424,Upwind,1659.045,0.721,1659.045,0.721,115.672,115.673,172.701,39.985,0.035,12.480,-0.052,0.0000,-0.3271,0.0000,1.0000,0.5000,1.0000,0.0000
39.624,Upwind,1676.687,0.733,1676.687,0.733,123.752,123.753,172.923,40.812,0.034,12.548,-0.052,0.0000,-0.3143,0.0000,0.9992,0.5000,1.0000,0.0000
39.831,Upwind,1695.818,0.746,1695.818,0.746,132.689,132.689,173.150,41.671,0.034,12.595,-0.052,0.0000,-0.3063,0.0000,0.9960,0.5000,1.0000,0.0000
40.029,Upwind,1713.494,0.757,1713.494,0.757,141.098,141.099,173.344,42.417,0.034,12.616,-0.052,0.0000,-0.3032,0.0000,0.9933,0.5000,1.0000,0.0000
40.225,Upwind,1729.711,0.768,1729.711,0.768,149.652,149.652,173.525,43.108,0.033,12.622,-0.053,0.0000,-0.3032,0.0000,0.9908,0.5000,1.0000,0.0000
40.427,Upwind,1747.416,0.779,1747.416,0.779,158.337,158.338,173.696,43.743,0.033,12.619,-0.052,0.0000,-0.3043,0.0000,0.9884,0.5000,0.0000,0.0000
40.625,Upwind,1765.136,0.790,1765.136,0.790,167.145,167.146,173.859,44.323,0.033,12.614,-0.052,0.0000,-0.3054,0.0000,0.9861,0.5000,0.0000,0.0000
40.833,Upwind,1784.347,0.802,1784.347,0.802,176.063,176.064,174.014,44.854,0.033,12.611,-0.052,0.0000,-0.3055,0.0000,0.9840,0.5000,0.0000,0.0000
41.028,Upwind,1800.615,0.812,1800.615,0.812,185.084,185.085,174.162,45.344,0.032,12.615,-0.052,-0.0001,-0.3040,0.0000,0.9819,0.5000,0.0000,0.0000
41.233,Upwind,1819.854,0.823,1819.854,0.823,193.436,193.437,174.292,45.764,0.032,12.625,-0.052,-0.0001,-0.3011,0.0000,0.9801,0.5000,0.0000,0.0000
41.432,Upwind,1837.627,0.834,1837.627,0.834,203.402,203.403,174.439,46.232,0.032,12.644,-0.052,-0.0001,-0.2964,0.0000,0.9780,0.5000,0.0000,0.0000
41.624,Upwind,1853.930,0.843,1853.930,0.843,212.690,212.691,174.569,46.643,0.031,12.666,-0.052,-0.0001,-0.2912,0.0000,0.9762,0.5000,0.0000,0.0000
41.830,Upwind,1873.209,0.854,1873.209,0.854,222.058,222.060,174.692,47.038,0.031,12.690,-0.052,-0.0001,-0.2858,0.0000,0.9744,0.5000,0.0000,0.0000
42.029,Upwind,1891.017,0.864,1891.017,0.864,231.504,231.505,174.811,47.418,0.030,12.714,-0.052,-0.0001,-0.2808,0.0000,0.9728,0.5000,0.0000,0.0000
42.226,Upwind,1907.350,0.874,1907.350,0.874,241.024,241.026,174.924,47.783,0.030,12.735,-0.052,0.0000,-0.2765,0.0000,0.9712,0.5000,0.0000,0.0000
42.425,Upwind,1925.179,0.883,1925.179,0.883,250.616,250.617,175.033,48.132,0.029,12.752,-0.053,0.0000,-0.2731,0.0000,0.9697,0.5000,0.0000,0.0000
42.627,Upwind,1943.018,0.893,1943.018,0.893,260.276,260.277,175.138,48.465,0.029,12.765,-0.053,0.0000,-0.2708,0.0000,0.9682,0.5000,0.0000,0.0000
42.827,Upwind,1960.867,0.903,1960.867,0.903,270.001,270.002,175.239,48.778,0.028,12.773,-0.053,0.0000,-0.2693,0.0000,0.9668,0.5000,0.0000,0.0000
43.030,Upwind,1980.214,0.913,1980.214,0.913,279.786,279.787,175.336,49.073,0.028,12.778,-0.053,-0.0001,-0.2684,0.0000,0.9654,0.5000,0.0000,0.0000
43.248,Upwind,1999.573,0.923,1999.573,0.923,289.629,289.630,175.430,49.348,0.028,12.781,-0.053,-0.0001,-0.2679,0.0000,0.9641,0.5000,0.0000,0.0000
43.433,Upwind,2015.962,0.932,2015.962,0.932,299.524,299.526,175.521,49.605,0.027,12.784,-0.053,0.0000,-0.2674,0.0000,0.9628,0.5000,0.0000,0.0000
43.625,Upwind,2032.359,0.940,2032.359,0.940,308.639,308.640,175.602,49.826,0.027,12.786,-0.053,0.0000,-0.2669,0.0000,0.9617,0.5000,0.0000,0.0000
43.825,Upwind,2050.256,0.949,2050.256,0.949,318.627,318.629,175.688,50.053,0.026,12.789,-0.053,0.0000,-0.2661,0.0000,0.9605,0.5000,0.0000,0.0000
44.024,Upwind,2068.162,0.958,2068.162,0.958,328.659,328.661,175.772,50.267,0.026,12.793,-0.053,-0.0001,-0.2651,0.0000,0.9593,0.5000,0.0000,0.0000
44.225,Upwind,2086.077,0.966,2086.077,0.966,338.733,338.735,175.854,50.469,0.025,12.798,-0.053,0.0000,-0.2639,0.0000,0.9582,0.5000,0.0000,0.0000
44.429,Upwind,2105.495,0.975,2105.495,0.975,349.691,349.692,175.940,50.678,0.025,12.805,-0.053,-0.0001,-0.2624,0.0000,0.9570,0.5000,0.0000,0.0000
44.636,Upwind,2123.429,0.984,2123.429,0.984,359.845,359.846,176.017,50.862,0.025,12.811,-0.053,0.0000,-0.2611,0.0000,0.9559,0.5000,0.0000,0.0000
44.831,Upwind,2141.371,0.992,2141.371,0.992,370.035,370.037,176.093,51.038,0.024,12.816,-0.053,0.0000,-0.2599,0.0000,0.9548,0.5000,0.0000,0.0000
45.025,Upwind,2157.826,0.999,2157.826,0.999,379.406,379.408,176.161,51.193,0.024,12.821,-0.053,0.0000,-0.2589,0.0000,0.9539,0.5000,0.0000,0.0000
45.225,Upwind,2175.786,1.007,2175.786,1.007,390.517,390.519,176.240,51.368,0.023,12.826,-0.053,0.0000,-0.2580,0.0000,0.9528,0.5000,0.0000,0.0000
45.426,Upwind,2193.754,1.015,2193.754,1.015,400.806,400.808,176.311,51.522,0.023,12.829,-0.053,-0.0001,-0.2574,0.0000,0.9518,0.5000,0.0000,0.0000
45.631,Upwind,2213.228,1.024,2213.228,1.024,411.125,411.127,176.378,51.668,0.023,12.832,-0.053,-0.0001,-0.2568,0.0000,0.9509,0.5000,0.0000,0.0000
45.828,Upwind,2229.714,1.031,2229.714,1.031,421.473,421.475,176.441,51.807,0.022,12.834,-0.053,0.0000,-0.2562,0.0000,0.9500,0.5000,0.0000,0.0000
46.026,Upwind,2247.706,1.038,2247.706,1.038,431.847,431.849,176.501,51.939,0.022,12.837,-0.053,0.0000,-0.2556,0.0000,0.9491,0.5000,0.0000,0.0000
46.234,Upwind,2267.206,1.046,2267.206,1.046,442.247,442.250,176.557,52.064,0.021,12.841,-0.052,0.0000,-0.2547,0.0000,0.9483,0.5000,0.0000,0.0000
46.425,Upwind,2283.713,1.053,2283.713,1.053,452.672,452.675,176.611,52.184,0.021,12.845,-0.052,0.0000,-0.2538,0.0000,0.9476,0.5000,0.0000,0.0000
46.624,Upwind,2301.727,1.060,2301.727,1.060,462.249,462.251,176.657,52.290,0.021,12.849,-0.052,0.0000,-0.2529,0.0000,0.9469,0.5000,0.0000,0.0000
46.826,Upwind,2319.747,1.067,2319.747,1.067,473.592,473.594,176.709,52.410,0.020,12.854,-0.052,0.0000,-0.2518,0.0000,0.9462,0.5000,0.0000,0.0000
47.030,Upwind,2339.277,1.074,2339.277,1.074,484.084,484.087,176.754,52.517,0.020,12.858,-0.052,0.0000,-0.2508,0.0000,0.9456,0.5000,0.0000,0.0000
47.226,Upwind,2355.807,1.080,2355.807,1.080,494.598,494.600,176.796,52.620,0.019,12.863,-0.052,0.0000,-0.2498,0.0000,0.9450,0.5000,0.0000,0.0000
47.433,Upwind,2375.350,1.087,2375.350,1.087,505.132,505.134,176.836,52.719,0.019,12.867,-0.052,0.0000,-0.2490,0.0000,0.9444,0.5000,0.0000,0.0000
47.629,Upwind,2393.396,1.094,2393.396,1.094,515.685,515.688,176.873,52.814,0.019,12.870,-0.052,0.0000,-0.2482,0.0000,0.9439,0.5000,0.0000,0.0000
47.825,Upwind,2409.942,1.099,2409.942,1.099,526.257,526.260,176.908,52.904,0.018,12.873,-0.052,0.0000,-0.2476,0.0000,0.9434,0.5000,0.0000,0.0000
48.029,Upwind,2429.503,1.106,2429.503,1.106,536.847,536.849,176.941,52.991,0.018,12.876,-0.052,0.0000,-0.2471,0.0000,0.9430,0.5000,0.0000,0.0000
48.235,Upwind,2447.565,1.112,2447.565,1.112,547.453,547.456,176.973,53.074,0.017,12.878,-0.052,-0.0001,-0.2466,0.0000,0.9425,0.5000,0.0000,0.0000
48.429,Upwind,2465.632,1.118,2465.632,1.118,558.076,558.079,177.002,53.152,0.017,12.881,-0.052,0.0000,-0.2461,0.0000,0.9421,0.5000,0.0000,0.0000
48.628,Upwind,2482.198,1.123,2482.198,1.123,568.714,568.717,177.029,53.227,0.017,12.883,-0.052,0.0000,-0.2456,0.0000,0.9417,0.5000,0.0000,0.0000
48.825,Upwind,2500.274,1.129,2500.274,1.129,579.366,579.369,177.055,53.299,0.016,12.885,-0.052,0.0000,-0.2452,0.0000,0.9414,0.5000,0.0000,0.0000
49.033,Upwind,2519.862,1.135,2519.862,1.135,590.033,590.036,177.079,53.367,0.016,12.887,-0.052,0.0000,-0.2447,0.0000,0.9410,0.5000,0.0000,0.0000
49.224,Upwind,2536.441,1.140,2536.441,1.140,599.822,599.825,177.099,53.426,0.015,12.889,-0.051,0.0000,-0.2443,0.0000,0.9407,0.5000,0.0000,0.0000
49.428,Upwind,2554.531,1.145,2554.531,1.145,611.405,611.408,177.122,53.493,0.015,12.891,-0.051,0.0000,-0.2438,0.0000,0.9404,0.5000,0.0000,0.0000
49.635,Upwind,2574.134,1.151,2574.134,1.151,622.110,622.113,177.142,53.553,0.015,12.893,-0.051,-0.0001,-0.2434,0.0000,0.9402,0.5000,0.0000,0.0000
49.826,Upwind,2590.724,1.156,2590.724,1.156,632.826,632.829,177.160,53.609,0.014,12.895,-0.051,0.0000,-0.2429,0.0000,0.9399,0.5000,0.0000,0.0000
50.024,Upwind,2608.827,1.161,2608.827,1.161,643.553,643.556,177.177,53.664,0.014,12.897,-0.051,0.0000,-0.2425,0.0000,0.9397,0.5000,0.0000,0.0000
50.228,Upwind,2626.934,1.165,2626.934,1.165,654.291,654.294,177.192,53.715,0.013,12.899,-0.051,0.0000,-0.2421,0.0000,0.9394,0.5000,0.0000,0.0000
50.433,Upwind,2646.554,1.170,2646.554,1.170,665.039,665.042,177.207,53.765,0.013,12.900,-0.051,0.0000,-0.2418,0.0000,0.9392,0.5000,0.0000,0.0000
50.628,Upwind,2663.159,1.175,2663.159,1.175,675.797,675.800,177.220,53.812,0.013,12.902,-0.051,0.0000,-0.2415,0.0000,0.9390,0.5000,0.0000,0.0000
50.829,Upwind,2682.787,1.179,2682.787,1.179,686.564,686.567,177.233,53.857,0.012,12.903,-0.051,0.0000,-0.2412,0.0000,0.9389,0.5000,0.0000,0.0000
51.035,Upwind,2700.909,1.184,2700.909,1.184,697.340,697.343,177.244,53.900,0.012,12.904,-0.050,0.0000,-0.2409,0.0000,0.9387,0.5000,0.0000,0.0000
51.234,Upwind,2719.035,1.188,2719.035,1.188,708.124,708.127,177.255,53.941,0.012,12.906,-0.050,-0.0001,-0.2407,0.0000,0.9386,0.5000,0.0000,0.0000
51.436,Upwind,2737.164,1.192,2737.164,1.192,718.916,718.919,177.264,53.980,0.011,12.907,-0.050,0.0000,-0.2404,0.0000,0.9384,0.5000,0.0000,0.0000
51.634,Upwind,2755.297,1.196,2755.297,1.196,729.716,729.719,177.273,54.017,0.011,12.908,-0.050,0.0000,-0.2402,0.0000,0.9383,0.5000,0.0000,0.0000
51.835,Upwind,2773.433,1.200,2773.433,1.200,740.523,740.526,177.281,54.053,0.011,12.909,-0.050,0.0000,-0.2400,0.0000,0.9382,0.5000,0.0000,0.0000
52.030,Upwind,2791.572,1.204,2791.572,1.204,751.337,751.340,177.288,54.087,0.010,12.910,-0.050,0.0000,-0.2398,0.0000,0.9381,0.5000,0.0000,0.0000
52.235,Upwind,2809.715,1.207,2809.715,1.207,762.157,762.161,177.295,54.119,0.010,12.911,-0.050,0.0000,-0.2396,0.0000,0.9380,0.5000,0.0000,0.0000
52.425,Upwind,2826.348,1.211,2826.348,1.211,772.081,772.085,177.300,54.147,0.010,12.912,-0.050,0.0000,-0.2394,0.0000,0.9379,0.5000,0.0000,0.0000
52.637,Upwind,2846.010,1.214,2846.010,1.214,783.817,783.820,177.305,54.179,0.009,12.913,-0.049,0.0000,-0.2392,0.0000,0.9379,0.5000,0.0000,0.0000
52.835,Upwind,2864.162,1.218,2864.162,1.218,794.655,794.659,177.310,54.207,0.009,12.913,-0.049,0.0000,-0.2390,0.0000,0.9378,0.5000,0.0000,0.0000
53.027,Upwind,2880.804,1.221,2880.804,1.221,805.499,805.503,177.314,54.233,0.008,12.914,-0.049,0.0000,-0.2388,0.0000,0.9377,0.5000,0.0000,0.0000
53.234,Upwind,2900.475,1.224,2900.475,1.224,816.348,816.352,177.317,54.259,0.008,12.915,-0.049,0.0000,-0.2387,0.0000,0.9377,0.5000,0.0000,0.0000
53.423,Upwind,2917.122,1.227,2917.122,1.227,826.298,826.302,177.320,54.281,0.008,12.915,-0.049,0.0000,-0.2386,0.0000,0.9377,0.5000,0.0000,0.0000
53.631,Upwind,2936.800,1.230,2936.800,1.230,838.062,838.066,177.322,54.306,0.007,12.916,-0.049,0.0000,-0.2384,0.0000,0.9376,0.5000,0.0000,0.0000
53.830,Upwind,2954.967,1.233,2954.967,1.233,848.925,848.929,177.324,54.328,0.007,12.917,-0.049,0.0000,-0.2383,0.0000,0.9376,0.5000,0.0000,0.0000
54.029,Upwind,2973.137,1.235,2973.137,1.235,859.793,859.797,177.325,54.349,0.007,12.917,-0.048,0.0000,-0.2382,0.0000,0.9376,0.5000,0.0000,0.0000
54.231,Upwind,2991.309,1.238,2991.309,1.238,870.665,870.669,177.326,54.370,0.006,12.918,-0.048,0.0000,-0.2381,0.0000,0.9376,0.5000,0.0000,0.0000
54.427,Upwind,3007.970,1.240,3007.970,1.240,881.540,881.545,177.327,54.389,0.006,12.918,-0.048,0.0000,-0.2380,0.0000,0.9376,0.5000,0.0000,0.0000
54.632,Upwind,3027.662,1.243,3027.662,1.243,892.420,892.424,177.327,54.407,0.006,12.919,-0.048,0.0000,-0.2379,0.0000,0.9376,0.5000,0.0000,0.0000
54.835,Upwind,3045.843,1.245,3045.843,1.245,903.303,903.307,177.326,54.424,0.006,12.919,-0.048,0.0000,-0.2378,0.0000,0.9376,0.5000,0.0000,0.0000
55.034,Upwind,3064.027,1.247,3064.027,1.247,914.190,914.194,177.326,54.441,0.005,12.919,-0.048,0.0000,-0.2377,0.0000,0.9376,0.5000,0.0000,0.0000
55.232,Upwind,3082.213,1.249,3082.213,1.249,925.079,925.084,177.325,54.457,0.005,12.920,-0.048,0.0000,-0.2376,0.0000,0.9376,0.5000,0.0000,0.0000
55.432,Upwind,3100.402,1.251,3100.402,1.251,935.972,935.977,177.324,54.472,0.005,12.920,-0.047,0.0000,-0.2376,0.0000,0.9376,0.5000,0.0000,0.0000
55.626,Upwind,3117.077,1.253,3117.077,1.253,945.960,945.964,177.322,54.485,0.004,12.920,-0.047,0.0000,-0.2375,0.0000,0.9376,0.5000,0.0000,0.0000
55.832,Upwind,3136.787,1.255,3136.787,1.255,957.766,957.771,177.320,54.500,0.004,12.921,-0.047,0.0000,-0.2374,0.0000,0.9376,0.5000,0.0000,0.0000
56.026,Upwind,3153.467,1.256,3153.467,1.256,967.759,967.764,177.318,54.512,0.004,12.921,-0.047,0.0000,-0.2374,0.0000,0.9377,0.5000,0.0000,0.0000
56.227,Upwind,3171.666,1.258,3171.666,1.258,979.572,979.576,177.315,54.526,0.003,12.921,-0.047,0.0000,-0.2373,0.0000,0.9377,0.5000,0.0000,0.0000
56.426,Upwind,3189.868,1.260,3189.868,1.260,990.478,990.483,177.313,54.537,0.003,12.921,-0.047,0.0000,-0.2373,0.0000,0.9377,0.5000,0.0000,0.0000
56.631,Upwind,3209.589,1.261,3209.589,1.261,1001.386,1001.391,177.310,54.549,0.003,12.922,-0.047,0.0000,-0.2373,0.0000,0.9378,0.5000,0.0000,0.0000
56.829,Upwind,3227.795,1.262,3227.795,1.262,1012.297,1012.302,177.306,54.560,0.003,12.922,-0.046,0.0000,-0.2372,0.0000,0.9378,0.5000,0.0000,0.0000
57.033,Upwind,3246.004,1.264,3246.004,1.264,1023.210,1023.215,177.303,54.570,0.002,12.922,-0.046,0.0000,-0.2372,0.0000,0.9379,0.5000,0.0000,0.0000
57.235,Upwind,3264.216,1.265,3264.216,1.265,1034.125,1034.130,177.299,54.580,0.002,12.922,-0.046,0.0000,-0.2372,0.0000,0.9379,0.5000,0.0000,0.0000
57.426,Upwind,3280.912,1.266,3280.912,1.266,1044.132,1044.137,177.296,54.588,0.002,12.922,-0.046,0.0000,-0.2371,0.0000,0.9380,0.5000,0.0000,0.0000
57.628,Upwind,3299.129,1.267,3299.129,1.267,1055.051,1055.056,177.292,54.598,0.001,12.922,-0.046,0.0000,-0.2371,0.0000,0.9380,0.5000,0.0000,0.0000
57.823,Upwind,3317.347,1.268,3317.347,1.268,1066.881,1066.886,177.288,54.607,0.001,12.922,-0.046,0.0000,-0.2371,0.0000,0.9381,0.5000,0.0000,0.0000
58.031,Upwind,3337.087,1.268,3337.087,1.268,1077.803,1077.808,177.283,54.615,0.001,12.922,-0.046,0.0000,-0.2371,0.0000,0.9382,0.5000,0.0000,0.0000
58.225,Upwind,3353.792,1.269,3353.792,1.269,1088.727,1088.732,177.279,54.623,0.001,12.922,-0.045,0.0000,-0.2371,0.0000,0.9382,0.5000,0.0000,0.0000
58.429,Upwind,3373.537,1.270,3373.537,1.270,1099.652,1099.658,177.274,54.630,0.000,12.922,-0.045,0.0000,-0.2371,0.0000,0.9383,0.5000,0.0000,0.0000
58.632,Upwind,3391.765,1.270,3391.765,1.270,1110.579,1110.584,177.270,54.637,0.000,12.923,-0.045,0.0000,-0.2370,0.0000,0.9383,0.5000,0.0000,0.0000
58.830,Upwind,3409.996,1.271,3409.996,1.271,1121.507,1121.513,177.265,54.644,360.000,12.923,-0.045,0.0000,-0.2370,0.0000,0.9384,0.5000,0.0000,0.0000
59.033,Upwind,3428.229,1.271,3428.229,1.271,1132.437,1132.442,177.260,54.651,360.000,12.923,-0.045,0.0000,-0.2370,0.0000,0.9385,0.5000,0.0000,0.0000
59.235,Upwind,3446.465,1.272,3446.465,1.272,1143.368,1143.373,177.255,54.657,359.999,12.923,-0.045,0.0000,-0.2371,0.0000,0.9386,0.5000,0.0000,0.0000
59.428,Upwind,3463.183,1.272,3463.183,1.272,1154.300,1154.305,177.249,54.663,359.999,12.923,-0.045,0.0000,-0.2371,0.0000,0.9386,0.5000,0.0000,0.0000
59.627,Upwind,3481.423,1.272,3481.423,1.272,1165.233,1165.238,177.244,54.669,359.999,12.923,-0.045,0.0000,-0.2371,0.0000,0.9387,0.5000,0.0000,0.0000
59.823,Upwind,3499.665,1.272,3499.665,1.272,1176.167,1176.173,177.239,54.674,359.999,12.923,-0.044,0.0000,-0.2371,0.0000,0.9388,0.5000,0.0000,0.0000
60.024,Upwind,3517.910,1.272,3517.910,1.272,1187.102,1187.108,177.233,54.680,359.998,12.923,-0.044,0.0000,-0.2371,0.0000,0.9389,0.5000,0.0000,0.0000
60.229,Upwind,3537.678,1.272,3537.678,1.272,1198.039,1198.044,177.227,54.685,359.998,12.923,-0.044,0.0000,-0.2371,0.0000,0.9389,0.5000,0.0000,0.0000
60.429,Upwind,3555.927,1.272,3555.927,1.272,1208.976,1208.982,177.222,54.689,359.998,12.923,-0.044,0.0000,-0.2371,0.0000,0.9390,0.5000,0.0000,0.0000
60.633,Upwind,3574.179,1.271,3574.179,1.271,1219.914,1219.920,177.216,54.694,359.998,12.923,-0.044,0.0000,-0.2371,0.0000,0.9391,0.5000,0.0000,0.0000
60.833,Upwind,3592.433,1.271,3592.433,1.271,1230.854,1230.859,177.210,54.699,359.998,12.923,-0.044,0.0000,-0.2371,0.0000,0.9392,0.5000,0.0000,0.0000
61.039,Upwind,3610.690,1.271,3610.690,1.271,1241.794,1241.800,177.204,54.703,359.997,12.922,-0.044,0.0000,-0.2371,0.0000,0.9393,0.5000,0.0000,0.0000
61.224,Upwind,3627.427,1.270,3627.427,1.270,1252.735,1252.741,177.198,54.707,359.997,12.922,-0.044,0.0000,-0.2371,0.0000,0.9393,0.5000,0.0000,0.0000
61.431,Upwind,3647.209,1.270,3647.209,1.270,1263.676,1263.682,177.192,54.711,359.997,12.922,-0.043,0.0000,-0.2372,0.0000,0.9394,0.5000,0.0000,0.0000
61.624,Upwind,3663.951,1.269,3663.951,1.269,1274.619,1274.625,177.186,54.715,359.997,12.922,-0.043,0.0000,-0.2372,0.0000,0.9395,0.5000,0.0000,0.0000
61.832,Upwind,3683.738,1.269,3683.738,1.269,1285.562,1285.568,177.180,54.718,359.996,12.922,-0.043,0.0000,-0.2372,0.0000,0.9396,0.5000,0.0000,0.0000
62.035,Upwind,3702.006,1.268,3702.006,1.268,1296.506,1296.512,177.173,54.722,359.996,12.922,-0.043,0.0000,-0.2372,0.0000,0.9397,0.5000,0.0000,0.0000
62.228,Upwind,3720.276,1.267,3720.276,1.267,1307.451,1307.457,177.167,54.725,359.996,12.922,-0.043,0.0000,-0.2373,0.0000,0.9398,0.5000,0.0000,0.0000
62.429,Upwind,3738.548,1.266,3738.548,1.266,1318.396,1318.402,177.161,54.728,359.996,12.921,-0.043,0.0000,-0.2373,0.0000,0.9399,0.5000,0.0000,0.0000
62.630,Upwind,3756.823,1.265,3756.823,1.265,1329.342,1329.348,177.154,54.731,359.996,12.921,-0.043,0.0000,-0.2373,0.0000,0.9400,0.5000,0.0000,0.0000
62.824,Upwind,3773.576,1.264,3773.576,1.264,1339.376,1339.382,177.148,54.733,359.995,12.921,-0.043,0.0000,-0.2373,0.0000,0.9400,0.5000,0.0000,0.0000
63.029,Upwind,3793.379,1.263,3793.379,1.263,1351.235,1351.242,177.141,54.736,359.995,12.921,-0.043,0.0000,-0.2374,0.0000,0.9401,0.5000,0.0000,0.0000
63.235,Upwind,3811.660,1.262,3811.660,1.262,1362.183,1362.189,177.135,54.739,359.995,12.921,-0.042,0.0000,-0.2374,0.0000,0.9402,0.5000,0.0000,0.0000
63.427,Upwind,3828.420,1.261,3828.420,1.261,1373.131,1373.137,177.128,54.742,359.995,12.921,-0.042,0.0000,-0.2374,0.0000,0.9403,0.5000,0.0000,0.0000
63.630,Upwind,3848.229,1.260,3848.229,1.260,1384.079,1384.086,177.121,54.744,359.995,12.921,-0.042,0.0000,-0.2374,0.0000,0.9404,0.5000,0.0000,0.0000
63.833,Upwind,3866.517,1.258,3866.517,1.258,1395.028,1395.035,177.115,54.747,359.994,12.921,-0.042,0.0000,-0.2375,0.0000,0.9405,0.5000,0.0000,0.0000
64.035,Upwind,3884.807,1.257,3884.807,1.257,1405.978,1405.984,177.108,54.749,359.994,12.921,-0.042,0.0000,-0.2375,0.0000,0.9406,0.5000,0.0000,0.0000
64.224,Upwind,3901.576,1.256,3901.576,1.256,1416.015,1416.022,177.102,54.751,359.994,12.920,-0.042,0.0001,-0.2375,0.0000,0.9407,0.5000,0.0000,0.0000
64.435,Upwind,3921.395,1.254,3921.395,1.254,1427.878,1427.885,177.094,54.753,359.994,12.920,-0.042,0.0000,-0.2376,0.0000,0.9408,0.5000,0.0000,0.0000
64.625,Upwind,3938.167,1.253,3938.167,1.253,1437.916,1437.923,177.088,54.755,359.994,12.920,-0.042,0.0000,-0.2376,0.0000,0.9409,0.5000,0.0000,0.0000
64.829,Upwind,3957.991,1.251,3957.991,1.251,1449.780,1449.787,177.081,54.757,359.993,12.920,-0.041,0.0000,-0.2376,0.0000,0.9410,0.5000,0.0000,0.0000
65.035,Upwind,3976.292,1.249,3976.292,1.249,1460.732,1460.739,177.074,54.759,359.993,12.920,-0.041,0.0001,-0.2377,0.0000,0.9411,0.5000,0.0000,0.0000
65.225,Upwind,3993.071,1.247,3993.071,1.247,1471.684,1471.691,177.067,54.761,359.993,12.920,-0.041,0.0000,-0.2377,0.0000,0.9412,0.5000,0.0000,0.0000
65.424,Upwind,4011.376,1.246,4011.376,1.246,1481.723,1481.731,177.061,54.763,359.993,12.920,-0.041,0.0000,-0.2377,0.0000,0.9413,0.5000,0.0000,0.0000
65.624,Upwind,4029.684,1.244,4029.684,1.244,1493.589,1493.596,177.053,54.765,359.993,12.919,-0.041,0.0001,-0.2378,0.0000,0.9414,0.5000,0.0000,0.0000
65.829,Upwind,4049.520,1.242,4049.520,1.242,1504.542,1504.549,177.046,54.766,359.992,12.919,-0.040,0.0000,-0.2378,0.0000,0.9415,0.5000,0.0000,0.0000
66.025,Upwind,4066.307,1.240,4066.307,1.240,1515.495,1515.503,177.039,54.768,359.992,12.919,-0.040,0.0000,-0.2378,0.0000,0.9416,0.5000,0.0000,0.0000
66.229,Upwind,4086.147,1.238,4086.147,1.238,1525.536,1525.544,177.033,54.770,359.992,12.919,-0.040,0.0000,-0.2379,0.0000,0.9416,0.5000,0.0000,0.0000
66.426,Upwind,4102.938,1.236,4102.938,1.236,1537.403,1537.411,177.025,54.771,359.992,12.919,-0.040,0.0000,-0.2379,0.0000,0.9418,0.5000,0.0000,0.0000
66.626,Upwind,4121.257,1.234,4121.257,1.234,1548.358,1548.365,177.018,54.773,359.992,12.919,-0.040,0.0000,-0.2380,0.0000,0.9419,0.5000,0.0000,0.0000
66.826,Upwind,4139.578,1.232,4139.578,1.232,1559.312,1559.320,177.011,54.774,359.992,12.918,-0.039,0.0000,-0.2380,0.0000,0.9420,0.5000,0.0000,0.0000
67.030,Upwind,4159.429,1.229,4159.429,1.229,1570.267,1570.275,177.004,54.776,359.992,12.918,-0.039,0.0000,-0.2380,0.0000,0.9420,0.5000,0.0000,0.0000
67.235,Upwind,4177.754,1.227,4177.754,1.227,1581.222,1581.230,176.997,54.777,359.992,12.918,-0.039,0.0000,-0.2381,0.0000,0.9421,0.5000,0.0000,0.0000
67.427,Upwind,4194.555,1.225,4194.555,1.225,1592.178,1592.186,176.990,54.778,359.991,12.918,-0.039,0.0000,-0.2381,0.0000,0.9422,0.5000,0.0000,0.0000
67.630,Upwind,4214.413,1.223,4214.413,1.223,1603.134,1603.141,176.983,54.780,359.991,12.918,-0.039,0.0001,-0.2381,0.0000,0.9423,0.5000,0.0000,0.0000
67.824,Upwind,4231.217,1.220,4231.217,1.220,1613.177,1613.184,176.976,54.781,359.991,12.918,-0.039,0.0001,-0.2382,0.0000,0.9424,0.5000,0.0000,0.0000
68.027,Upwind,4249.552,1.218,4249.552,1.218,1625.046,1625.054,176.968,54.782,359.991,12.917,-0.038,0.0001,-0.2382,0.0000,0.9425,0.5000,0.0000,0.0000
68.232,Upwind,4269.417,1.215,4269.417,1.215,1636.002,1636.010,176.961,54.783,359.991,12.917,-0.038,0.0000,-0.2383,0.0000,0.9426,0.5000,0.0000,0.0000
68.433,Upwind,4287.756,1.213,4287.756,1.213,1646.959,1646.967,176.954,54.784,359.991,12.917,-0.038,0.0000,-0.2383,0.0000,0.9427,0.5000,0.0000,0.0000
68.633,Upwind,4306.097,1.210,4306.097,1.210,1657.916,1657.924,176.947,54.786,359.991,12.917,-0.038,0.0000,-0.2383,0.0000,0.9428,0.5000,0.0000,0.0000
68.834,Upwind,4324.441,1.208,4324.441,1.208,1668.873,1668.881,176.940,54.787,359.991,12.917,-0.038,0.0001,-0.2384,0.0000,0.9429,0.5000,0.0000,0.0000
69.031,Upwind,4342.786,1.205,4342.786,1.205,1679.831,1679.839,176.932,54.788,359.990,12.916,-0.037,0.0000,-0.2384,0.0000,0.9430,0.5000,0.0000,0.0000
69.232,Upwind,4361.134,1.203,4361.134,1.203,1690.788,1690.796,176.925,54.789,359.990,12.916,-0.037,0.0000,-0.2385,0.0000,0.9431,0.5000,0.0000,0.0000
69.432,Upwind,4379.484,1.200,4379.484,1.200,1701.746,1701.754,176.918,54.790,359.990,12.916,-0.037,0.0001,-0.2385,0.0000,0.9432,0.5000,0.0000,0.0000
69.633,Upwind,4397.837,1.197,4397.837,1.197,1712.704,1712.712,176.911,54.791,359.990,12.916,-0.037,0.0000,-0.2385,0.0000,0.9434,0.5000,0.0000,0.0000
69.832,Upwind,4416.191,1.195,4416.191,1.195,1723.662,1723.671,176.903,54.792,359.990,12.916,-0.037,0.0001,-0.2386,0.0000,0.9435,0.5000,0.0000,0.0000
70.029,Upwind,4434.548,1.192,4434.548,1.192,1734.621,1734.629,176.896,54.793,359.990,12.915,-0.037,0.0000,-0.2386,0.0000,0.9436,0.5000,0.0000,0.0000
70.227,Upwind,4451.377,1.190,4451.377,1.190,1745.580,1745.588,176.889,54.794,359.990,12.915,-0.036,0.0000,-0.2387,0.0000,0.9437,0.5000,0.0000,0.0000
70.427,Upwind,4469.738,1.187,4469.738,1.187,1756.538,1756.547,176.882,54.795,359.990,12.915,-0.036,0.0000,-0.2387,0.0000,0.9438,0.5000,0.0000,0.0000
70.632,Upwind,4489.632,1.184,4489.632,1.184,1767.497,1767.506,176.874,54.796,359.990,12.915,-0.036,0.0000,-0.2388,0.0000,0.9439,0.5000,0.0000,0.0000
70.834,Upwind,4507.997,1.181,4507.997,1.181,1778.457,1778.465,176.867,54.797,359.990,12.915,-0.036,0.0000,-0.2388,0.0000,0.9440,0.5000,0.0000,0.0000
71.031,Upwind,4526.365,1.178,4526.365,1.178,1789.416,1789.424,176.860,54.797,359.990,12.915,-0.036,0.0000,-0.2388,0.0000,0.9441,0.5000,0.0000,0.0000
71.226,Upwind,4543.204,1.175,4543.204,1.175,1800.375,1800.384,176.852,54.798,359.990,12.914,-0.036,0.0000,-0.2389,0.0000,0.9442,0.5000,0.0000,0.0000
71.427,Upwind,4561.576,1.173,4561.576,1.173,1811.335,1811.344,176.845,54.799,359.989,12.914,-0.036,0.0000,-0.2389,0.0000,0.9443,0.5000,0.0000,0.0000
71.630,Upwind,4581.482,1.169,4581.482,1.169,1822.295,1822.304,176.838,54.800,359.989,12.914,-0.035,0.0000,-0.2390,0.0000,0.9444,0.5000,0.0000,0.0000
71.829,Upwind,4599.858,1.167,4599.858,1.167,1833.255,1833.264,176.830,54.801,359.989,12.914,-0.035,0.0000,-0.2390,0.0000,0.9445,0.5000,0.0000,0.0000
72.032,Upwind,4618.237,1.164,4618.237,1.164,1844.215,1844.224,176.823,54.802,359.989,12.914,-0.035,0.0000,-0.2391,0.0000,0.9446,0.5000,0.0000,0.0000
72.235,Upwind,4636.618,1.161,4636.618,1.161,1855.176,1855.184,176.816,54.802,359.989,12.913,-0.035,0.0000,-0.2391,0.0000,0.9447,0.5000,0.0000,0.0000
72.427,Upwind,4653.469,1.158,4653.469,1.158,1866.136,1866.145,176.808,54.803,359.989,12.913,-0.035,0.0001,-0.2391,0.0000,0.9448,0.5000,0.0000,0.0000
72.629,Upwind,4673.387,1.155,4673.387,1.155,1877.097,1877.106,176.801,54.804,359.989,12.913,-0.035,0.0000,-0.2392,0.0000,0.9449,0.5000,0.0000,0.0000
72.824,Upwind,4690.242,1.152,4690.242,1.152,1888.057,1888.067,176.793,54.805,359.989,12.913,-0.035,0.0000,-0.2392,0.0000,0.9450,0.5000,0.0000,0.0000
73.035,Upwind,4710.164,1.149,4710.164,1.149,1899.018,1899.028,176.786,54.805,359.989,12.913,-0.034,0.0000,-0.2393,0.0000,0.9451,0.5000,0.0000,0.0000
73.232,Upwind,4728.556,1.146,4728.556,1.146,1909.980,1909.989,176.779,54.806,359.989,12.912,-0.034,0.0001,-0.2393,0.0000,0.9452,0.5000,0.0000,0.0000
73.428,Upwind,4745.418,1.143,4745.418,1.143,1920.941,1920.950,176.771,54.807,359.989,12.912,-0.034,0.0000,-0.2394,0.0000,0.9453,0.5000,0.0000,0.0000
73.635,Upwind,4765.347,1.140,4765.347,1.140,1931.902,1931.911,176.764,54.807,359.989,12.912,-0.034,0.0001,-0.2394,0.0000,0.9454,0.5000,0.0000,0.0000
73.835,Upwind,4783.746,1.136,4783.746,1.136,1942.864,1942.873,176.757,54.808,359.989,12.912,-0.034,0.0000,-0.2394,0.0000,0.9455,0.5000,0.0000,0.0000
74.028,Upwind,4802.146,1.133,4802.146,1.133,1953.825,1953.835,176.749,54.809,359.989,12.912,-0.034,0.0000,-0.2395,0.0000,0.9456,0.5000,0.0000,0.0000
74.224,Upwind,4819.016,1.131,4819.016,1.131,1964.787,1964.796,176.742,54.809,359.989,12.911,-0.034,0.0000,-0.2395,0.0000,0.9457,0.5000,0.0000,0.0000
74.430,Upwind,4838.955,1.127,4838.955,1.127,1975.749,1975.758,176.734,54.810,359.989,12.911,-0.033,0.0000,-0.2396,0.0000,0.9458,0.5000,0.0000,0.0000
74.626,Upwind,4855.828,1.124,4855.828,1.124,1986.711,1986.720,176.727,54.811,359.989,12.911,-0.033,0.0000,-0.2396,0.0000,0.9459,0.5000,0.0000,0.0000
74.833,Upwind,4875.772,1.121,4875.772,1.121,1997.673,1997.683,176.719,54.811,359.989,12.911,-0.033,0.0000,-0.2397,0.0000,0.9460,0.5000,0.0000,0.0000
75.026,Crosswind,4892.649,1.118,4892.649,1.118,2008.634,2008.644,176.680,54.778,359.988,12.913,0.020,0.4000,-0.3538,0.0001,0.8747,0.0000,0.0000,0.0000
75.227,Crosswind,4911.051,1.116,4911.051,1.116,2019.570,2019.580,176.455,54.552,359.984,12.977,0.499,0.4000,-0.5142,0.0001,0.7745,0.0000,0.0000,0.0000
75.434,Crosswind,4930.954,1.117,4930.954,1.117,2030.445,2030.455,176.045,54.179,359.982,13.194,1.382,0.4000,-0.6403,0.0001,0.7000,0.0000,0.0000,0.0000
75.631,Crosswind,4949.282,1.127,4949.282,1.127,2041.245,2041.255,175.566,53.855,359.993,13.614,2.576,0.4000,-0.5258,0.0000,0.7000,0.0000,0.0000,0.0000
75.824,Crosswind,4966.043,1.151,4966.043,1.151,2052.002,2052.012,175.088,53.747,0.025,14.141,4.003,0.4000,-0.3962,-0.0002,0.7000,0.0000,0.0000,0.0000
76.034,Crosswind,4985.797,1.206,4985.797,1.206,2062.758,2062.768,174.612,53.847,0.085,14.651,5.599,0.4000,-0.2798,-0.0006,0.7104,0.0000,0.0000,0.0000
76.235,Crosswind,5003.980,1.293,5003.980,1.293,2073.549,2073.559,174.148,54.081,0.171,15.047,7.309,0.4000,-0.1990,-0.0013,0.7214,0.0000,0.0000,0.0000
76.436,Crosswind,5022.115,1.428,5022.115,1.428,2084.392,2084.402,173.701,54.336,0.283,15.275,9.090,0.4000,-0.1609,-0.0022,0.7324,0.0000,0.0000,0.0000
76.633,Crosswind,5040.202,1.619,5040.202,1.619,2095.277,2095.287,173.274,54.492,0.418,15.324,10.906,0.4000,-0.1642,-0.0033,0.7433,0.0000,0.0000,0.0000
76.830,Crosswind,5058.247,1.876,5058.247,1.876,2106.176,2106.186,172.870,54.454,0.581,15.220,12.733,0.3821,-0.1998,-0.0046,0.7538,0.0000,0.0000,0.0000
77.026,Crosswind,5074.754,2.177,5074.754,2.177,2117.042,2117.052,172.494,54.165,0.781,15.011,14.540,0.3139,-0.2549,-0.0059,0.7639,0.0000,0.0000,0.0000
77.225,Crosswind,5092.730,2.583,5092.730,2.583,2127.825,2127.835,172.148,53.626,1.030,14.752,16.252,0.2541,-0.3169,-0.0073,0.7733,0.0000,0.0000,0.0000
77.431,Crosswind,5112.173,3.121,5112.173,3.121,2138.477,2138.487,171.831,52.862,1.341,14.493,17.813,0.2038,-0.3736,-0.0087,0.7819,0.0000,0.0000,0.0000
77.631,Crosswind,5130.097,3.714,5130.097,3.714,2148.958,2148.968,171.544,51.920,1.724,14.273,19.196,0.1611,-0.4181,-0.0099,0.7896,0.0000,0.0000,0.0000
77.827,Crosswind,5146.511,4.345,5146.511,4.345,2159.237,2159.247,171.286,50.862,2.183,14.114,20.389,0.1249,-0.4475,-0.0108,0.7964,0.0000,0.0000,0.0000
78.035,Crosswind,5165.891,5.202,5165.891,5.202,2169.299,2169.309,171.055,49.753,2.715,14.023,21.397,0.0976,-0.4597,-0.0117,0.8023,0.0000,0.0000,0.0000
78.227,Crosswind,5182.276,6.028,5182.276,6.028,2179.139,2179.149,170.848,48.648,3.310,13.992,22.232,0.0741,-0.4605,-0.0123,0.8074,0.0000,0.0000,0.0000
78.430,Crosswind,5201.626,7.131,5201.626,7.131,2188.761,2188.772,170.662,47.588,3.954,14.004,22.912,0.0571,-0.4522,-0.0127,0.8118,0.0000,0.0000,0.0000
78.634,Crosswind,5219.473,8.278,5219.473,8.278,2198.178,2198.189,170.496,46.595,4.629,14.041,23.456,0.0431,-0.4411,-0.0129,0.8156,0.0000,0.0000,0.0000
78.825,Crosswind,5235.820,9.442,5235.820,9.442,2207.404,2207.415,170.347,45.679,5.317,14.082,23.885,0.0319,-0.4310,-0.0130,0.8188,0.0000,0.0000,0.0000
79.032,Crosswind,5255.124,10.964,5255.124,10.964,2216.454,2216.465,170.213,44.832,6.003,14.113,24.218,0.0241,-0.4251,-0.0129,0.8216,0.0000,0.0000,0.0000
79.225,Crosswind,5271.444,12.380,5271.444,12.380,2225.340,2225.351,170.093,44.040,6.674,14.125,24.473,0.0175,-0.4247,-0.0127,0.8240,0.0000,0.0000,0.0000
79.432,Crosswind,5290.715,14.208,5290.715,14.208,2234.073,2234.083,169.986,43.287,7.323,14.113,24.665,0.0131,-0.4305,-0.0124,0.8260,0.0000,0.0000,0.0000
79.635,Crosswind,5308.486,16.048,5308.486,16.048,2242.656,2242.667,169.893,42.554,7.944,14.080,24.807,0.0095,-0.4410,-0.0120,0.8277,0.0000,0.0000,0.0000
79.838,Crosswind,5326.241,18.035,5326.241,18.035,2251.094,2251.105,169.812,41.827,8.538,14.031,24.910,0.0070,-0.4546,-0.0116,0.8291,0.0000,0.0000,0.0000
80.029,Crosswind,5343.979,20.172,5343.979,20.172,2259.387,2259.398,169.743,41.099,9.107,13.974,24.983,0.0053,-0.4695,-0.0112,0.8302,0.0000,0.0000,0.0000
80.236,Crosswind,5361.701,22.457,5361.701,22.457,2267.534,2267.545,169.685,40.374,9.653,13.916,25.032,0.0044,-0.4838,-0.0108,0.8312,0.0000,0.0000,0.0000
80.427,Crosswind,5377.930,24.685,5377.930,24.685,2275.537,2275.548,169.638,39.653,10.181,13.864,25.061,0.0040,-0.4963,-0.0104,0.8319,0.0000,0.0000,0.0000
80.625,Crosswind,5395.618,27.258,5395.618,27.258,2283.396,2283.407,169.601,38.938,10.696,13.821,25.073,0.0043,-0.5062,-0.0101,0.8324,0.0000,0.0000,0.0000
80.826,Crosswind,5413.287,29.983,5413.287,29.983,2291.113,2291.124,169.574,38.234,11.200,13.788,25.069,0.0052,-0.5134,-0.0099,0.8328,0.0000,0.0000,0.0000
81.033,Crosswind,5432.408,33.104,5432.408,33.104,2298.690,2298.701,169.555,37.545,11.697,13.766,25.051,0.0067,-0.5183,-0.0096,0.8330,0.0000,0.0000,0.0000
81.227,Crosswind,5448.570,35.883,5448.570,35.883,2306.132,2306.143,169.545,36.875,12.190,13.751,25.020,0.0086,-0.5216,-0.0095,0.8331,0.0000,0.0000,0.0000
81.429,Crosswind,5467.648,39.330,5467.648,39.330,2313.441,2313.452,169.542,36.225,12.679,13.740,24.977,0.0110,-0.5242,-0.0095,0.8330,0.0000,0.0000,0.0000
81.632,Crosswind,5485.237,42.669,5485.237,42.669,2320.623,2320.634,169.546,35.597,13.166,13.730,24.923,0.0138,-0.5268,-0.0095,0.8328,0.0000,0.0000,0.0000
81.825,Crosswind,5501.341,45.860,5501.341,45.860,2327.681,2327.692,169.558,34.988,13.653,13.717,24.860,0.0167,-0.5300,-0.0095,0.8325,0.0000,0.0000,0.0000
82.029,Crosswind,5520.349,49.795,5520.349,49.795,2334.619,2334.631,169.575,34.396,14.141,13.701,24.791,0.0198,-0.5343,-0.0096,0.8321,0.0000,0.0000,0.0000
82.229,Crosswind,5537.870,53.582,5537.870,53.582,2341.441,2341.452,169.600,33.819,14.630,13.680,24.718,0.0229,-0.5396,-0.0097,0.8315,0.0000,0.0000,0.0000
82.428,Crosswind,5553.911,57.184,5553.911,57.184,2348.148,2348.159,169.630,33.253,15.122,13.655,24.644,0.0258,-0.5459,-0.0098,0.8309,0.0000,0.0000,0.0000
82.634,Crosswind,5572.841,61.602,5572.841,61.602,2354.742,2354.754,169.666,32.696,15.618,13.627,24.572,0.0285,-0.5528,-0.0099,0.8302,0.0000,0.0000,0.0000
82.832,Crosswind,5590.289,65.833,5590.289,65.833,2361.227,2361.238,169.708,32.148,16.118,13.597,24.505,0.0309,-0.5600,-0.0100,0.8294,0.0000,0.0000,0.0000
83.026,Crosswind,5606.261,69.842,5606.261,69.842,2367.602,2367.613,169.756,31.608,16.623,13.567,24.444,0.0330,-0.5670,-0.0101,0.8286,0.0000,0.0000,0.0000
83.226,Crosswind,5623.658,74.355,5623.658,74.355,2373.870,2373.882,169.809,31.076,17.132,13.538,24.391,0.0346,-0.5735,-0.0101,0.8277,0.0000,0.0000,0.0000
83.437,Crosswind,5642.475,79.411,5642.475,79.411,2380.033,2380.045,169.868,30.555,17.645,13.512,24.349,0.0357,-0.5793,-0.0102,0.8268,0.0000,0.0000,0.0000
83.624,Crosswind,5658.371,83.824,5658.371,83.824,2386.093,2386.104,169.931,30.045,18.162,13.489,24.316,0.0364,-0.5845,-0.0102,0.8258,0.0000,0.0000,0.0000
83.827,Crosswind,5675.684,88.778,5675.684,88.778,2392.052,2392.063,169.999,29.546,18.682,13.469,24.293,0.0368,-0.5890,-0.0102,0.8248,0.0000,0.0000,0.0000
84.024,Crosswind,5692.967,93.879,5692.967,93.879,2397.912,2397.924,170.072,29.061,19.203,13.452,24.280,0.0368,-0.5930,-0.0102,0.8237,0.0000,0.0000,0.0000
84.228,Crosswind,5711.655,99.571,5711.655,99.571,2403.677,2403.689,170.148,28.594,19.725,13.436,24.275,0.0365,-0.5967,-0.0102,0.8227,0.0000,0.0000,0.0000
84.437,Crosswind,5728.871,104.979,5728.871,104.979,2409.351,2409.362,170.228,28.144,20.246,13.421,24.277,0.0360,-0.6003,-0.0102,0.8215,0.0000,0.0000,0.0000
84.629,Crosswind,5746.054,110.535,5746.054,110.535,2414.474,2414.485,170.304,27.747,20.722,13.407,24.284,0.0354,-0.6037,-0.0102,0.8205,0.0000,0.0000,0.0000
84.828,Crosswind,5761.774,115.758,5761.774,115.758,2420.436,2420.448,170.397,27.292,21.283,13.391,24.296,0.0347,-0.6078,-0.0101,0.8192,0.0000,0.0000,0.0000
85.034,Crosswind,5780.313,122.091,5780.313,122.091,2425.853,2425.865,170.486,26.885,21.800,13.375,24.310,0.0340,-0.6117,-0.0101,0.8180,0.0000,0.0000,0.0000
85.238,Crosswind,5797.388,128.091,5797.388,128.091,2431.191,2431.202,170.578,26.488,22.314,13.358,24.325,0.0333,-0.6158,-0.0101,0.8168,0.0000,0.0000,0.0000
85.439,Crosswind,5814.424,134.240,5814.424,134.240,2436.449,2436.461,170.672,26.100,22.827,13.341,24.341,0.0327,-0.6199,-0.0101,0.8155,0.0000,0.0000,0.0000
85.630,Crosswind,5831.420,140.537,5831.420,140.537,2441.631,2441.643,170.769,25.721,23.338,13.324,24.355,0.0321,-0.6240,-0.0100,0.8142,0.0000,0.0000,0.0000
