time_s,leg,north_m,east_m,along_m,cross_m,agl_ft,altitude_ft,speed_kts,vertical_speed_fps,heading_deg,pitch_deg,roll_deg,aileron_cmd,elevator_cmd,rudder_cmd,throttle_cmd,flaps_cmd,gear_cmd,brake_cmd
0.000,Upwind,0.467,0.000,0.000,0.000,3.691,3.691,0.205,-0.001,0.000,0.449,0.000,0.0000,0.0016,0.0000,0.2188,0.5000,1.0000,1.0000
0.198,Upwind,0.472,0.000,0.005,0.000,3.691,3.691,0.009,0.009,0.000,0.434,0.000,0.0000,0.0313,0.0000,0.1197,0.5000,1.0000,1.0000
0.395,Upwind,0.471,0.000,0.005,0.000,3.692,3.692,0.003,-0.005,0.000,0.443,0.000,0.0000,0.0609,0.0000,0.0211,0.5000,1.0000,1.0000
0.601,Upwind,0.471,0.000,0.004,0.000,3.690,3.690,0.006,-0.009,0.000,0.453,0.000,0.0000,0.0637,0.0000,0.0000,0.5000,1.0000,1.0000
0.797,Upwind,0.471,0.000,0.004,0.000,3.690,3.690,0.003,0.003,0.000,0.452,0.000,0.0000,0.0630,0.0000,0.0184,0.5000,1.0000,0.0000
0.996,Upwind,0.471,0.000,0.005,0.000,3.690,3.691,0.002,0.004,0.000,0.449,0.000,0.0000,0.0627,0.0000,0.1179,0.5000,1.0000,0.0000
1.190,Upwind,0.471,0.000,0.005,0.000,3.691,3.691,0.000,0.000,0.000,0.449,0.000,0.0000,0.0629,0.0000,0.2152,0.5000,1.0000,0.0000
1.406,Upwind,0.471,0.000,0.005,0.000,3.691,3.691,0.001,-0.001,0.000,0.450,0.000,0.0000,0.0630,0.0000,0.3230,0.5000,1.0000,0.0000
1.595,Upwind,0.471,0.000,0.005,0.000,3.691,3.691,0.000,0.000,0.000,0.450,0.000,0.0000,0.0629,0.0000,0.4178,0.5000,1.0000,0.0000
1.795,Upwind,0.471,0.000,0.005,0.000,3.691,3.691,0.000,0.000,0.000,0.449,0.000,0.0000,0.0629,0.0000,0.5175,0.5000,1.0000,0.0000
2.003,Upwind,0.471,0.000,0.005,0.000,3.691,3.691,0.000,0.000,0.000,0.449,0.000,0.0000,0.0628,0.0000,0.6216,0.5000,1.0000,0.0000
2.206,Upwind,0.471,0.000,0.005,0.000,3.691,3.691,0.002,0.000,0.000,0.449,0.000,0.0000,0.0628,0.0000,0.7231,0.5000,1.0000,0.0000
2.390,Upwind,0.472,0.000,0.005,0.000,3.691,3.691,0.010,0.000,0.000,0.449,0.000,0.0000,0.0628,0.0000,0.8150,0.5000,1.0000,0.0000
2.591,Upwind,0.474,0.000,0.007,0.000,3.691,3.691,0.029,0.000,0.000,0.449,0.000,0.0000,0.0629,0.0000,0.9156,0.5000,1.0000,0.0000
2.792,Upwind,0.479,0.000,0.012,0.000,3.691,3.691,0.058,0.000,0.000,0.449,0.000,0.0000,0.0629,0.0000,1.0000,0.5000,1.0000,0.0000
3.004,Upwind,0.487,0.000,0.020,0.000,3.691,3.691,0.099,0.000,0.000,0.449,0.000,0.0000,0.0629,0.0000,1.0000,0.5000,1.0000,0.0000
3.200,Upwind,0.501,0.000,0.034,0.000,3.691,3.691,0.156,0.000,0.000,0.449,0.000,0.0000,0.0629,0.0000,1.0000,0.5000,1.0000,0.0000
3.400,Upwind,0.521,0.000,0.054,0.000,3.691,3.691,0.231,0.000,0.000,0.449,0.000,0.0000,0.0629,0.0000,1.0000,0.5000,1.0000,0.0000
3.597,Upwind,0.550,0.000,0.083,0.000,3.691,3.691,0.327,0.000,0.000,0.449,0.000,0.0000,0.0629,0.0000,1.0000,0.5000,1.0000,0.0000
3.797,Upwind,0.591,0.000,0.124,0.000,3.691,3.691,0.449,0.000,0.000,0.449,0.000,0.0000,0.0629,0.0000,1.0000,0.5000,1.0000,0.0000
4.000,Upwind,0.646,0.000,0.179,0.000,3.691,3.691,0.600,0.000,0.000,0.450,0.000,0.0000,0.0630,0.0000,1.0000,0.5000,1.0000,0.0000
4.201,Upwind,0.719,0.000,0.252,0.000,3.691,3.691,0.786,0.000,0.000,0.450,0.000,0.0000,0.0630,0.0000,1.0000,0.5000,1.0000,0.0000
4.394,Upwind,0.813,0.000,0.346,0.000,3.691,3.691,1.012,0.000,0.000,0.450,0.000,0.0000,0.0630,0.0000,1.0000,0.5000,1.0000,0.0000
4.595,Upwind,0.933,0.000,0.466,0.000,3.691,3.691,1.285,0.000,0.000,0.450,0.000,0.0000,0.0631,0.0000,1.0000,0.5000,1.0000,0.0000
4.792,Upwind,1.084,0.000,0.617,0.000,3.691,3.691,1.611,0.000,0.000,0.451,0.000,0.0000,0.0631,0.0000,1.0000,0.5000,1.0000,0.0000
4.992,Upwind,1.272,0.000,0.806,0.000,3.691,3.691,1.999,0.000,0.000,0.451,0.000,0.0000,0.0631,0.0000,1.0000,0.5000,1.0000,0.0000
5.196,Upwind,1.505,0.000,1.038,0.000,3.691,3.691,2.456,0.000,0.000,0.451,0.000,0.0000,0.0632,0.0000,1.0000,0.5000,1.0000,0.0000
5.391,Upwind,1.789,0.000,1.322,0.000,3.691,3.691,2.991,0.000,0.000,0.452,0.000,0.0000,0.0633,0.0000,1.0000,0.5000,1.0000,0.0000
5.601,Upwind,2.133,0.000,1.667,0.000,3.691,3.691,3.612,0.000,0.000,0.452,0.000,0.0000,0.0633,0.0000,1.0000,0.5000,1.0000,0.0000
5.801,Upwind,2.547,0.000,2.080,0.000,3.691,3.691,4.327,0.000,0.000,0.452,0.000,0.0000,0.0634,0.0000,1.0000,0.5000,1.0000,0.0000
5.991,Upwind,3.040,0.000,2.574,0.000,3.691,3.691,5.142,0.000,0.000,0.453,0.000,0.0000,0.0634,0.0000,1.0000,0.5000,1.0000,0.0000
6.191,Upwind,3.624,0.000,3.157,0.000,3.691,3.691,5.985,0.000,0.000,0.453,0.000,0.0000,0.0635,0.0000,1.0000,0.5000,1.0000,0.0000
6.393,Upwind,4.310,0.000,3.843,0.000,3.691,3.691,7.104,0.000,0.000,0.454,0.000,0.0000,0.0636,0.0000,1.0000,0.5000,1.0000,0.0000
6.594,Upwind,5.109,0.000,4.642,0.000,3.691,3.691,8.263,0.001,0.000,0.454,0.000,0.0000,0.0637,0.0000,1.0000,0.5000,1.0000,0.0000
6.800,Upwind,6.035,0.000,5.568,0.000,3.691,3.691,9.534,0.001,0.000,0.455,0.000,0.0000,0.0637,0.0000,1.0000,0.5000,1.0000,0.0000
6.991,Upwind,7.093,0.000,6.626,0.000,3.691,3.691,10.819,0.001,0.000,0.455,0.000,0.0000,0.0636,0.0000,1.0000,0.5000,1.0000,0.0000
7.199,Upwind,8.283,0.000,7.817,0.000,3.692,3.692,12.103,0.001,0.000,0.454,0.000,0.0000,0.0636,0.0000,1.0000,0.5000,1.0000,0.0000
7.392,Upwind,9.606,0.000,9.139,0.000,3.692,3.692,13.386,0.001,0.000,0.454,0.000,0.0000,0.0635,0.0000,1.0000,0.5000,1.0000,0.0000
7.600,Upwind,11.060,0.000,10.593,0.000,3.692,3.692,14.668,0.001,0.000,0.454,0.000,0.0000,0.0635,0.0000,1.0000,0.5000,1.0000,0.0000
7.791,Upwind,12.646,0.000,12.179,0.000,3.692,3.692,15.949,0.001,0.000,0.453,0.000,0.0000,0.0634,0.0000,1.0000,0.5000,1.0000,0.0000
7.996,Upwind,14.364,0.000,13.897,0.000,3.693,3.693,17.229,0.002,0.000,0.453,0.000,0.0000,0.0634,0.0000,1.0000,0.5000,1.0000,0.0000
8.199,Upwind,16.213,0.000,15.746,0.000,3.693,3.693,18.507,0.002,0.000,0.453,0.000,0.0000,0.0633,0.0000,1.0000,0.5000,1.0000,0.0000
8.399,Upwind,18.194,0.000,17.727,0.000,3.693,3.693,19.785,0.002,0.000,0.452,0.000,0.0000,0.0632,0.0000,1.0000,0.5000,1.0000,0.0000
8.592,Upwind,20.307,0.000,19.840,0.000,3.694,3.694,21.061,0.002,0.000,0.452,0.000,0.0000,0.0632,0.0000,1.0000,0.5000,1.0000,0.0000
8.801,Upwind,22.550,0.000,22.083,0.000,3.694,3.694,22.336,0.002,0.000,0.451,0.000,0.0000,0.0631,0.0000,1.0000,0.5000,1.0000,0.0000
8.992,Upwind,24.925,0.000,24.458,0.000,3.694,3.695,23.610,0.002,0.000,0.450,0.000,0.0000,0.0630,0.0000,1.0000,0.5000,1.0000,0.0000
9.195,Upwind,27.430,0.000,26.964,0.000,3.695,3.695,24.882,0.003,0.000,0.450,0.000,0.0000,0.0629,0.0000,1.0000,0.5000,1.0000,0.0000
9.394,Upwind,30.067,0.000,29.600,0.000,3.696,3.696,26.154,0.003,0.000,0.449,0.000,0.0000,0.0628,0.0000,1.0000,0.5000,1.0000,0.0000
9.591,Upwind,32.834,0.000,32.367,0.000,3.696,3.696,27.424,0.003,0.000,0.448,0.000,0.0000,0.0627,0.0000,1.0000,0.5000,1.0000,0.0000
9.798,Upwind,35.732,0.000,35.265,0.000,3.697,3.697,28.692,0.003,0.000,0.447,0.000,0.0000,0.0625,0.0000,1.0000,0.5000,1.0000,0.0000
9.999,Upwind,38.760,0.000,38.294,0.000,3.697,3.697,29.960,0.004,0.000,0.446,0.000,0.0000,0.0624,0.0000,1.0000,0.5000,1.0000,0.0000
10.192,Upwind,41.919,0.000,41.452,0.000,3.698,3.698,31.225,0.004,0.000,0.446,0.000,0.0000,0.0623,0.0000,1.0000,0.5000,1.0000,0.0000
10.403,Upwind,45.208,0.001,44.741,0.001,3.699,3.699,32.490,0.004,0.000,0.445,0.000,0.0000,0.0621,0.0000,1.0000,0.5000,1.0000,0.0000
10.602,Upwind,48.627,0.001,48.160,0.001,3.700,3.700,33.753,0.004,0.000,0.443,0.000,0.0000,0.0620,0.0000,1.0000,0.5000,1.0000,0.0000
10.802,Upwind,52.175,0.001,51.708,0.001,3.701,3.701,35.014,0.004,0.000,0.442,0.000,0.0000,0.0618,0.0000,1.0000,0.5000,1.0000,0.0000
10.990,Upwind,55.542,0.001,55.075,0.001,3.701,3.701,36.274,0.005,0.000,0.441,0.000,0.0000,0.0616,0.0000,1.0000,0.5000,1.0000,0.0000
11.201,Upwind,59.661,0.001,59.195,0.001,3.702,3.702,37.532,0.005,0.000,0.440,0.000,0.0000,0.0615,0.0000,1.0000,0.5000,1.0000,0.0000
11.400,Upwind,63.599,0.001,63.132,0.001,3.703,3.703,38.789,0.005,0.000,0.439,0.000,0.0000,0.0613,0.0000,1.0000,0.5000,1.0000,0.0000
11.599,Upwind,67.665,0.001,67.198,0.001,3.704,3.704,40.044,0.005,0.000,0.437,0.000,0.0000,0.0611,0.0000,1.0000,0.5000,1.0000,0.0000
11.790,Upwind,71.506,0.001,71.039,0.001,3.706,3.706,41.297,0.006,0.000,0.436,0.000,0.0000,0.0609,0.0000,1.0000,0.5000,1.0000,0.0000
11.996,Upwind,76.185,0.001,75.718,0.001,3.707,3.707,42.549,0.006,0.000,0.434,0.000,0.0000,0.0607,0.0000,1.0000,0.5000,1.0000,0.0000
12.196,Upwind,80.638,0.001,80.171,0.001,3.708,3.708,43.798,0.006,0.000,0.433,0.000,0.0000,0.0604,0.0000,1.0000,0.5000,1.0000,0.0000
12.396,Upwind,85.219,0.001,84.753,0.001,3.709,3.709,45.046,0.007,0.000,0.431,0.000,0.0000,0.0602,0.0000,1.0000,0.5000,1.0000,0.0000
12.599,Upwind,89.929,0.002,89.462,0.002,3.711,3.711,46.292,0.007,0.000,0.429,0.000,-0.0001,0.0599,0.0000,1.0000,0.5000,1.0000,0.0000
12.790,Upwind,94.359,0.002,93.892,0.002,3.712,3.712,47.536,0.008,0.000,0.427,0.000,-0.0001,0.0596,0.0000,1.0000,0.5000,1.0000,0.0000
12.998,Upwind,99.733,0.002,99.266,0.002,3.714,3.714,48.778,0.008,0.000,0.425,0.000,-0.0001,0.0593,0.0000,1.0000,0.5000,1.0000,0.0000
13.197,Upwind,104.826,0.002,104.359,0.002,3.715,3.715,50.018,0.009,0.000,0.423,0.000,-0.0001,0.0590,0.0000,1.0000,0.5000,1.0000,0.0000
13.394,Upwind,110.047,0.002,109.580,0.002,3.717,3.717,51.256,0.009,0.001,0.421,0.000,-0.0001,0.0587,0.0000,1.0000,0.5000,1.0000,0.0000
13.592,Upwind,115.395,0.002,114.928,0.002,3.719,3.719,52.491,0.009,0.001,0.418,0.000,-0.0001,0.0583,0.0000,1.0000,0.5000,1.0000,0.0000
13.803,Upwind,120.870,0.003,120.403,0.003,3.721,3.721,53.724,0.010,0.001,0.416,0.000,-0.0001,0.0580,0.0000,1.0000,0.5000,1.0000,0.0000
14.000,Upwind,126.472,0.003,126.005,0.003,3.723,3.723,54.955,0.010,0.001,0.414,0.000,-0.0001,0.0576,0.0000,1.0000,0.5000,1.0000,0.0000
14.198,Upwind,132.200,0.003,131.733,0.003,3.725,3.725,56.184,0.009,0.001,0.411,0.000,-0.0001,0.0573,0.0000,1.0000,0.5000,1.0000,0.0000
14.398,Upwind,138.055,0.003,137.588,0.003,3.726,3.726,57.411,0.008,0.001,0.409,0.000,-0.0001,0.0570,0.0000,1.0000,0.5000,1.0000,0.0000
14.598,Upwind,144.036,0.004,143.569,0.004,3.728,3.728,58.635,0.008,0.001,0.407,0.000,-0.0001,0.0567,0.0000,1.0000,0.5000,1.0000,0.0000
14.797,Upwind,150.142,0.004,149.675,0.004,3.730,3.730,59.858,0.008,0.001,0.405,0.000,-0.0001,0.0565,0.0000,1.0000,0.5000,1.0000,0.0000
14.991,Upwind,156.374,0.004,155.908,0.004,3.731,3.731,61.078,0.008,0.001,0.403,0.000,-0.0001,0.0562,0.0000,1.0000,0.5000,1.0000,0.0000
15.196,Upwind,162.732,0.005,162.265,0.005,3.733,3.733,62.297,0.008,0.001,0.400,0.000,-0.0001,0.0558,0.0000,1.0000,0.5000,1.0000,0.0000
15.398,Upwind,169.215,0.005,168.748,0.005,3.734,3.734,63.513,0.009,0.001,0.398,0.000,-0.0002,0.0555,0.0000,1.0000,0.5000,1.0000,0.0000
15.599,Upwind,175.823,0.005,175.356,0.005,3.736,3.736,64.727,0.009,0.001,0.396,0.000,-0.0002,0.0552,0.0000,1.0000,0.5000,1.0000,0.0000
15.798,Upwind,182.556,0.006,182.089,0.006,3.738,3.738,65.939,0.009,0.001,0.394,0.000,-0.0002,0.0549,0.0000,1.0000,0.5000,1.0000,0.0000
15.991,Upwind,189.413,0.006,188.946,0.006,3.740,3.740,67.148,0.009,0.002,0.392,0.000,-0.0002,0.0546,0.0000,1.0000,0.5000,1.0000,0.0000
16.191,Upwind,196.395,0.007,195.928,0.007,3.741,3.742,68.356,0.009,0.002,0.389,0.000,-0.0002,0.0543,0.0000,1.0000,0.5000,1.0000,0.0000
16.394,Upwind,203.500,0.007,203.033,0.007,3.743,3.743,69.561,0.009,0.002,0.387,0.000,-0.0002,0.0539,0.0000,1.0000,0.5000,1.0000,0.0000
16.593,Upwind,210.730,0.007,210.263,0.007,3.745,3.745,70.764,0.009,0.002,0.384,0.000,-0.0002,0.0536,0.0000,1.0000,0.5000,1.0000,0.0000
16.794,Upwind,218.083,0.008,217.616,0.008,3.747,3.747,71.964,0.010,0.002,0.382,0.000,-0.0003,0.0532,0.0000,1.0000,0.5000,1.0000,0.0000
17.001,Upwind,225.560,0.009,225.093,0.009,3.749,3.749,73.163,0.010,0.002,0.380,0.000,-0.0003,0.0529,0.0000,1.0000,0.5000,1.0000,0.0000
17.201,Upwind,233.159,0.009,232.693,0.009,3.751,3.751,74.359,0.010,0.002,0.377,0.000,-0.0003,0.0525,0.0000,1.0000,0.5000,1.0000,0.0000
17.394,Upwind,240.882,0.010,240.415,0.010,3.753,3.753,75.552,0.010,0.003,0.375,0.000,-0.0003,0.0522,0.0000,1.0000,0.5000,1.0000,0.0000
17.595,Upwind,248.728,0.010,248.261,0.010,3.755,3.755,76.743,0.010,0.003,0.372,0.000,-0.0003,0.0518,0.0000,1.0000,0.5000,1.0000,0.0000
17.797,Upwind,256.695,0.011,256.228,0.011,3.757,3.757,77.932,0.010,0.003,0.369,0.000,-0.0003,0.0515,0.0000,1.0000,0.5000,1.0000,0.0000
17.990,Upwind,264.106,0.012,263.640,0.012,3.759,3.759,79.119,0.010,0.003,0.367,0.000,-0.0004,0.0511,0.0000,1.0000,0.5000,1.0000,0.0000
18.199,Upwind,272.997,0.013,272.530,0.013,3.761,3.761,80.303,0.010,0.003,0.364,0.000,-0.0004,0.0507,0.0000,1.0000,0.5000,1.0000,0.0000
18.399,Upwind,281.331,0.013,280.864,0.013,3.763,3.763,81.484,0.011,0.003,0.361,0.000,-0.0004,0.0503,0.0000,1.0000,0.5000,1.0000,0.0000
18.595,Upwind,289.786,0.014,289.319,0.014,3.765,3.765,82.663,0.011,0.004,0.359,0.000,-0.0004,0.0500,0.0000,1.0000,0.5000,1.0000,0.0000
18.795,Upwind,298.362,0.015,297.895,0.015,3.767,3.767,83.840,0.011,0.004,0.356,0.000,-0.0005,0.0496,0.0000,1.0000,0.5000,1.0000,0.0000
19.001,Upwind,307.059,0.016,306.592,0.016,3.769,3.769,85.014,0.011,0.004,0.353,0.000,-0.0005,0.0492,0.0000,1.0000,0.5000,1.0000,0.0000
19.199,Upwind,315.877,0.017,315.410,0.017,3.772,3.772,86.186,0.011,0.004,0.350,0.000,-0.0005,0.0488,0.0000,1.0000,0.5000,1.0000,0.0000
19.391,Upwind,324.066,0.018,323.599,0.018,3.774,3.774,87.355,0.011,0.004,0.348,0.000,-0.0005,0.0484,0.0000,1.0000,0.5000,1.0000,0.0000
19.601,Upwind,333.873,0.019,333.406,0.019,3.776,3.776,88.521,0.011,0.005,0.345,0.000,-0.0006,0.0480,0.0000,1.0000,0.5000,1.0000,0.0000
19.799,Upwind,343.051,0.020,342.584,0.020,3.778,3.778,89.685,0.011,0.005,0.342,0.000,-0.0006,0.0476,0.0000,1.0000,0.5000,1.0000,0.0000
19.996,Upwind,352.349,0.022,351.882,0.022,3.781,3.781,90.846,0.012,0.005,0.339,0.000,-0.0006,0.0472,0.0000,1.0000,0.5000,1.0000,0.0000
20.193,Upwind,361.766,0.023,361.299,0.023,3.783,3.783,92.005,0.012,0.005,0.336,0.000,-0.0007,0.0468,0.0000,1.0000,0.5000,1.0000,0.0000
20.393,Upwind,371.302,0.024,370.835,0.024,3.785,3.785,93.161,0.012,0.006,0.333,0.000,-0.0007,0.0463,0.0000,1.0000,0.5000,1.0000,0.0000
20.598,Upwind,380.957,0.026,380.490,0.026,3.788,3.788,94.314,0.012,0.006,0.330,0.000,-0.0007,0.0459,0.0000,1.0000,0.5000,1.0000,0.0000
20.799,Upwind,390.730,0.027,390.264,0.027,3.790,3.790,95.465,0.012,0.006,0.327,0.000,-0.0008,0.0455,0.0000,1.0000,0.5000,1.0000,0.0000
20.996,Upwind,400.622,0.029,400.155,0.029,3.792,3.792,96.613,0.012,0.007,0.324,0.000,-0.0008,0.0451,0.0000,1.0000,0.5000,1.0000,0.0000
21.195,Upwind,410.632,0.030,410.165,0.030,3.795,3.795,97.758,0.012,0.007,0.321,0.000,-0.0008,0.0446,0.0000,1.0000,0.5000,1.0000,0.0000
21.395,Upwind,420.759,0.032,420.292,0.032,3.797,3.797,98.901,0.012,0.007,0.318,0.000,-0.0009,0.0442,0.0000,1.0000,0.5000,1.0000,0.0000
21.601,Upwind,431.004,0.034,430.537,0.034,3.800,3.800,100.041,0.012,0.008,0.315,0.000,-0.0009,0.0438,0.0000,1.0000,0.5000,1.0000,0.0000
21.794,Upwind,441.366,0.036,440.899,0.036,3.802,3.802,101.178,0.013,0.008,0.312,0.000,-0.0010,0.0433,0.0000,1.0000,0.5000,1.0000,0.0000
21.995,Upwind,451.844,0.038,451.378,0.038,3.805,3.805,102.312,0.013,0.008,0.308,0.000,-0.0010,0.0429,0.0000,1.0000,0.5000,1.0000,0.0000
22.195,Upwind,462.440,0.040,461.973,0.040,3.807,3.807,103.444,0.013,0.009,0.305,0.000,-0.0010,0.0424,0.0000,1.0000,0.5000,1.0000,0.0000
22.394,Upwind,473.151,0.042,472.684,0.042,3.810,3.810,104.572,0.013,0.009,0.302,0.000,-0.0011,0.0420,0.0000,1.0000,0.5000,1.0000,0.0000
22.601,Upwind,483.979,0.044,483.512,0.044,3.812,3.812,105.698,0.013,0.009,0.299,0.000,-0.0011,0.0415,0.0000,1.0000,0.5000,1.0000,0.0000
22.799,Upwind,494.921,0.046,494.455,0.046,3.815,3.815,106.821,0.013,0.010,0.296,0.000,-0.0012,0.0411,0.0000,1.0000,0.5000,1.0000,0.0000
22.993,Upwind,505.980,0.049,505.513,0.049,3.817,3.817,107.848,0.013,0.010,0.293,0.000,-0.0012,0.0406,0.0000,1.0000,0.5000,1.0000,0.0000
23.200,Upwind,517.154,0.051,516.687,0.051,3.820,3.820,109.059,0.013,0.010,0.289,0.000,-0.0013,0.0401,0.0000,1.0000,0.5000,1.0000,0.0000
23.394,Upwind,528.442,0.054,527.975,0.054,3.823,3.823,110.174,0.013,0.011,0.286,0.000,-0.0013,0.0397,0.0000,1.0000,0.5000,1.0000,0.0000
23.593,Upwind,539.845,0.056,539.378,0.056,3.825,3.825,111.285,0.013,0.011,0.282,0.000,-0.0014,0.0392,0.0000,1.0000,0.5000,1.0000,0.0000
23.798,Upwind,551.362,0.059,550.895,0.059,3.828,3.828,112.394,0.013,0.012,0.279,-0.001,-0.0014,0.0387,0.0000,1.0000,0.5000,1.0000,0.0000
23.995,Upwind,562.993,0.062,562.526,0.062,3.831,3.831,113.500,0.014,0.012,0.276,-0.001,-0.0015,0.0382,0.0000,1.0000,0.5000,1.0000,0.0000
24.192,Upwind,574.738,0.065,574.271,0.065,3.833,3.833,114.603,0.014,0.013,0.272,-0.001,-0.0015,0.0378,0.0000,1.0000,0.5000,1.0000,0.0000
24.392,Upwind,586.596,0.068,586.129,0.068,3.836,3.836,115.703,0.014,0.013,0.269,-0.001,-0.0016,0.0373,0.0000,1.0000,0.5000,1.0000,0.0000
24.591,Upwind,598.567,0.072,598.100,0.072,3.839,3.839,116.800,0.014,0.013,0.265,-0.001,-0.0017,0.0368,0.0000,1.0000,0.5000,1.0000,0.0000
24.793,Upwind,610.651,0.075,610.184,0.075,3.842,3.842,117.894,0.014,0.014,0.262,-0.001,-0.0017,0.0363,0.0000,1.0000,0.5000,1.0000,0.0000
24.997,Upwind,622.847,0.079,622.380,0.079,3.844,3.844,118.985,0.014,0.014,0.258,-0.001,-0.0018,0.0358,0.0000,1.0000,0.5000,1.0000,0.0000
25.197,Upwind,635.155,0.082,634.688,0.082,3.847,3.847,120.073,0.014,0.015,0.255,-0.001,-0.0018,0.0353,0.0000,1.0000,0.5000,1.0000,0.0000
25.397,Upwind,647.575,0.086,647.108,0.086,3.850,3.850,121.159,0.014,0.015,0.251,-0.001,-0.0019,0.0349,0.0000,1.0000,0.5000,1.0000,0.0000
25.593,Upwind,660.106,0.090,659.640,0.090,3.853,3.853,122.241,0.014,0.016,0.248,-0.001,-0.0020,0.0344,0.0000,1.0000,0.5000,1.0000,0.0000
25.792,Upwind,672.749,0.094,672.282,0.094,3.855,3.855,123.320,0.014,0.016,0.244,-0.001,-0.0020,0.0339,0.0000,1.0000,0.5000,1.0000,0.0000
25.992,Upwind,685.503,0.099,685.036,0.099,3.858,3.858,124.396,0.014,0.017,0.241,-0.001,-0.0021,0.0334,0.0000,1.0000,0.5000,1.0000,0.0000
26.190,Upwind,697.290,0.103,696.824,0.103,3.861,3.861,125.469,0.014,0.017,0.237,-0.001,-0.0022,0.0329,0.0000,1.0000,0.5000,1.0000,0.0000
26.401,Upwind,711.341,0.107,710.874,0.107,3.864,3.864,126.539,0.014,0.018,0.234,-0.001,-0.0022,0.0324,0.0000,1.0000,0.5000,1.0000,0.0000
26.599,Upwind,724.425,0.112,723.958,0.112,3.867,3.867,127.606,0.014,0.018,0.230,-0.001,-0.0023,0.0319,0.0000,1.0000,0.5000,1.0000,0.0000
26.794,Upwind,737.619,0.117,737.152,0.117,3.870,3.870,128.670,0.015,0.019,0.227,-0.001,-0.0024,0.0314,0.0000,1.0000,0.5000,1.0000,0.0000
27.003,Upwind,750.922,0.122,750.455,0.122,3.873,3.873,129.731,0.015,0.019,0.223,-0.002,-0.0024,0.0309,0.0000,1.0000,0.5000,1.0000,0.0000
27.200,Upwind,764.334,0.127,763.867,0.127,3.876,3.876,130.789,0.015,0.020,0.219,-0.002,-0.0025,0.0303,0.0000,1.0000,0.5000,1.0000,0.0000
27.398,Upwind,777.855,0.133,777.388,0.133,3.878,3.879,131.843,0.015,0.020,0.216,-0.002,-0.0026,0.0298,0.0000,1.0000,0.5000,1.0000,0.0000
27.595,Upwind,791.484,0.138,791.017,0.138,3.881,3.881,132.895,0.015,0.021,0.212,-0.002,-0.0027,0.0293,0.0000,1.0000,0.5000,1.0000,0.0000
27.790,Upwind,804.072,0.143,803.605,0.143,3.884,3.884,133.944,0.015,0.021,0.208,-0.002,-0.0027,0.0288,0.0000,1.0000,0.5000,1.0000,0.0000
27.991,Upwind,819.065,0.150,818.598,0.150,3.887,3.887,134.990,0.015,0.022,0.205,-0.002,-0.0028,0.0283,0.0000,1.0000,0.5000,1.0000,0.0000
28.197,Upwind,833.018,0.156,832.551,0.156,3.890,3.890,136.034,0.015,0.023,0.201,-0.002,-0.0029,0.0278,0.0000,1.0000,0.5000,1.0000,0.0000
28.406,Upwind,847.077,0.162,846.611,0.162,3.893,3.893,137.075,0.015,0.023,0.197,-0.002,-0.0030,0.0273,0.0000,1.0000,0.5000,1.0000,0.0000
28.596,Upwind,861.244,0.168,860.777,0.168,3.896,3.896,138.113,0.015,0.024,0.194,-0.002,-0.0031,0.0267,0.0000,1.0000,0.5000,1.0000,0.0000
28.800,Upwind,875.517,0.175,875.050,0.175,3.899,3.899,139.149,0.015,0.024,0.190,-0.002,-0.0032,0.0262,0.0000,1.0000,0.5000,1.0000,0.0000
29.001,Upwind,889.897,0.182,889.430,0.182,3.902,3.902,140.182,0.015,0.025,0.186,-0.002,-0.0032,0.0257,0.0000,1.0000,0.5000,1.0000,0.0000
29.197,Upwind,904.382,0.189,903.916,0.189,3.905,3.905,141.213,0.015,0.025,0.182,-0.003,-0.0033,0.0252,0.0000,1.0000,0.5000,1.0000,0.0000
29.395,Upwind,918.974,0.196,918.507,0.196,3.908,3.908,142.240,0.015,0.026,0.179,-0.003,-0.0034,0.0246,0.0000,1.0000,0.5000,1.0000,0.0000
29.594,Upwind,933.671,0.203,933.205,0.203,3.911,3.911,143.265,0.015,0.027,0.175,-0.003,-0.0035,0.0241,0.0000,1.0000,0.5000,1.0000,0.0000
29.848,Upwind,952.191,0.213,951.724,0.213,3.915,3.915,144.287,0.015,0.027,0.171,-0.003,-0.0036,0.0236,0.0000,1.0000,0.5000,1.0000,0.0000
30.001,Upwind,963.381,0.219,962.915,0.219,3.918,3.918,145.307,0.015,0.028,0.167,-0.003,-0.0037,0.0231,0.0000,1.0000,0.5000,1.0000,0.0000
30.195,Upwind,978.394,0.227,977.927,0.227,3.921,3.921,146.324,0.016,0.028,0.164,-0.003,-0.0038,0.0225,0.0000,1.0000,0.5000,1.0000,0.0000
30.392,Upwind,993.510,0.235,993.044,0.235,3.924,3.924,147.338,0.016,0.029,0.160,-0.003,-0.0039,0.0220,0.0000,1.0000,0.5000,1.0000,0.0000
30.601,Upwind,1008.731,0.244,1008.265,0.244,3.927,3.927,148.349,0.016,0.029,0.156,-0.003,-0.0040,0.0215,0.0000,1.0000,0.5000,1.0000,0.0000
30.794,Upwind,1024.056,0.252,1023.589,0.252,3.930,3.930,149.358,0.016,0.030,0.152,-0.004,-0.0041,0.0209,0.0000,1.0000,0.5000,1.0000,0.0000
31.006,Upwind,1039.484,0.261,1039.018,0.261,3.933,3.933,150.363,0.015,0.031,0.148,-0.004,-0.0042,-0.0186,0.0000,1.0000,0.5000,1.0000,0.0000
31.191,Upwind,1055.016,0.270,1054.549,0.270,3.935,3.935,151.365,0.004,0.031,0.153,-0.004,-0.0043,-0.1020,0.0000,1.0000,0.5000,1.0000,0.0000
31.400,Upwind,1070.651,0.280,1070.184,0.280,3.935,3.935,152.359,-0.008,0.032,0.169,-0.004,-0.0044,-0.1960,0.0000,1.0000,0.5000,1.0000,0.0000
31.591,Upwind,1085.071,0.288,1084.604,0.288,3.933,3.933,153.345,-0.006,0.033,0.189,-0.004,-0.0044,-0.2818,0.0000,1.0000,0.5000,1.0000,0.0000
31.795,Upwind,1102.224,0.299,1101.757,0.299,3.932,3.932,154.323,-0.002,0.033,0.205,-0.004,-0.0046,-0.3738,0.0000,1.0000,0.5000,1.0000,0.0000
31.990,Upwind,1116.829,0.308,1116.362,0.308,3.932,3.932,155.292,0.005,0.034,0.223,-0.005,-0.0047,-0.4614,0.0000,1.0000,0.5000,1.0000,0.0000
32.201,Upwind,1134.197,0.319,1133.730,0.319,3.936,3.936,156.252,0.031,0.035,0.273,-0.005,-0.0048,-0.5561,0.0000,1.0000,0.5000,1.0000,0.0000
32.394,Upwind,1150.332,0.330,1149.865,0.330,3.945,3.945,157.203,0.070,0.035,0.403,-0.005,-0.0049,-0.6433,0.0000,1.0000,0.5000,1.0000,0.0000
32.594,Upwind,1166.563,0.341,1166.096,0.341,3.965,3.965,158.144,0.131,0.036,0.654,-0.005,-0.0050,-0.6500,0.0000,1.0000,0.5000,1.0000,0.0000
32.798,Upwind,1182.892,0.352,1182.425,0.352,3.998,3.998,159.079,0.194,0.037,1.030,-0.005,-0.0052,-0.6500,0.0000,1.0000,0.5000,1.0000,0.0000
32.991,Upwind,1199.315,0.363,1198.849,0.363,4.042,4.042,160.006,0.248,0.038,1.521,-0.005,-0.0053,-0.6500,0.0000,1.0000,0.5000,1.0000,0.0000
33.198,Upwind,1215.834,0.374,1215.368,0.374,4.096,4.096,160.923,0.295,0.038,2.118,-0.006,-0.0054,-0.6500,0.0000,1.0000,0.5000,1.0000,0.0000
33.396,Upwind,1232.447,0.386,1231.980,0.386,4.160,4.160,161.830,0.337,0.039,2.813,-0.006,-0.0055,-0.6500,0.0000,1.0000,0.5000,1.0000,0.0000
33.595,Upwind,1249.152,0.398,1248.685,0.398,4.231,4.231,162.723,0.374,0.040,3.594,-0.006,-0.0056,-0.6500,0.0000,1.0000,0.5000,1.0000,0.0000
33.801,Upwind,1265.948,0.411,1265.481,0.411,4.325,4.325,163.597,0.655,0.041,4.447,-0.009,-0.0053,-0.6500,0.0000,1.0000,0.5000,1.0000,0.0000
33.995,Upwind,1282.832,0.423,1282.365,0.423,4.527,4.527,164.441,1.451,0.041,5.337,-0.017,-0.0048,-0.6500,0.0000,1.0000,0.5000,1.0000,0.0000
34.192,Upwind,1299.801,0.436,1299.334,0.436,4.936,4.936,165.248,2.713,0.042,6.229,-0.029,-0.0043,-0.6500,0.0000,1.0000,0.5000,1.0000,0.0000
34.397,Upwind,1316.849,0.449,1316.382,0.449,5.639,5.639,166.013,4.372,0.042,7.097,-0.044,-0.0037,-0.6500,0.0000,1.0000,0.5000,1.0000,0.0000
34.592,Upwind,1333.972,0.462,1333.505,0.462,6.706,6.706,166.732,6.347,0.042,7.924,-0.059,-0.0031,-0.6500,0.0000,1.0000,0.5000,1.0000,0.0000
34.800,Upwind,1351.163,0.475,1350.696,0.475,8.193,8.193,167.402,8.550,0.041,8.698,-0.074,-0.0025,-0.6500,0.0000,1.0000,0.5000,1.0000,0.0000
34.996,Upwind,1368.416,0.487,1367.949,0.487,10.135,10.135,168.021,10.897,0.040,9.417,-0.089,-0.0020,-0.6500,0.0000,1.0000,0.5000,1.0000,0.0000
35.193,Upwind,1385.724,0.499,1385.258,0.499,12.559,12.559,168.589,13.358,0.038,10.081,-0.102,-0.0015,-0.6500,0.0000,1.0000,0.5000,1.0000,0.0000
35.396,Upwind,1403.082,0.510,1402.615,0.510,15.483,15.483,169.106,15.888,0.036,10.694,-0.113,-0.0010,-0.6500,0.0000,1.0000,0.5000,1.0000,0.0000
35.598,Upwind,1420.482,0.521,1420.015,0.521,18.917,18.917,169.574,18.450,0.033,11.263,-0.122,-0.0005,-0.6254,0.0000,1.0000,0.5000,1.0000,0.0000
35.794,Upwind,1437.918,0.531,1437.451,0.531,22.863,22.863,169.998,21.009,0.029,11.783,-0.128,-0.0001,-0.5961,0.0001,1.0000,0.5000,1.0000,0.0000
35.998,Upwind,1455.385,0.541,1454.918,0.541,27.318,27.318,170.379,23.531,0.025,12.245,-0.133,0.0003,-0.5654,0.0001,1.0000,0.5000,1.0000,0.0000
36.196,Upwind,1472.878,0.549,1472.411,0.549,32.271,32.272,170.723,25.995,0.021,12.645,-0.135,0.0007,-0.5357,0.0001,1.0000,0.5000,1.0000,0.0000
36.396,Upwind,1490.392,0.556,1489.925,0.556,37.710,37.710,171.032,28.376,0.016,12.980,-0.135,0.0010,-0.5057,0.0001,1.0000,0.5000,1.0000,0.0000
36.602,Upwind,1507.923,0.563,1507.457,0.563,43.616,43.616,171.311,30.666,0.011,13.248,-0.134,0.0013,-0.4749,0.0001,1.0000,0.5000,1.0000,0.0000
36.793,Upwind,1525.469,0.569,1525.002,0.569,49.969,49.969,171.563,32.843,0.007,13.450,-0.131,0.0015,-0.4461,0.0001,1.0000,0.5000,1.0000,0.0000
36.993,Upwind,1543.027,0.574,1542.560,0.574,56.744,56.745,171.792,34.887,0.002,13.589,-0.126,0.0017,-0.4161,0.0001,1.0000,0.5000,1.0000,0.0000
37.200,Upwind,1560.594,0.578,1560.128,0.578,63.914,63.914,172.003,36.780,359.999,13.667,-0.121,0.0018,-0.3851,0.0001,1.0000,0.5000,1.0000,0.0000
37.401,Upwind,1578.171,0.581,1577.704,0.581,71.446,71.446,172.199,38.517,359.995,13.688,-0.115,0.0019,-0.3550,0.0001,1.0000,0.5000,1.0000,0.0000
37.598,Upwind,1595.756,0.584,1595.289,0.584,79.309,79.310,172.386,40.086,359.993,13.657,-0.108,0.0018,-0.3254,0.0001,1.0000,0.5000,1.0000,0.0000
37.793,Upwind,1613.349,0.585,1612.883,0.585,87.468,87.469,172.568,41.476,359.990,13.574,-0.101,0.0018,-0.2961,0.0000,1.0000,0.5000,1.0000,0.0000
37.997,Upwind,1630.953,0.587,1630.486,0.587,95.888,95.888,172.746,42.687,359.989,13.445,-0.094,0.0016,-0.2656,0.0000,1.0000,0.5000,1.0000,0.0000
38.195,Upwind,1648.566,0.587,1648.099,0.587,104.531,104.531,172.923,43.711,359.988,13.271,-0.087,0.0015,-0.2358,0.0000,0.9993,0.5000,1.0000,0.0000
38.401,Upwind,1666.193,0.588,1665.726,0.588,113.360,113.360,173.098,44.550,359.988,13.055,-0.081,0.0013,-0.2308,0.0000,0.9968,0.5000,1.0000,0.0000
38.597,Upwind,1683.832,0.587,1683.365,0.587,122.337,122.337,173.268,45.183,359.988,12.812,-0.075,0.0010,-0.2845,0.0000,0.9945,0.5000,1.0000,0.0000
38.801,Upwind,1701.487,0.587,1701.020,0.587,131.420,131.420,173.432,45.616,359.989,12.588,-0.069,0.0008,-0.3291,0.0000,0.9921,0.5000,1.0000,0.0000
38.992,Upwind,1719.157,0.586,1718.690,0.586,140.573,140.573,173.592,45.896,359.989,12.425,-0.064,0.0005,-0.3576,0.0000,0.9899,0.5000,1.0000,0.0000
39.203,Upwind,1736.844,0.585,1736.377,0.585,149.772,149.773,173.747,46.086,359.990,12.343,-0.059,0.0003,-0.3675,0.0000,0.9877,0.5000,1.0000,0.0000
39.400,Upwind,1754.548,0.583,1754.081,0.583,159.005,159.006,173.896,46.246,359.991,12.343,-0.055,0.0002,-0.3603,0.0000,0.9856,0.5000,1.0000,0.0000
39.603,Upwind,1772.267,0.582,1771.800,0.582,168.271,168.272,174.037,46.426,359.991,12.410,-0.052,0.0000,-0.3403,0.0000,0.9836,0.5000,1.0000,0.0000
39.796,Upwind,1790.001,0.580,1789.535,0.580,177.579,177.579,174.170,46.658,359.992,12.521,-0.050,-0.0001,-0.3138,0.0000,0.9818,0.5000,1.0000,0.0000
40.003,Upwind,1807.749,0.578,1807.282,0.578,186.939,186.940,174.294,46.954,359.992,12.649,-0.048,-0.0002,-0.2852,0.0000,0.9800,0.5000,1.0000,0.0000
40.204,Upwind,1825.508,0.576,1825.041,0.576,196.364,196.365,174.408,47.309,359.993,12.768,-0.047,-0.0002,-0.2608,0.0000,0.9784,0.5000,1.0000,0.0000
40.402,Upwind,1843.277,0.574,1842.810,0.574,205.865,205.866,174.512,47.703,359.993,12.861,-0.045,-0.0003,-0.2436,0.0000,0.9770,0.5000,1.0000,0.0000
40.600,Upwind,1861.055,0.572,1860.588,0.572,215.446,215.447,174.608,48.112,359.993,12.919,-0.045,-0.0003,-0.2346,0.0000,0.9756,0.5000,1.0000,0.0000
40.790,Upwind,1877.358,0.570,1876.891,0.570,225.109,225.110,174.697,48.509,359.993,12.939,-0.044,-0.0002,-0.2331,0.0000,0.9744,0.5000,1.0000,0.0000
40.990,Upwind,1895.151,0.568,1894.684,0.568,234.848,234.849,174.779,48.875,359.993,12.929,-0.044,-0.0002,-0.2379,0.0000,0.9732,0.5000,1.0000,0.0000
41.193,Upwind,1914.435,0.566,1913.968,0.566,244.655,244.657,174.856,49.194,359.992,12.898,-0.044,-0.0002,-0.2462,0.0000,0.9721,0.5000,1.0000,0.0000
41.396,Upwind,1932.243,0.563,1931.776,0.563,254.522,254.523,174.929,49.464,359.992,12.858,-0.044,-0.0001,-0.2551,0.0000,0.9711,0.5000,1.0000,0.0000
41.603,Upwind,1950.059,0.561,1949.592,0.561,264.438,264.439,174.998,49.687,359.991,12.821,-0.044,-0.0001,-0.2626,0.0000,0.9701,0.5000,1.0000,0.0000
41.797,Upwind,1967.882,0.558,1967.416,0.558,274.394,274.395,175.063,49.872,359.991,12.793,-0.044,0.0000,-0.2673,0.0000,0.9692,0.5000,1.0000,0.0000
42.003,Upwind,1985.714,0.556,1985.247,0.556,284.384,284.386,175.125,50.031,359.990,12.781,-0.044,0.0000,-0.2686,0.0000,0.9684,0.5000,1.0000,0.0000
42.203,Upwind,2003.552,0.553,2003.085,0.553,294.405,294.407,175.183,50.176,359.990,12.783,-0.044,0.0001,-0.2666,0.0000,0.9675,0.5000,1.0000,0.0000
42.398,Upwind,2021.397,0.550,2020.930,0.550,304.455,304.456,175.239,50.318,359.989,12.799,-0.043,0.0001,-0.2623,0.0000,0.9668,0.5000,1.0000,0.0000
42.606,Upwind,2039.249,0.548,2038.782,0.547,314.532,314.534,175.290,50.463,359.989,12.822,-0.043,0.0002,-0.2566,0.0000,0.9661,0.5000,1.0000,0.0000
42.803,Upwind,2057.107,0.545,2056.641,0.545,324.640,324.642,175.338,50.614,359.988,12.849,-0.042,0.0002,-0.2506,0.0000,0.9654,0.5000,1.0000,0.0000
42.991,Upwind,2074.971,0.542,2074.505,0.542,334.778,334.780,175.382,50.770,359.988,12.875,-0.042,0.0002,-0.2452,0.0000,0.9648,0.5000,1.0000,0.0000
43.191,Upwind,2092.841,0.539,2092.375,0.539,344.948,344.950,175.423,50.930,359.988,12.896,-0.041,0.0003,-0.2412,0.0000,0.9642,0.5000,1.0000,0.0000
43.393,Upwind,2110.716,0.535,2110.249,0.535,355.150,355.152,175.461,51.087,359.987,12.910,-0.040,0.0002,-0.2388,0.0000,0.9637,0.5000,1.0000,0.0000
43.590,Upwind,2127.105,0.533,2126.638,0.533,364.529,364.531,175.493,51.226,359.987,12.917,-0.039,0.0002,-0.2379,0.0000,0.9632,0.5000,1.0000,0.0000
43.794,Upwind,2146.480,0.529,2146.013,0.529,375.645,375.646,175.528,51.380,359.987,12.919,-0.038,0.0002,-0.2381,0.0000,0.9627,0.5000,1.0000,0.0000
43.991,Upwind,2164.369,0.526,2163.902,0.526,385.934,385.936,175.558,51.508,359.987,12.916,-0.037,0.0002,-0.2390,0.0000,0.9623,0.5000,1.0000,0.0000
44.193,Upwind,2182.262,0.522,2181.795,0.522,396.247,396.249,175.586,51.624,359.987,12.911,-0.036,0.0002,-0.2401,0.0000,0.9619,0.5000,1.0000,0.0000
44.406,Upwind,2200.159,0.519,2199.693,0.519,406.582,406.584,175.611,51.727,359.987,12.906,-0.035,0.0002,-0.2411,0.0000,0.9615,0.5000,1.0000,0.0000
44.596,Upwind,2218.062,0.516,2217.595,0.516,416.937,416.939,175.636,51.820,359.987,12.903,-0.034,0.0002,-0.2415,0.0000,0.9612,0.5000,1.0000,0.0000
44.795,Upwind,2235.968,0.512,2235.501,0.512,427.310,427.312,175.658,51.904,359.987,12.902,-0.033,0.0001,-0.2414,0.0000,0.9609,0.5000,1.0000,0.0000
44.998,Upwind,2253.878,0.509,2253.411,0.509,437.698,437.700,175.679,51.983,359.987,12.904,-0.033,0.0001,-0.2407,0.0000,0.9606,0.5000,1.0000,0.0000
45.196,Upwind,2271.792,0.505,2271.326,0.505,448.102,448.104,175.698,52.057,359.987,12.909,-0.032,0.0001,-0.2396,0.0000,0.9603,0.5000,1.0000,0.0000
45.394,Upwind,2289.711,0.502,2289.244,0.502,458.521,458.523,175.715,52.130,359.987,12.915,-0.031,0.0001,-0.2382,0.0000,0.9601,0.5000,1.0000,0.0000
45.596,Upwind,2307.633,0.499,2307.166,0.499,468.954,468.956,175.732,52.201,359.987,12.921,-0.030,0.0001,-0.2368,0.0000,0.9598,0.5000,1.0000,0.0000
45.799,Upwind,2325.559,0.495,2325.092,0.495,479.401,479.403,175.746,52.270,359.987,12.927,-0.030,0.0001,-0.2355,0.0000,0.9596,0.5000,1.0000,0.0000
45.997,Upwind,2343.488,0.492,2343.021,0.492,489.862,489.864,175.760,52.338,359.988,12.932,-0.029,0.0000,-0.2345,0.0000,0.9594,0.5000,1.0000,0.0000
46.191,Upwind,2359.926,0.489,2359.459,0.488,500.336,500.339,175.772,52.403,359.988,12.936,-0.029,0.0000,-0.2337,0.0000,0.9593,0.5000,1.0000,0.0000
46.396,Upwind,2379.356,0.485,2378.890,0.485,510.823,510.825,175.783,52.466,359.988,12.939,-0.028,0.0000,-0.2333,0.0000,0.9591,0.5000,1.0000,0.0000
46.596,Upwind,2397.295,0.482,2396.829,0.482,521.322,521.325,175.792,52.524,359.988,12.940,-0.028,0.0000,-0.2331,0.0000,0.9590,0.5000,1.0000,0.0000
46.797,Upwind,2415.238,0.478,2414.771,0.478,531.832,531.835,175.801,52.578,359.988,12.941,-0.028,0.0000,-0.2330,0.0000,0.9589,0.5000,1.0000,0.0000
46.996,Upwind,2433.183,0.475,2432.716,0.475,542.353,542.356,175.809,52.629,359.988,12.941,-0.028,0.0001,-0.2330,0.0000,0.9587,0.5000,1.0000,0.0000
47.195,Upwind,2451.132,0.472,2450.665,0.472,552.883,552.886,175.816,52.675,359.988,12.941,-0.028,0.0000,-0.2330,0.0000,0.9587,0.5000,1.0000,0.0000
47.394,Upwind,2469.083,0.468,2468.616,0.468,563.423,563.425,175.822,52.718,359.988,12.941,-0.027,0.0001,-0.2330,0.0000,0.9586,0.5000,1.0000,0.0000
47.592,Upwind,2487.037,0.465,2486.570,0.465,573.970,573.973,175.828,52.757,359.988,12.942,-0.027,0.0000,-0.2328,0.0000,0.9585,0.5000,1.0000,0.0000
47.805,Upwind,2504.995,0.462,2504.528,0.462,584.525,584.528,175.832,52.795,359.988,12.943,-0.027,0.0001,-0.2325,0.0000,0.9584,0.5000,1.0000,0.0000
47.997,Upwind,2522.955,0.459,2522.488,0.459,595.088,595.091,175.836,52.830,359.988,12.944,-0.027,0.0000,-0.2322,0.0000,0.9584,0.5000,1.0000,0.0000
48.199,Upwind,2540.918,0.455,2540.451,0.455,605.657,605.660,175.840,52.864,359.988,12.946,-0.027,0.0000,-0.2318,0.0000,0.9583,0.5000,1.0000,0.0000
48.400,Upwind,2558.884,0.452,2558.417,0.452,616.233,616.236,175.842,52.896,359.989,12.948,-0.027,0.0000,-0.2314,0.0000,0.9583,0.5000,1.0000,0.0000
48.596,Upwind,2576.853,0.449,2576.386,0.449,626.815,626.819,175.845,52.927,359.989,12.949,-0.026,0.0000,-0.2310,0.0000,0.9582,0.5000,1.0000,0.0000
48.799,Upwind,2594.824,0.446,2594.357,0.446,637.404,637.407,175.846,52.956,359.989,12.951,-0.026,0.0000,-0.2307,0.0000,0.9582,0.5000,1.0000,0.0000
49.002,Upwind,2612.798,0.443,2612.331,0.443,647.998,648.001,175.847,52.985,359.989,12.952,-0.026,0.0001,-0.2305,0.0000,0.9582,0.5000,1.0000,0.0000
49.198,Upwind,2630.774,0.440,2630.308,0.440,658.597,658.601,175.848,53.011,359.989,12.953,-0.026,0.0000,-0.2303,0.0000,0.9582,0.5000,1.0000,0.0000
49.394,Upwind,2648.753,0.437,2648.286,0.437,669.202,669.205,175.848,53.037,359.989,12.953,-0.026,0.0000,-0.2302,0.0000,0.9582,0.5000,1.0000,0.0000
49.590,Upwind,2665.236,0.435,2664.770,0.434,679.812,679.815,175.847,53.060,359.989,12.954,-0.026,0.0000,-0.2301,0.0000,0.9582,0.5000,1.0000,0.0000
49.801,Upwind,2684.719,0.431,2684.252,0.431,690.426,690.429,175.846,53.082,359.989,12.954,-0.026,0.0000,-0.2301,0.0000,0.9582,0.5000,1.0000,0.0000
50.003,Upwind,2702.706,0.429,2702.239,0.428,701.045,701.048,175.845,53.103,359.989,12.955,-0.026,0.0001,-0.2300,0.0000,0.9582,0.5000,1.0000,0.0000
50.197,Upwind,2720.695,0.426,2720.228,0.426,711.667,711.671,175.844,53.122,359.990,12.955,-0.026,0.0000,-0.2299,0.0000,0.9583,0.5000,1.0000,0.0000
50.392,Upwind,2738.687,0.423,2738.220,0.423,722.293,722.297,175.842,53.140,359.990,12.955,-0.026,0.0000,-0.2298,0.0000,0.9583,0.5000,1.0000,0.0000
50.599,Upwind,2756.681,0.420,2756.214,0.420,732.923,732.927,175.840,53.157,359.990,12.956,-0.026,0.0000,-0.2297,0.0000,0.9583,0.5000,1.0000,0.0000
50.800,Upwind,2774.677,0.417,2774.211,0.417,743.556,743.560,175.837,53.174,359.990,12.956,-0.026,0.0000,-0.2296,0.0000,0.9583,0.5000,1.0000,0.0000
50.995,Upwind,2792.677,0.415,2792.210,0.415,754.192,754.196,175.835,53.189,359.990,12.957,-0.026,0.0000,-0.2295,0.0000,0.9584,0.5000,1.0000,0.0000
51.198,Upwind,2810.677,0.412,2810.211,0.412,764.832,764.835,175.832,53.203,359.990,12.957,-0.026,0.0000,-0.2294,0.0000,0.9584,0.5000,1.0000,0.0000
51.391,Upwind,2827.181,0.410,2826.714,0.410,775.474,775.477,175.829,53.217,359.990,12.957,-0.026,0.0000,-0.2293,0.0000,0.9585,0.5000,1.0000,0.0000
51.600,Upwind,2846.688,0.407,2846.221,0.407,786.118,786.122,175.825,53.230,359.990,12.958,-0.026,0.0000,-0.2292,0.0000,0.9585,0.5000,1.0000,0.0000
51.799,Upwind,2864.696,0.405,2864.229,0.405,796.766,796.769,175.821,53.243,359.991,12.958,-0.026,0.0000,-0.2292,0.0000,0.9586,0.5000,1.0000,0.0000
51.996,Upwind,2882.707,0.402,2882.240,0.402,807.415,807.419,175.818,53.255,359.991,12.958,-0.026,0.0001,-0.2291,0.0000,0.9586,0.5000,1.0000,0.0000
52.198,Upwind,2900.719,0.400,2900.253,0.400,818.067,818.071,175.814,53.266,359.991,12.959,-0.026,0.0000,-0.2291,0.0000,0.9587,0.5000,1.0000,0.0000
52.402,Upwind,2918.735,0.397,2918.268,0.397,828.722,828.725,175.809,53.276,359.991,12.959,-0.026,0.0000,-0.2291,0.0000,0.9587,0.5000,1.0000,0.0000
52.591,Upwind,2936.752,0.395,2936.286,0.395,839.378,839.382,175.805,53.286,359.991,12.959,-0.026,0.0000,-0.2290,0.0000,0.9588,0.5000,1.0000,0.0000
52.790,Upwind,2953.271,0.393,2952.804,0.393,850.036,850.040,175.800,53.296,359.991,12.959,-0.026,0.0000,-0.2290,0.0000,0.9589,0.5000,1.0000,0.0000
52.999,Upwind,2972.794,0.390,2972.328,0.390,860.696,860.700,175.796,53.304,359.991,12.959,-0.026,0.0000,-0.2290,0.0000,0.9589,0.5000,1.0000,0.0000
53.194,Upwind,2990.819,0.388,2990.352,0.388,871.358,871.362,175.791,53.313,359.991,12.959,-0.026,0.0000,-0.2290,0.0000,0.9590,0.5000,1.0000,0.0000
53.398,Upwind,3008.846,0.386,3008.379,0.386,882.021,882.025,175.786,53.320,359.992,12.959,-0.026,0.0000,-0.2290,0.0000,0.9591,0.5000,1.0000,0.0000
53.601,Upwind,3026.875,0.384,3026.408,0.384,892.686,892.690,175.781,53.328,359.992,12.959,-0.026,0.0000,-0.2289,0.0000,0.9591,0.5000,1.0000,0.0000
53.799,Upwind,3044.906,0.382,3044.439,0.382,903.352,903.356,175.775,53.335,359.992,12.959,-0.026,0.0000,-0.2289,0.0000,0.9592,0.5000,1.0000,0.0000
53.991,Upwind,3062.938,0.379,3062.471,0.379,914.019,914.024,175.770,53.342,359.992,12.960,-0.026,0.0000,-0.2289,0.0000,0.9593,0.5000,1.0000,0.0000
54.197,Upwind,3080.977,0.377,3080.510,0.377,924.688,924.693,175.764,53.348,359.992,12.960,-0.026,0.0000,-0.2289,0.0000,0.9594,0.5000,1.0000,0.0000
54.400,Upwind,3099.011,0.375,3098.545,0.375,935.359,935.363,175.759,53.354,359.992,12.960,-0.026,0.0000,-0.2289,0.0000,0.9594,0.5000,1.0000,0.0000
54.595,Upwind,3117.052,0.373,3116.586,0.373,946.030,946.034,175.753,53.360,359.992,12.960,-0.026,0.0000,-0.2289,0.0000,0.9595,0.5000,1.0000,0.0000
54.795,Upwind,3135.094,0.371,3134.627,0.371,956.702,956.707,175.747,53.365,359.992,12.960,-0.026,0.0000,-0.2289,0.0000,0.9596,0.5000,1.0000,0.0000
54.991,Upwind,3153.141,0.370,3152.674,0.370,967.376,967.380,175.742,53.370,359.993,12.960,-0.026,0.0000,-0.2289,0.0000,0.9597,0.5000,1.0000,0.0000
55.195,Upwind,3171.185,0.368,3170.718,0.368,978.050,978.055,175.736,53.375,359.993,12.960,-0.026,0.0000,-0.2289,0.0000,0.9598,0.5000,1.0000,0.0000
55.395,Upwind,3189.235,0.366,3188.769,0.366,988.726,988.730,175.730,53.380,359.993,12.960,-0.026,0.0000,-0.2289,0.0000,0.9599,0.5000,1.0000,0.0000
55.593,Upwind,3207.285,0.364,3206.819,0.364,999.402,999.407,175.724,53.384,359.993,12.960,-0.026,0.0000,-0.2289,0.0000,0.9599,0.5000,1.0000,0.0000
55.798,Upwind,3225.339,0.362,3224.872,0.362,1010.079,1010.084,175.718,53.388,359.993,12.959,-0.026,0.0000,-0.2289,0.0000,0.9600,0.5000,1.0000,0.0000
55.995,Upwind,3243.395,0.361,3242.928,0.361,1020.757,1020.762,175.711,53.392,359.993,12.959,-0.026,0.0000,-0.2290,0.0000,0.9601,0.5000,1.0000,0.0000
56.199,Upwind,3261.451,0.359,3260.985,0.359,1031.436,1031.441,175.705,53.396,359.993,12.959,-0.027,0.0000,-0.2290,0.0000,0.9602,0.5000,1.0000,0.0000
56.394,Upwind,3279.511,0.357,3279.044,0.357,1042.116,1042.121,175.699,53.400,359.993,12.959,-0.027,0.0000,-0.2290,0.0000,0.9603,0.5000,1.0000,0.0000
56.595,Upwind,3297.573,0.356,3297.106,0.356,1052.796,1052.801,175.692,53.403,359.993,12.959,-0.027,0.0000,-0.2290,0.0000,0.9604,0.5000,1.0000,0.0000
56.804,Upwind,3315.639,0.354,3315.172,0.354,1063.477,1063.482,175.686,53.406,359.994,12.959,-0.027,0.0000,-0.2290,0.0000,0.9605,0.5000,1.0000,0.0000
56.998,Upwind,3333.704,0.352,3333.237,0.352,1074.158,1074.163,175.680,53.409,359.994,12.959,-0.027,0.0000,-0.2290,0.0000,0.9606,0.5000,1.0000,0.0000
57.201,Upwind,3351.773,0.351,3351.306,0.351,1084.840,1084.846,175.673,53.412,359.994,12.959,-0.027,0.0000,-0.2291,0.0000,0.9606,0.5000,1.0000,0.0000
57.400,Upwind,3369.844,0.349,3369.378,0.349,1095.523,1095.528,175.667,53.415,359.994,12.959,-0.027,0.0000,-0.2291,0.0000,0.9607,0.5000,1.0000,0.0000
57.591,Upwind,3386.410,0.348,3385.943,0.348,1106.206,1106.212,175.660,53.418,359.994,12.959,-0.027,0.0000,-0.2291,0.0000,0.9608,0.5000,1.0000,0.0000
57.792,Upwind,3405.991,0.346,3405.524,0.346,1116.890,1116.895,175.654,53.420,359.994,12.959,-0.027,0.0000,-0.2291,0.0000,0.9609,0.5000,1.0000,0.0000
57.993,Upwind,3424.068,0.345,3423.602,0.345,1127.574,1127.580,175.647,53.423,359.994,12.959,-0.027,0.0000,-0.2292,0.0000,0.9610,0.5000,1.0000,0.0000
58.194,Upwind,3442.146,0.344,3441.679,0.344,1138.259,1138.265,175.640,53.425,359.994,12.958,-0.027,0.0000,-0.2292,0.0000,0.9611,0.5000,1.0000,0.0000
58.395,Upwind,3460.227,0.342,3459.760,0.342,1148.944,1148.950,175.634,53.427,359.994,12.958,-0.027,0.0000,-0.2292,0.0000,0.9612,0.5000,1.0000,0.0000
58.590,Upwind,3476.805,0.341,3476.338,0.341,1159.630,1159.635,175.627,53.429,359.994,12.958,-0.027,0.0000,-0.2292,0.0000,0.9613,0.5000,1.0000,0.0000
58.797,Upwind,3496.397,0.340,3495.931,0.340,1170.316,1170.322,175.620,53.432,359.995,12.958,-0.027,0.0000,-0.2293,0.0000,0.9614,0.5000,1.0000,0.0000
58.991,Upwind,3514.484,0.339,3514.017,0.339,1181.002,1181.008,175.613,53.433,359.995,12.958,-0.027,0.0000,-0.2293,0.0000,0.9615,0.5000,1.0000,0.0000
59.196,Upwind,3532.574,0.337,3532.107,0.337,1191.689,1191.695,175.607,53.435,359.995,12.958,-0.027,0.0000,-0.2293,0.0000,0.9616,0.5000,1.0000,0.0000
59.394,Upwind,3550.667,0.336,3550.200,0.336,1202.376,1202.382,175.600,53.437,359.995,12.958,-0.027,0.0000,-0.2294,0.0000,0.9617,0.5000,1.0000,0.0000
59.590,Upwind,3567.254,0.335,3566.787,0.335,1213.064,1213.070,175.593,53.439,359.995,12.957,-0.027,0.0000,-0.2294,0.0000,0.9618,0.5000,1.0000,0.0000
59.797,Upwind,3586.859,0.334,3586.392,0.334,1223.752,1223.758,175.586,53.441,359.995,12.957,-0.027,0.0000,-0.2294,0.0000,0.9619,0.5000,1.0000,0.0000
59.992,Upwind,3604.955,0.333,3604.488,0.333,1234.440,1234.446,175.579,53.442,359.995,12.957,-0.027,0.0000,-0.2294,0.0000,0.9620,0.5000,1.0000,0.0000
60.204,Upwind,3623.057,0.332,3622.590,0.332,1245.129,1245.135,175.572,53.444,359.995,12.957,-0.028,0.0000,-0.2295,0.0000,0.9621,0.5000,1.0000,0.0000
60.396,Upwind,3641.159,0.331,3640.692,0.331,1255.818,1255.824,175.565,53.445,359.995,12.957,-0.028,0.0000,-0.2295,0.0000,0.9622,0.5000,1.0000,0.0000
60.590,Upwind,3657.755,0.330,3657.289,0.330,1266.507,1266.513,175.558,53.447,359.995,12.957,-0.028,0.0000,-0.2296,0.0000,0.9623,0.5000,1.0000,0.0000
60.797,Upwind,3677.373,0.329,3676.906,0.329,1277.196,1277.202,175.552,53.448,359.995,12.957,-0.028,0.0000,-0.2296,0.0000,0.9624,0.5000,1.0000,0.0000
60.999,Upwind,3695.481,0.328,3695.014,0.328,1287.886,1287.892,175.545,53.449,359.996,12.956,-0.028,0.0000,-0.2296,0.0000,0.9624,0.5000,1.0000,0.0000
61.199,Upwind,3713.592,0.327,3713.125,0.327,1298.576,1298.582,175.538,53.451,359.996,12.956,-0.028,0.0000,-0.2297,0.0000,0.9625,0.5000,1.0000,0.0000
61.396,Upwind,3731.706,0.326,3731.239,0.326,1309.266,1309.272,175.531,53.452,359.996,12.956,-0.028,0.0000,-0.2297,0.0000,0.9626,0.5000,1.0000,0.0000
61.605,Upwind,3749.820,0.325,3749.354,0.325,1319.956,1319.963,175.524,53.453,359.996,12.956,-0.028,0.0000,-0.2297,0.0000,0.9627,0.5000,1.0000,0.0000
61.796,Upwind,3767.941,0.324,3767.474,0.324,1330.647,1330.653,175.517,53.454,359.996,12.956,-0.028,0.0000,-0.2298,0.0000,0.9628,0.5000,1.0000,0.0000
62.001,Upwind,3786.058,0.324,3785.591,0.324,1341.338,1341.344,175.510,53.455,359.996,12.956,-0.028,0.0000,-0.2298,0.0000,0.9629,0.5000,1.0000,0.0000
62.191,Upwind,3804.181,0.323,3803.715,0.323,1352.029,1352.035,175.503,53.456,359.996,12.955,-0.028,0.0000,-0.2298,0.0000,0.9630,0.5000,1.0000,0.0000
62.395,Upwind,3822.305,0.322,3821.838,0.322,1362.720,1362.727,175.496,53.457,359.996,12.955,-0.028,0.0000,-0.2299,0.0000,0.9631,0.5000,1.0000,0.0000
62.598,Upwind,3840.431,0.321,3839.964,0.321,1373.412,1373.418,175.489,53.458,359.996,12.955,-0.028,0.0000,-0.2299,0.0000,0.9632,0.5000,1.0000,0.0000
62.797,Upwind,3858.561,0.321,3858.094,0.321,1384.103,1384.110,175.481,53.459,359.996,12.955,-0.028,0.0000,-0.2300,0.0000,0.9633,0.5000,1.0000,0.0000
62.994,Upwind,3876.690,0.320,3876.223,0.320,1394.795,1394.802,175.474,53.460,359.996,12.955,-0.028,0.0000,-0.2300,0.0000,0.9634,0.5000,1.0000,0.0000
63.195,Upwind,3894.823,0.319,3894.356,0.319,1405.487,1405.494,175.467,53.461,359.996,12.955,-0.028,0.0000,-0.2300,0.0000,0.9635,0.5000,1.0000,0.0000
63.397,Upwind,3912.958,0.319,3912.492,0.319,1416.180,1416.186,175.460,53.462,359.997,12.954,-0.028,0.0000,-0.2301,0.0000,0.9636,0.5000,1.0000,0.0000
63.592,Upwind,3931.094,0.318,3930.627,0.318,1426.872,1426.879,175.453,53.463,359.997,12.954,-0.028,0.0000,-0.2301,0.0000,0.9637,0.5000,1.0000,0.0000
63.800,Upwind,3949.236,0.317,3948.769,0.317,1437.565,1437.572,175.446,53.464,359.997,12.954,-0.028,0.0000,-0.2301,0.0000,0.9638,0.5000,1.0000,0.0000
63.997,Upwind,3967.375,0.317,3966.908,0.317,1448.257,1448.264,175.439,53.465,359.997,12.954,-0.028,-0.0001,-0.2302,0.0000,0.9639,0.5000,1.0000,0.0000
64.192,Upwind,3985.519,0.316,3985.052,0.316,1458.950,1458.957,175.432,53.465,359.997,12.954,-0.028,0.0000,-0.2302,0.0000,0.9640,0.5000,1.0000,0.0000
64.396,Upwind,4003.664,0.316,4003.197,0.316,1469.644,1469.651,175.425,53.466,359.997,12.953,-0.029,0.0000,-0.2303,0.0000,0.9641,0.5000,1.0000,0.0000
64.596,Upwind,4021.812,0.315,4021.345,0.315,1480.337,1480.344,175.418,53.467,359.997,12.953,-0.029,-0.0001,-0.2303,0.0000,0.9642,0.5000,1.0000,0.0000
64.798,Upwind,4039.962,0.315,4039.496,0.315,1491.030,1491.037,175.411,53.468,359.997,12.953,-0.029,0.0000,-0.2303,0.0000,0.9643,0.5000,1.0000,0.0000
65.000,Upwind,4058.113,0.315,4057.646,0.315,1501.724,1501.731,175.403,53.468,359.997,12.953,-0.029,0.0000,-0.2304,0.0000,0.9644,0.5000,1.0000,0.0000
65.193,Upwind,4076.267,0.314,4075.801,0.314,1512.417,1512.425,175.396,53.469,359.997,12.953,-0.029,0.0000,-0.2304,0.0000,0.9645,0.5000,1.0000,0.0000
65.404,Upwind,4094.424,0.314,4093.958,0.314,1523.111,1523.119,175.389,53.470,359.997,12.953,-0.029,0.0000,-0.2305,0.0000,0.9646,0.5000,1.0000,0.0000
65.592,Upwind,4112.581,0.313,4112.114,0.313,1533.805,1533.813,175.382,53.471,359.997,12.952,-0.029,-0.0001,-0.2305,0.0000,0.9647,0.5000,1.0000,0.0000
65.794,Upwind,4130.744,0.313,4130.277,0.313,1544.499,1544.507,175.375,53.471,359.997,12.952,-0.029,0.0000,-0.2305,0.0000,0.9648,0.5000,1.0000,0.0000
65.993,Upwind,4148.904,0.313,4148.437,0.313,1555.194,1555.201,175.368,53.472,359.998,12.952,-0.030,0.0000,-0.2306,0.0000,0.9649,0.5000,1.0000,0.0000
66.198,Upwind,4167.070,0.312,4166.604,0.312,1565.888,1565.896,175.361,53.472,359.998,12.952,-0.030,-0.0001,-0.2306,0.0000,0.9650,0.5000,1.0000,0.0000
66.395,Upwind,4185.236,0.312,4184.770,0.312,1576.583,1576.590,175.353,53.473,359.998,12.952,-0.030,0.0000,-0.2307,0.0000,0.9651,0.5000,1.0000,0.0000
66.594,Upwind,4203.405,0.312,4202.938,0.312,1587.277,1587.285,175.346,53.474,359.998,12.951,-0.030,0.0000,-0.2307,0.0000,0.9652,0.5000,1.0000,0.0000
66.790,Upwind,4220.063,0.312,4219.596,0.312,1597.972,1597.980,175.339,53.474,359.998,12.951,-0.030,0.0000,-0.2308,0.0000,0.9653,0.5000,1.0000,0.0000
66.995,Upwind,4239.750,0.311,4239.283,0.311,1608.667,1608.675,175.332,53.475,359.998,12.951,-0.030,0.0000,-0.2308,0.0000,0.9654,0.5000,1.0000,0.0000
67.202,Upwind,4257.925,0.311,4257.458,0.311,1619.362,1619.370,175.325,53.476,359.998,12.951,-0.030,0.0000,-0.2308,0.0000,0.9655,0.5000,1.0000,0.0000
67.400,Upwind,4276.103,0.311,4275.636,0.311,1630.057,1630.065,175.318,53.476,359.998,12.951,-0.030,0.0000,-0.2309,0.0000,0.9656,0.5000,1.0000,0.0000
67.599,Upwind,4294.285,0.311,4293.818,0.311,1640.752,1640.760,175.310,53.477,359.998,12.951,-0.030,0.0000,-0.2309,0.0000,0.9657,0.5000,1.0000,0.0000
67.790,Upwind,4310.951,0.310,4310.484,0.310,1651.448,1651.456,175.303,53.477,359.998,12.950,-0.030,-0.0001,-0.2310,0.0000,0.9658,0.5000,1.0000,0.0000
67.999,Upwind,4330.650,0.310,4330.184,0.310,1662.143,1662.151,175.296,53.478,359.998,12.950,-0.030,0.0000,-0.2310,0.0000,0.9659,0.5000,1.0000,0.0000
68.191,Upwind,4348.834,0.310,4348.368,0.310,1672.839,1672.847,175.289,53.478,359.998,12.950,-0.030,0.0000,-0.2310,0.0000,0.9660,0.5000,1.0000,0.0000
68.392,Upwind,4367.022,0.310,4366.555,0.310,1683.534,1683.543,175.282,53.479,359.998,12.950,-0.031,0.0000,-0.2311,0.0000,0.9661,0.5000,1.0000,0.0000
68.594,Upwind,4385.212,0.310,4384.746,0.310,1694.230,1694.238,175.274,53.480,359.998,12.950,-0.031,0.0000,-0.2311,0.0000,0.9662,0.5000,1.0000,0.0000
68.797,Upwind,4403.406,0.310,4402.939,0.310,1704.926,1704.934,175.267,53.480,359.998,12.949,-0.031,0.0000,-0.2312,0.0000,0.9663,0.5000,1.0000,0.0000
69.000,Upwind,4421.603,0.310,4421.136,0.309,1715.622,1715.630,175.260,53.481,359.998,12.949,-0.031,0.0000,-0.2312,0.0000,0.9664,0.5000,1.0000,0.0000
69.193,Upwind,4439.799,0.309,4439.332,0.309,1726.318,1726.327,175.253,53.481,359.998,12.949,-0.031,-0.0001,-0.2312,0.0000,0.9665,0.5000,1.0000,0.0000
69.396,Upwind,4457.996,0.309,4457.529,0.309,1737.015,1737.023,175.246,53.482,359.998,12.949,-0.031,0.0000,-0.2313,0.0000,0.9666,0.5000,1.0000,0.0000
69.592,Upwind,4476.199,0.309,4475.732,0.309,1747.711,1747.719,175.238,53.482,359.998,12.949,-0.031,0.0000,-0.2313,0.0000,0.9667,0.5000,1.0000,0.0000
69.803,Upwind,4494.401,0.309,4493.934,0.309,1758.407,1758.416,175.231,53.483,359.998,12.948,-0.031,0.0000,-0.2314,0.0000,0.9668,0.5000,1.0000,0.0000
69.994,Upwind,4512.606,0.309,4512.140,0.309,1769.104,1769.112,175.224,53.483,359.998,12.948,-0.031,0.0000,-0.2314,0.0000,0.9669,0.5000,1.0000,0.0000
70.198,Upwind,4530.815,0.309,4530.349,0.309,1779.801,1779.809,175.217,53.484,359.998,12.948,-0.031,0.0000,-0.2315,0.0000,0.9671,0.5000,1.0000,0.0000
70.390,Upwind,4547.506,0.309,4547.040,0.309,1790.497,1790.506,175.209,53.484,359.998,12.948,-0.031,0.0000,-0.2315,0.0000,0.9672,0.5000,1.0000,0.0000
70.598,Upwind,4567.236,0.309,4566.769,0.309,1801.194,1801.203,175.202,53.485,359.998,12.948,-0.031,0.0000,-0.2315,0.0000,0.9673,0.5000,1.0000,0.0000
70.794,Upwind,4585.451,0.309,4584.984,0.309,1811.891,1811.900,175.195,53.485,359.998,12.948,-0.031,0.0000,-0.2316,0.0000,0.9674,0.5000,1.0000,0.0000
70.990,Upwind,4602.148,0.309,4601.681,0.309,1822.588,1822.597,175.188,53.486,359.998,12.947,-0.031,0.0000,-0.2316,0.0000,0.9675,0.5000,1.0000,0.0000
71.194,Upwind,4621.884,0.309,4621.417,0.309,1833.285,1833.294,175.181,53.486,359.998,12.947,-0.031,0.0000,-0.2317,0.0000,0.9676,0.5000,1.0000,0.0000
71.400,Upwind,4640.104,0.309,4639.638,0.309,1843.982,1843.991,175.173,53.486,359.998,12.947,-0.031,0.0000,-0.2317,0.0000,0.9677,0.5000,1.0000,0.0000
71.600,Upwind,4658.325,0.309,4657.858,0.309,1854.680,1854.689,175.166,53.487,359.998,12.947,-0.032,0.0000,-0.2317,0.0000,0.9678,0.5000,1.0000,0.0000
71.794,Upwind,4676.552,0.309,4676.085,0.309,1865.377,1865.386,175.159,53.487,359.998,12.947,-0.032,0.0000,-0.2318,0.0000,0.9679,0.5000,1.0000,0.0000
72.000,Upwind,4694.776,0.309,4694.310,0.309,1876.074,1876.084,175.152,53.488,359.998,12.946,-0.032,0.0000,-0.2318,0.0000,0.9680,0.5000,1.0000,0.0000
72.197,Upwind,4713.007,0.309,4712.540,0.309,1886.772,1886.781,175.144,53.488,359.998,12.946,-0.032,0.0000,-0.2319,0.0000,0.9681,0.5000,1.0000,0.0000
72.402,Upwind,4731.237,0.309,4730.770,0.309,1897.470,1897.479,175.137,53.489,359.998,12.946,-0.032,0.0000,-0.2319,0.0000,0.9682,0.5000,1.0000,0.0000
72.605,Upwind,4749.470,0.309,4749.003,0.309,1908.167,1908.177,175.130,53.489,359.998,12.946,-0.032,0.0000,-0.2320,0.0000,0.9683,0.5000,1.0000,0.0000
72.796,Upwind,4767.706,0.309,4767.239,0.309,1918.865,1918.874,175.123,53.489,359.998,12.946,-0.032,0.0000,-0.2320,0.0000,0.9684,0.5000,1.0000,0.0000
72.994,Upwind,4785.945,0.309,4785.479,0.309,1929.563,1929.572,175.115,53.490,359.999,12.945,-0.032,0.0000,-0.2320,0.0000,0.9685,0.5000,1.0000,0.0000
73.192,Upwind,4804.185,0.309,4803.718,0.309,1940.261,1940.270,175.108,53.490,359.999,12.945,-0.032,0.0000,-0.2321,0.0000,0.9686,0.5000,1.0000,0.0000
73.396,Upwind,4822.427,0.309,4821.960,0.309,1950.959,1950.968,175.101,53.491,359.999,12.945,-0.032,0.0000,-0.2321,0.0000,0.9687,0.5000,1.0000,0.0000
73.595,Upwind,4840.669,0.309,4840.202,0.309,1961.657,1961.667,175.094,53.491,359.999,12.945,-0.032,0.0000,-0.2322,0.0000,0.9688,0.5000,1.0000,0.0000
73.799,Upwind,4858.915,0.309,4858.448,0.309,1972.355,1972.365,175.086,53.491,359.999,12.945,-0.032,0.0000,-0.2322,0.0000,0.9689,0.5000,1.0000,0.0000
73.996,Upwind,4877.163,0.309,4876.696,0.309,1983.054,1983.063,175.079,53.492,359.999,12.944,-0.032,-0.0001,-0.2323,0.0000,0.9690,0.5000,1.0000,0.0000
74.192,Upwind,4895.414,0.309,4894.947,0.309,1993.752,1993.762,175.072,53.492,359.999,12.944,-0.032,0.0000,-0.2323,0.0000,0.9691,0.5000,1.0000,0.0000
74.399,Crosswind,4913.666,0.309,4913.199,0.309,2004.450,2004.460,175.061,53.489,359.999,12.944,-0.026,0.4000,-0.2646,0.0000,0.9333,0.0000,1.0000,0.0000
74.599,Crosswind,4931.914,0.309,4931.447,0.309,2015.138,2015.148,174.919,53.356,359.996,12.958,0.308,0.4000,-0.3543,0.0001,0.8336,0.0000,1.0000,0.0000
74.791,Crosswind,4950.141,0.312,4949.674,0.312,2025.781,2025.791,174.580,53.049,359.991,13.036,1.071,0.4000,-0.4409,0.0001,0.7374,0.0000,1.0000,0.0000
74.999,Crosswind,4968.326,0.322,4967.859,0.322,2036.350,2036.360,174.091,52.632,359.993,13.222,2.166,0.4000,-0.5345,0.0000,0.7085,0.0000,1.0000,0.0000
75.198,Crosswind,4986.467,0.345,4986.000,0.345,2046.835,2046.844,173.592,52.224,0.012,13.549,3.511,0.4000,-0.6238,-0.0002,0.7191,0.0000,1.0000,0.0000
75.398,Crosswind,5004.560,0.390,5004.093,0.390,2057.245,2057.255,173.103,51.906,0.064,14.040,5.045,0.4000,-0.7140,-0.0005,0.7300,0.0000,1.0000,0.0000
75.597,Crosswind,5022.607,0.464,5022.140,0.464,2067.608,2067.618,172.617,51.751,0.167,14.708,6.714,0.4000,-0.8000,-0.0010,0.7413,0.0000,1.0000,0.0000
75.791,Crosswind,5040.603,0.580,5040.136,0.580,2077.962,2077.972,172.132,51.838,0.342,15.552,8.480,0.4000,-0.8000,-0.0016,0.7528,0.0000,1.0000,0.0000
75.995,Crosswind,5058.546,0.750,5058.079,0.750,2088.364,2088.374,171.642,52.232,0.602,16.522,10.307,0.4000,-0.8000,-0.0025,0.7645,0.0000,1.0000,0.0000
76.195,Crosswind,5076.432,0.987,5075.965,0.987,2098.875,2098.885,171.141,52.937,0.958,17.560,12.169,0.4000,-0.7774,-0.0035,0.7765,0.0000,1.0000,0.0000
76.396,Crosswind,5094.256,1.308,5093.790,1.308,2109.558,2109.568,170.629,53.936,1.411,18.601,14.042,0.4000,-0.7473,-0.0048,0.7886,0.0000,1.0000,0.0000
76.598,Crosswind,5112.011,1.728,5111.544,1.728,2120.467,2120.477,170.102,55.189,1.960,19.586,15.909,0.4000,-0.7170,-0.0063,0.8010,0.0000,1.0000,0.0000
76.797,Crosswind,5129.692,2.264,5129.226,2.264,2131.646,2131.656,169.562,56.626,2.596,20.466,17.754,0.3929,-0.6871,-0.0079,0.8135,0.0000,1.0000,0.0000
76.990,Crosswind,5147.298,2.932,5146.832,2.932,2143.123,2143.134,169.012,58.163,3.310,21.209,19.558,0.3267,-0.6581,-0.0095,0.8260,0.0000,1.0000,0.0000
77.200,Crosswind,5164.817,3.745,5164.351,3.745,2154.912,2154.922,168.459,59.716,4.087,21.791,21.256,0.2699,-0.6267,-0.0114,0.8383,0.0000,1.0000,0.0000
77.399,Crosswind,5182.255,4.718,5181.789,4.718,2167.006,2167.016,167.908,61.211,4.914,22.204,22.795,0.2207,-0.5967,-0.0132,0.8501,0.0000,1.0000,0.0000
77.600,Crosswind,5199.608,5.859,5199.141,5.859,2179.388,2179.398,167.366,62.586,5.773,22.446,24.144,0.1794,-0.5667,-0.0147,0.8613,0.0000,1.0000,0.0000
77.797,Crosswind,5216.878,7.177,5216.411,7.177,2192.029,2192.040,166.840,63.792,6.645,22.525,25.298,0.1451,-0.5371,-0.0160,0.8717,0.0000,1.0000,0.0000
77.997,Crosswind,5234.062,8.677,5233.595,8.677,2204.891,2204.902,166.335,64.792,7.514,22.455,26.264,0.1169,-0.5070,-0.0170,0.8813,0.0000,1.0000,0.0000
78.195,Crosswind,5251.167,10.363,5250.701,10.362,2217.930,2217.941,165.856,65.556,8.364,22.253,27.061,0.0937,-0.4774,-0.0177,0.8902,0.0000,1.0000,0.0000
78.399,Crosswind,5268.197,12.234,5267.730,12.234,2231.097,2231.107,165.407,66.068,9.180,21.939,27.712,0.0745,-0.4468,-0.0179,0.8982,0.0000,1.0000,0.0000
78.592,Crosswind,5285.159,14.291,5284.692,14.291,2244.339,2244.350,164.990,66.316,9.950,21.534,28.242,0.0584,-0.4179,-0.0179,0.9054,0.0000,1.0000,0.0000
78.797,Crosswind,5302.054,16.532,5301.587,16.531,2257.605,2257.616,164.610,66.297,10.667,21.056,28.673,0.0447,-0.3871,-0.0176,0.9119,0.0000,1.0000,0.0000
78.997,Crosswind,5318.891,18.953,5318.424,18.953,2270.840,2270.851,164.267,66.011,11.323,20.522,29.026,0.0330,-0.3570,-0.0170,0.9177,0.0000,1.0000,0.0000
79.198,Crosswind,5335.676,21.553,5335.209,21.552,2283.992,2284.003,163.962,65.463,11.915,19.948,29.317,0.0230,-0.3270,-0.0162,0.9227,0.0000,1.0000,0.0000
79.394,Crosswind,5352.416,24.325,5351.949,24.325,2297.008,2297.019,163.698,64.662,12.442,19.344,29.557,0.0146,-0.2975,-0.0154,0.9270,0.0000,1.0000,0.0000
79.601,Crosswind,5369.116,27.267,5368.649,27.267,2309.841,2309.852,163.472,63.620,12.906,18.721,29.753,0.0077,-0.3426,-0.0145,0.9307,0.0000,1.0000,0.0000
79.797,Crosswind,5385.786,30.372,5385.319,30.372,2322.439,2322.451,163.281,62.328,13.325,18.109,29.916,0.0021,-0.4305,-0.0136,0.9338,0.0000,1.0000,0.0000
79.999,Crosswind,5402.428,33.636,5401.961,33.636,2334.757,2334.768,163.122,60.818,13.738,17.569,30.055,-0.0023,-0.5217,-0.0129,0.9363,0.0000,1.0000,0.0000
80.195,Crosswind,5419.048,37.054,5418.582,37.054,2346.756,2346.768,162.993,59.154,14.179,17.145,30.178,-0.0057,-0.6098,-0.0122,0.9381,0.0000,1.0000,0.0000
80.399,Crosswind,5435.651,40.623,5435.184,40.623,2358.413,2358.425,162.888,57.409,14.674,16.871,30.289,-0.0083,-0.7016,-0.0116,0.9396,0.0000,1.0000,0.0000
80.591,Crosswind,5450.854,44.027,5450.388,44.027,2369.720,2369.731,162.803,55.666,15.245,16.770,30.388,-0.0103,-0.7877,-0.0112,0.9408,0.0000,1.0000,0.0000
80.799,Crosswind,5468.798,48.214,5468.331,48.214,2380.685,2380.697,162.733,54.015,15.909,16.849,30.476,-0.0112,-0.8000,-0.0109,0.9417,0.0000,1.0000,0.0000
80.999,Crosswind,5485.339,52.243,5484.873,52.243,2391.338,2391.350,162.674,52.550,16.659,17.085,30.550,-0.0115,-0.7824,-0.0108,0.9426,0.0000,1.0000,0.0000
81.195,Crosswind,5501.853,56.434,5501.386,56.434,2401.721,2401.733,162.621,51.325,17.473,17.427,30.603,-0.0110,-0.7530,-0.0108,0.9433,0.0000,1.0000,0.0000
81.396,Crosswind,5518.334,60.794,5517.867,60.794,2411.885,2411.897,162.569,50.358,18.325,17.822,30.629,-0.0095,-0.7229,-0.0109,0.9440,0.0000,1.0000,0.0000
81.591,Crosswind,5534.769,65.331,5534.302,65.331,2421.881,2421.893,162.515,49.642,19.191,18.224,30.625,-0.0072,-0.6937,-0.0111,0.9448,0.0000,1.0000,0.0000
81.794,Crosswind,5551.158,70.049,5550.691,70.049,2431.757,2431.769,162.457,49.149,20.050,18.593,30.590,-0.0037,-0.6632,-0.0113,0.9456,0.0000,1.0000,0.0000
81.993,Crosswind,5567.492,74.954,5567.025,74.954,2441.553,2441.565,162.395,48.839,20.885,18.902,30.523,0.0003,-0.6333,-0.0116,0.9465,0.0000,1.0000,0.0000
82.200,Crosswind,5583.765,80.047,5583.298,80.047,2451.301,2451.313,162.331,48.663,21.681,19.128,30.430,0.0049,-0.6023,-0.0118,0.9474,0.0000,1.0000,0.0000
82.400,Crosswind,5599.978,85.331,5599.511,85.331,2461.023,2461.035,162.267,48.568,22.429,19.257,30.313,0.0098,-0.5723,-0.0120,0.9483,0.0000,1.0000,0.0000
82.596,Crosswind,5616.120,90.804,5615.653,90.804,2470.730,2470.742,162.207,48.502,23.122,19.284,30.178,0.0149,-0.5429,-0.0121,0.9491,0.0000,1.0000,0.0000
82.800,Crosswind,5632.195,96.466,5631.729,96.466,2480.423,2480.435,162.155,48.414,23.756,19.207,30.032,0.0199,-0.5123,-0.0122,0.9498,0.0000,1.0000,0.0000
82.998,Crosswind,5648.203,102.313,5647.736,102.313,2490.091,2490.103,162.114,48.260,24.331,19.029,29.880,0.0248,-0.4825,-0.0122,0.9501,0.0000,1.0000,0.0000
83.203,Crosswind,5664.145,108.342,5663.678,108.342,2499.719,2499.731,162.088,47.999,24.849,18.757,29.729,0.0294,-0.4519,-0.0122,0.9500,0.0000,1.0000,0.0000
83.394,Crosswind,5680.021,114.549,5679.555,114.549,2509.282,2509.294,162.080,47.599,25.313,18.398,29.583,0.0337,-0.4543,-0.0122,0.9498,0.0000,1.0000,0.0000
83.595,Crosswind,5695.837,120.928,5695.371,120.928,2518.747,2518.759,162.088,47.018,25.736,17.975,29.448,0.0374,-0.5451,-0.0121,0.9493,0.0000,1.0000,0.0000
