time_s,leg,north_m,east_m,along_m,cross_m,agl_ft,altitude_ft,speed_kts,vertical_speed_fps,heading_deg,pitch_deg,roll_deg,aileron_cmd,elevator_cmd,rudder_cmd,throttle_cmd,flaps_cmd,gear_cmd,brake_cmd
0.000,Upwind,0.000,0.000,0.000,0.000,3.691,3.691,0.001,0.000,0.000,0.450,0.000,0.0000,0.0019,0.0000,0.1039,0.5000,1.0000,1.0000
0.195,Upwind,0.000,0.000,0.000,0.000,3.691,3.691,0.001,0.001,0.000,0.449,0.000,0.0000,0.0312,0.0000,0.0061,0.5000,1.0000,1.0000
0.397,Upwind,0.000,0.000,0.000,0.000,3.691,3.691,0.000,0.000,0.000,0.449,0.000,0.0000,0.0615,0.0000,0.0000,0.5000,1.0000,1.0000
0.589,Upwind,0.000,0.000,0.000,0.000,3.691,3.691,0.000,-0.001,0.000,0.450,0.000,0.0000,0.0630,0.0000,0.0000,0.5000,1.0000,1.0000
0.796,Upwind,0.000,0.000,0.000,0.000,3.691,3.691,0.000,0.000,0.000,0.450,0.000,0.0000,0.0630,0.0000,0.0165,0.5000,1.0000,0.0000
0.988,Upwind,0.000,0.000,0.000,0.000,3.691,3.691,0.000,0.000,0.000,0.450,0.000,0.0000,0.0629,0.0000,0.1124,0.5000,1.0000,0.0000
1.191,Upwind,0.000,0.000,0.000,0.000,3.691,3.691,0.000,0.000,0.000,0.450,0.000,0.0000,0.0629,0.0000,0.2140,0.5000,1.0000,0.0000
1.388,Upwind,0.000,0.000,0.000,0.000,3.691,3.691,0.000,0.000,0.000,0.450,0.000,0.0000,0.0629,0.0000,0.3129,0.5000,1.0000,0.0000
1.593,Upwind,0.000,0.000,0.000,0.000,3.691,3.691,0.000,0.000,0.000,0.449,0.000,0.0000,0.0629,0.0000,0.4151,0.5000,1.0000,0.0000
1.796,Upwind,0.000,0.000,0.000,0.000,3.691,3.691,0.000,0.000,0.000,0.449,0.000,0.0000,0.0629,0.0000,0.5165,0.5000,1.0000,0.0000
1.988,Upwind,0.000,0.000,0.000,0.000,3.691,3.691,0.000,0.000,0.000,0.449,0.000,0.0000,0.0628,0.0000,0.6128,0.5000,1.0000,0.0000
2.192,Upwind,0.000,0.000,0.000,0.000,3.691,3.691,0.002,0.000,0.000,0.449,0.000,0.0000,0.0628,0.0000,0.7145,0.5000,1.0000,0.0000
2.390,Upwind,0.001,0.000,0.001,0.000,3.691,3.691,0.011,0.000,0.000,0.449,0.000,0.0000,0.0628,0.0000,0.8134,0.5000,1.0000,0.0000
2.598,Upwind,0.003,0.000,0.003,0.000,3.691,3.691,0.029,0.000,0.000,0.449,0.000,0.0000,0.0629,0.0000,0.9177,0.5000,1.0000,0.0000
2.795,Upwind,0.008,0.000,0.007,0.000,3.691,3.691,0.058,0.000,0.000,0.449,0.000,0.0000,0.0629,0.0000,1.0000,0.5000,1.0000,0.0000
2.998,Upwind,0.016,0.000,0.016,0.000,3.691,3.691,0.099,0.000,0.000,0.449,0.000,0.0000,0.0629,0.0000,1.0000,0.5000,1.0000,0.0000
3.195,Upwind,0.029,0.000,0.029,0.000,3.691,3.691,0.156,0.000,0.000,0.449,0.000,0.0000,0.0629,0.0000,1.0000,0.5000,1.0000,0.0000
3.394,Upwind,0.048,0.000,0.048,0.000,3.691,3.691,0.231,0.000,0.000,0.449,0.000,0.0000,0.0629,0.0000,1.0000,0.5000,1.0000,0.0000
3.597,Upwind,0.079,0.000,0.079,0.000,3.691,3.691,0.327,0.000,0.000,0.449,0.000,0.0000,0.0629,0.0000,1.0000,0.5000,1.0000,0.0000
3.793,Upwind,0.116,0.000,0.116,0.000,3.691,3.691,0.449,0.000,0.000,0.449,0.000,0.0000,0.0629,0.0000,1.0000,0.5000,1.0000,0.0000
3.990,Upwind,0.170,0.000,0.169,0.000,3.691,3.691,0.600,0.000,0.000,0.450,0.000,0.0000,0.0630,0.0000,1.0000,0.5000,1.0000,0.0000
4.200,Upwind,0.247,0.000,0.247,0.000,3.691,3.691,0.786,0.000,0.000,0.450,0.000,0.0000,0.0630,0.0000,1.0000,0.5000,1.0000,0.0000
4.389,Upwind,0.333,0.000,0.332,0.000,3.691,3.691,1.012,0.000,0.000,0.450,0.000,0.0000,0.0630,0.0000,1.0000,0.5000,1.0000,0.0000
4.597,Upwind,0.462,0.000,0.461,0.000,3.691,3.691,1.285,0.000,0.000,0.450,0.000,0.0000,0.0631,0.0000,1.0000,0.5000,1.0000,0.0000
4.787,Upwind,0.599,0.000,0.599,0.000,3.691,3.691,1.582,0.000,0.000,0.450,0.000,0.0000,0.0631,0.0000,1.0000,0.5000,1.0000,0.0000
4.992,Upwind,0.784,0.000,0.784,0.000,3.691,3.691,1.999,0.000,0.000,0.451,0.000,0.0000,0.0631,0.0000,1.0000,0.5000,1.0000,0.0000
5.188,Upwind,1.013,0.000,1.012,0.000,3.691,3.691,2.415,0.000,0.000,0.451,0.000,0.0000,0.0632,0.0000,1.0000,0.5000,1.0000,0.0000
5.392,Upwind,1.292,0.000,1.292,0.000,3.691,3.691,2.991,0.000,0.000,0.452,0.000,0.0000,0.0633,0.0000,1.0000,0.5000,1.0000,0.0000
5.589,Upwind,1.631,0.000,1.631,0.000,3.691,3.691,3.612,0.000,0.000,0.452,0.000,0.0000,0.0633,0.0000,1.0000,0.5000,1.0000,0.0000
5.796,Upwind,2.076,0.000,2.076,0.000,3.691,3.691,4.327,0.000,0.000,0.452,0.000,0.0000,0.0634,0.0000,1.0000,0.5000,1.0000,0.0000
5.997,Upwind,2.569,0.000,2.569,0.000,3.691,3.691,5.142,0.000,0.000,0.453,0.000,0.0000,0.0634,0.0000,1.0000,0.5000,1.0000,0.0000
6.192,Upwind,3.101,0.000,3.100,0.000,3.691,3.691,6.066,0.000,0.000,0.453,0.000,0.0000,0.0635,0.0000,1.0000,0.5000,1.0000,0.0000
6.392,Upwind,3.777,0.000,3.777,0.000,3.691,3.691,7.104,0.000,0.000,0.454,0.000,0.0000,0.0636,0.0000,1.0000,0.5000,1.0000,0.0000
6.588,Upwind,4.567,0.000,4.566,0.000,3.691,3.691,8.263,0.001,0.000,0.454,0.000,0.0000,0.0637,0.0000,1.0000,0.5000,1.0000,0.0000
6.789,Upwind,5.482,0.000,5.481,0.000,3.691,3.691,9.533,0.001,0.000,0.455,0.000,0.0000,0.0637,0.0000,1.0000,0.5000,1.0000,0.0000
6.997,Upwind,6.622,0.000,6.622,0.000,3.691,3.691,10.818,0.001,0.000,0.455,0.000,0.0000,0.0636,0.0000,1.0000,0.5000,1.0000,0.0000
7.195,Upwind,7.812,0.000,7.812,0.000,3.692,3.692,12.103,0.001,0.000,0.454,0.000,0.0000,0.0636,0.0000,1.0000,0.5000,1.0000,0.0000
7.391,Upwind,9.019,0.000,9.019,0.000,3.692,3.692,13.386,0.001,0.000,0.454,0.000,0.0000,0.0635,0.0000,1.0000,0.5000,1.0000,0.0000
7.592,Upwind,10.462,0.000,10.462,0.000,3.692,3.692,14.668,0.001,0.000,0.454,0.000,0.0000,0.0635,0.0000,1.0000,0.5000,1.0000,0.0000
7.799,Upwind,12.175,0.000,12.174,0.000,3.692,3.692,15.949,0.001,0.000,0.453,0.000,0.0000,0.0634,0.0000,1.0000,0.5000,1.0000,0.0000
7.996,Upwind,13.893,0.000,13.892,0.000,3.693,3.693,17.228,0.002,0.000,0.453,0.000,0.0000,0.0634,0.0000,1.0000,0.5000,1.0000,0.0000
8.198,Upwind,15.742,0.000,15.742,0.000,3.693,3.693,18.507,0.002,0.000,0.453,0.000,0.0000,0.0633,0.0000,1.0000,0.5000,1.0000,0.0000
8.396,Upwind,17.723,0.000,17.723,0.000,3.693,3.693,19.784,0.002,0.000,0.452,0.000,0.0000,0.0632,0.0000,1.0000,0.5000,1.0000,0.0000
8.597,Upwind,19.835,0.000,19.835,0.000,3.694,3.694,21.061,0.002,0.000,0.452,0.000,0.0000,0.0632,0.0000,1.0000,0.5000,1.0000,0.0000
8.792,Upwind,21.887,0.000,21.886,0.000,3.694,3.694,22.336,0.002,0.000,0.451,0.000,0.0000,0.0631,0.0000,1.0000,0.5000,1.0000,0.0000
8.991,Upwind,24.250,0.000,24.250,0.000,3.695,3.695,23.610,0.002,0.000,0.450,0.000,0.0000,0.0630,0.0000,1.0000,0.5000,1.0000,0.0000
9.197,Upwind,26.959,0.000,26.959,0.000,3.695,3.695,24.882,0.003,0.000,0.450,0.000,0.0000,0.0629,0.0000,1.0000,0.5000,1.0000,0.0000
9.395,Upwind,29.595,0.000,29.595,0.000,3.696,3.696,26.153,0.003,0.000,0.449,0.000,0.0000,0.0628,0.0000,1.0000,0.5000,1.0000,0.0000
9.590,Upwind,32.127,0.000,32.127,0.000,3.696,3.696,27.423,0.003,0.000,0.448,0.000,0.0000,0.0627,0.0000,1.0000,0.5000,1.0000,0.0000
9.795,Upwind,35.261,0.000,35.260,0.000,3.697,3.697,28.692,0.003,0.000,0.447,0.000,0.0000,0.0625,0.0000,1.0000,0.5000,1.0000,0.0000
9.998,Upwind,38.289,0.000,38.289,0.000,3.697,3.697,29.959,0.004,0.000,0.446,0.000,0.0000,0.0624,0.0000,1.0000,0.5000,1.0000,0.0000
10.190,Upwind,41.179,0.000,41.179,0.000,3.698,3.698,31.225,0.004,0.000,0.446,0.000,0.0000,0.0623,0.0000,1.0000,0.5000,1.0000,0.0000
10.397,Upwind,44.736,0.001,44.736,0.001,3.699,3.699,32.489,0.004,0.000,0.445,0.000,0.0000,0.0621,0.0000,1.0000,0.5000,1.0000,0.0000
10.593,Upwind,47.865,0.001,47.865,0.001,3.700,3.700,33.752,0.004,0.000,0.443,0.000,0.0000,0.0620,0.0000,1.0000,0.5000,1.0000,0.0000
10.788,Upwind,51.403,0.001,51.403,0.001,3.700,3.701,34.909,0.004,0.000,0.442,0.000,0.0000,0.0618,0.0000,1.0000,0.5000,1.0000,0.0000
10.998,Upwind,55.382,0.001,55.382,0.001,3.701,3.701,36.273,0.005,0.000,0.441,0.000,0.0000,0.0616,0.0000,1.0000,0.5000,1.0000,0.0000
11.195,Upwind,59.190,0.001,59.189,0.001,3.702,3.702,37.532,0.005,0.000,0.440,0.000,0.0000,0.0615,0.0000,1.0000,0.5000,1.0000,0.0000
11.394,Upwind,62.794,0.001,62.794,0.001,3.703,3.703,38.788,0.005,0.000,0.439,0.000,0.0000,0.0613,0.0000,1.0000,0.5000,1.0000,0.0000
11.589,Upwind,66.849,0.001,66.849,0.001,3.704,3.704,40.043,0.005,0.000,0.437,0.000,0.0000,0.0611,0.0000,1.0000,0.5000,1.0000,0.0000
11.794,Upwind,71.034,0.001,71.034,0.001,3.706,3.706,41.297,0.006,0.000,0.436,0.000,0.0000,0.0609,0.0000,1.0000,0.5000,1.0000,0.0000
11.994,Upwind,75.713,0.001,75.713,0.001,3.707,3.707,42.548,0.006,0.000,0.434,0.000,0.0000,0.0607,0.0000,1.0000,0.5000,1.0000,0.0000
12.196,Upwind,80.166,0.001,80.166,0.001,3.708,3.708,43.798,0.007,0.000,0.433,0.000,0.0000,0.0604,0.0000,1.0000,0.5000,1.0000,0.0000
12.392,Upwind,84.361,0.001,84.360,0.001,3.709,3.709,45.046,0.007,0.000,0.431,0.000,0.0000,0.0602,0.0000,1.0000,0.5000,1.0000,0.0000
12.592,Upwind,89.060,0.002,89.059,0.002,3.711,3.711,46.292,0.007,0.000,0.429,0.000,-0.0001,0.0599,0.0000,1.0000,0.5000,1.0000,0.0000
12.794,Upwind,94.295,0.002,94.295,0.002,3.712,3.712,47.536,0.008,0.000,0.427,0.000,-0.0001,0.0596,0.0000,1.0000,0.5000,1.0000,0.0000
12.988,Upwind,98.842,0.002,98.842,0.002,3.714,3.714,48.778,0.008,0.000,0.425,0.000,-0.0001,0.0593,0.0000,1.0000,0.5000,1.0000,0.0000
13.189,Upwind,103.924,0.002,103.924,0.002,3.715,3.715,50.017,0.009,0.000,0.423,0.000,-0.0001,0.0590,0.0000,1.0000,0.5000,1.0000,0.0000
13.391,Upwind,109.135,0.002,109.134,0.002,3.717,3.717,51.255,0.009,0.001,0.421,0.000,-0.0001,0.0587,0.0000,1.0000,0.5000,1.0000,0.0000
13.594,Upwind,114.923,0.002,114.922,0.002,3.719,3.719,52.490,0.009,0.001,0.418,0.000,-0.0001,0.0583,0.0000,1.0000,0.5000,1.0000,0.0000
13.790,Upwind,119.936,0.003,119.936,0.003,3.721,3.721,53.724,0.010,0.001,0.416,0.000,-0.0001,0.0580,0.0000,1.0000,0.5000,1.0000,0.0000
13.990,Upwind,125.528,0.003,125.527,0.003,3.723,3.723,54.955,0.010,0.001,0.413,0.000,-0.0001,0.0576,0.0000,1.0000,0.5000,1.0000,0.0000
14.195,Upwind,131.727,0.003,131.727,0.003,3.725,3.725,56.183,0.009,0.001,0.411,0.000,-0.0001,0.0573,0.0000,1.0000,0.5000,1.0000,0.0000
14.393,Upwind,137.089,0.003,137.089,0.003,3.726,3.726,57.410,0.008,0.001,0.409,0.000,-0.0001,0.0570,0.0000,1.0000,0.5000,1.0000,0.0000
14.592,Upwind,143.059,0.004,143.059,0.004,3.728,3.728,58.634,0.008,0.001,0.407,0.000,-0.0001,0.0567,0.0000,1.0000,0.5000,1.0000,0.0000
14.792,Upwind,149.155,0.004,149.155,0.004,3.730,3.730,59.857,0.008,0.001,0.405,0.000,-0.0001,0.0565,0.0000,1.0000,0.5000,1.0000,0.0000
14.998,Upwind,155.901,0.004,155.901,0.004,3.731,3.731,61.077,0.008,0.001,0.403,0.000,-0.0001,0.0562,0.0000,1.0000,0.5000,1.0000,0.0000
15.198,Upwind,162.259,0.005,162.259,0.005,3.733,3.733,62.296,0.008,0.001,0.400,0.000,-0.0001,0.0558,0.0000,1.0000,0.5000,1.0000,0.0000
15.394,Upwind,168.197,0.005,168.196,0.005,3.734,3.735,63.512,0.009,0.001,0.398,0.000,-0.0002,0.0555,0.0000,1.0000,0.5000,1.0000,0.0000
15.589,Upwind,174.794,0.005,174.794,0.005,3.736,3.736,64.726,0.009,0.001,0.396,0.000,-0.0002,0.0552,0.0000,1.0000,0.5000,1.0000,0.0000
15.796,Upwind,182.082,0.006,182.082,0.006,3.738,3.738,65.938,0.009,0.001,0.394,0.000,-0.0002,0.0549,0.0000,1.0000,0.5000,1.0000,0.0000
15.991,Upwind,188.363,0.006,188.363,0.006,3.740,3.740,67.147,0.009,0.002,0.392,0.000,-0.0002,0.0546,0.0000,1.0000,0.5000,1.0000,0.0000
16.192,Upwind,195.334,0.006,195.334,0.006,3.741,3.742,68.355,0.009,0.002,0.389,0.000,-0.0002,0.0543,0.0000,1.0000,0.5000,1.0000,0.0000
16.396,Upwind,203.026,0.007,203.026,0.007,3.743,3.743,69.560,0.009,0.002,0.387,0.000,-0.0002,0.0539,0.0000,1.0000,0.5000,1.0000,0.0000
16.589,Upwind,209.649,0.007,209.649,0.007,3.745,3.745,70.763,0.009,0.002,0.384,0.000,-0.0002,0.0536,0.0000,1.0000,0.5000,1.0000,0.0000
16.790,Upwind,216.992,0.008,216.991,0.008,3.747,3.747,71.963,0.010,0.002,0.382,0.000,-0.0003,0.0532,0.0000,1.0000,0.5000,1.0000,0.0000
16.991,Upwind,224.458,0.009,224.458,0.009,3.749,3.749,73.162,0.010,0.002,0.380,0.000,-0.0003,0.0529,0.0000,1.0000,0.5000,1.0000,0.0000
17.195,Upwind,232.685,0.009,232.685,0.009,3.751,3.751,74.358,0.010,0.002,0.377,0.000,-0.0003,0.0525,0.0000,1.0000,0.5000,1.0000,0.0000
17.393,Upwind,239.760,0.010,239.759,0.010,3.753,3.753,75.551,0.010,0.003,0.375,0.000,-0.0003,0.0522,0.0000,1.0000,0.5000,1.0000,0.0000
17.588,Upwind,247.595,0.010,247.594,0.010,3.755,3.755,76.643,0.010,0.003,0.372,0.000,-0.0003,0.0519,0.0000,1.0000,0.5000,1.0000,0.0000
17.792,Upwind,255.552,0.011,255.552,0.011,3.757,3.757,77.931,0.010,0.003,0.369,0.000,-0.0003,0.0515,0.0000,1.0000,0.5000,1.0000,0.0000
17.994,Upwind,263.632,0.012,263.632,0.012,3.759,3.759,79.118,0.010,0.003,0.367,0.000,-0.0004,0.0511,0.0000,1.0000,0.5000,1.0000,0.0000
18.200,Upwind,272.522,0.013,272.522,0.013,3.761,3.761,80.302,0.010,0.003,0.364,0.000,-0.0004,0.0507,0.0000,1.0000,0.5000,1.0000,0.0000
18.398,Upwind,280.856,0.013,280.856,0.013,3.763,3.763,81.483,0.011,0.003,0.361,0.000,-0.0004,0.0503,0.0000,1.0000,0.5000,1.0000,0.0000
18.590,Upwind,288.602,0.014,288.601,0.014,3.765,3.765,82.662,0.011,0.004,0.359,0.000,-0.0004,0.0500,0.0000,1.0000,0.5000,1.0000,0.0000
18.798,Upwind,297.887,0.015,297.887,0.015,3.767,3.767,83.839,0.011,0.004,0.356,0.000,-0.0005,0.0496,0.0000,1.0000,0.5000,1.0000,0.0000
18.991,Upwind,305.854,0.016,305.854,0.016,3.769,3.769,85.013,0.011,0.004,0.353,0.000,-0.0005,0.0492,0.0000,1.0000,0.5000,1.0000,0.0000
19.197,Upwind,315.401,0.017,315.401,0.017,3.772,3.772,86.184,0.011,0.004,0.350,0.000,-0.0005,0.0488,0.0000,1.0000,0.5000,1.0000,0.0000
19.388,Upwind,323.590,0.018,323.590,0.018,3.774,3.774,87.256,0.011,0.004,0.348,0.000,-0.0005,0.0484,0.0000,1.0000,0.5000,1.0000,0.0000
19.591,Upwind,332.638,0.019,332.638,0.019,3.776,3.776,88.520,0.011,0.005,0.345,0.000,-0.0006,0.0480,0.0000,1.0000,0.5000,1.0000,0.0000
19.797,Upwind,342.575,0.020,342.575,0.020,3.778,3.778,89.684,0.011,0.005,0.342,0.000,-0.0006,0.0476,0.0000,1.0000,0.5000,1.0000,0.0000
19.998,Upwind,351.873,0.022,351.873,0.022,3.781,3.781,90.845,0.012,0.005,0.339,0.000,-0.0006,0.0472,0.0000,1.0000,0.5000,1.0000,0.0000
20.190,Upwind,360.501,0.023,360.500,0.023,3.783,3.783,92.004,0.012,0.005,0.336,0.000,-0.0007,0.0468,0.0000,1.0000,0.5000,1.0000,0.0000
20.396,Upwind,370.826,0.024,370.826,0.024,3.785,3.785,93.160,0.012,0.006,0.333,0.000,-0.0007,0.0463,0.0000,1.0000,0.5000,1.0000,0.0000
20.588,Upwind,379.672,0.026,379.671,0.026,3.787,3.787,94.217,0.012,0.006,0.330,0.000,-0.0007,0.0459,0.0000,1.0000,0.5000,1.0000,0.0000
20.791,Upwind,389.435,0.027,389.435,0.027,3.790,3.790,95.464,0.012,0.006,0.327,0.000,-0.0008,0.0455,0.0000,1.0000,0.5000,1.0000,0.0000
20.990,Upwind,399.317,0.029,399.317,0.029,3.792,3.792,96.612,0.012,0.007,0.324,0.000,-0.0008,0.0451,0.0000,1.0000,0.5000,1.0000,0.0000
21.191,Upwind,409.317,0.030,409.316,0.030,3.795,3.795,97.757,0.012,0.007,0.321,0.000,-0.0008,0.0446,0.0000,1.0000,0.5000,1.0000,0.0000
21.400,Upwind,420.282,0.032,420.282,0.032,3.797,3.797,98.899,0.012,0.007,0.318,0.000,-0.0009,0.0442,0.0000,1.0000,0.5000,1.0000,0.0000
21.591,Upwind,429.669,0.034,429.668,0.034,3.800,3.800,100.039,0.012,0.008,0.315,0.000,-0.0009,0.0438,0.0000,1.0000,0.5000,1.0000,0.0000
21.793,Upwind,440.021,0.035,440.020,0.035,3.802,3.802,101.176,0.013,0.008,0.312,0.000,-0.0009,0.0433,0.0000,1.0000,0.5000,1.0000,0.0000
21.996,Upwind,451.367,0.038,451.367,0.038,3.805,3.805,102.311,0.013,0.008,0.308,0.000,-0.0010,0.0429,0.0000,1.0000,0.5000,1.0000,0.0000
22.195,Upwind,461.962,0.040,461.962,0.040,3.807,3.807,103.442,0.013,0.009,0.305,0.000,-0.0010,0.0424,0.0000,1.0000,0.5000,1.0000,0.0000
22.392,Upwind,471.777,0.042,471.776,0.042,3.810,3.810,104.571,0.013,0.009,0.302,0.000,-0.0011,0.0420,0.0000,1.0000,0.5000,1.0000,0.0000
22.597,Upwind,483.501,0.044,483.501,0.044,3.812,3.812,105.697,0.013,0.009,0.299,0.000,-0.0011,0.0415,0.0000,1.0000,0.5000,1.0000,0.0000
22.790,Upwind,493.528,0.046,493.527,0.046,3.815,3.815,106.820,0.013,0.010,0.296,0.000,-0.0012,0.0411,0.0000,1.0000,0.5000,1.0000,0.0000
22.995,Upwind,505.502,0.049,505.502,0.049,3.817,3.817,107.940,0.013,0.010,0.292,0.000,-0.0012,0.0406,0.0000,1.0000,0.5000,1.0000,0.0000
23.197,Upwind,516.676,0.051,516.675,0.051,3.820,3.820,109.058,0.013,0.010,0.289,0.000,-0.0013,0.0401,0.0000,1.0000,0.5000,1.0000,0.0000
23.390,Upwind,527.019,0.053,527.019,0.053,3.823,3.823,110.172,0.013,0.011,0.286,0.000,-0.0013,0.0397,0.0000,1.0000,0.5000,1.0000,0.0000
23.590,Upwind,538.412,0.056,538.412,0.056,3.825,3.825,111.284,0.013,0.011,0.282,0.000,-0.0014,0.0392,0.0000,1.0000,0.5000,1.0000,0.0000
23.790,Upwind,549.920,0.059,549.919,0.059,3.828,3.828,112.393,0.013,0.012,0.279,-0.001,-0.0014,0.0387,0.0000,1.0000,0.5000,1.0000,0.0000
23.989,Upwind,561.541,0.062,561.541,0.062,3.831,3.831,113.499,0.014,0.012,0.276,-0.001,-0.0015,0.0382,0.0000,1.0000,0.5000,1.0000,0.0000
24.192,Upwind,573.276,0.065,573.276,0.065,3.833,3.833,114.602,0.014,0.013,0.272,-0.001,-0.0015,0.0378,0.0000,1.0000,0.5000,1.0000,0.0000
24.397,Upwind,586.117,0.068,586.117,0.068,3.836,3.836,115.702,0.014,0.013,0.269,-0.001,-0.0016,0.0373,0.0000,1.0000,0.5000,1.0000,0.0000
24.592,Upwind,597.086,0.071,597.086,0.071,3.839,3.839,116.799,0.014,0.013,0.265,-0.001,-0.0017,0.0368,0.0000,1.0000,0.5000,1.0000,0.0000
24.797,Upwind,610.172,0.075,610.171,0.075,3.842,3.842,117.893,0.014,0.014,0.262,-0.001,-0.0017,0.0363,0.0000,1.0000,0.5000,1.0000,0.0000
24.998,Upwind,622.367,0.079,622.367,0.079,3.844,3.844,118.984,0.014,0.014,0.258,-0.001,-0.0018,0.0358,0.0000,1.0000,0.5000,1.0000,0.0000
25.197,Upwind,634.676,0.082,634.675,0.082,3.847,3.847,120.072,0.014,0.015,0.255,-0.001,-0.0018,0.0353,0.0000,1.0000,0.5000,1.0000,0.0000
25.391,Upwind,646.056,0.086,646.056,0.086,3.850,3.850,121.157,0.014,0.015,0.251,-0.001,-0.0019,0.0349,0.0000,1.0000,0.5000,1.0000,0.0000
25.596,Upwind,659.627,0.090,659.626,0.090,3.853,3.853,122.239,0.014,0.016,0.248,-0.001,-0.0020,0.0344,0.0000,1.0000,0.5000,1.0000,0.0000
25.789,Upwind,671.211,0.094,671.211,0.094,3.855,3.855,123.319,0.014,0.016,0.244,-0.001,-0.0020,0.0339,0.0000,1.0000,0.5000,1.0000,0.0000
25.991,Upwind,683.955,0.098,683.955,0.098,3.858,3.858,124.395,0.014,0.017,0.241,-0.001,-0.0021,0.0334,0.0000,1.0000,0.5000,1.0000,0.0000
26.190,Upwind,696.810,0.103,696.810,0.103,3.861,3.861,125.468,0.014,0.017,0.237,-0.001,-0.0022,0.0329,0.0000,1.0000,0.5000,1.0000,0.0000
26.395,Upwind,710.860,0.107,710.860,0.107,3.864,3.864,126.538,0.014,0.018,0.234,-0.001,-0.0022,0.0324,0.0000,1.0000,0.5000,1.0000,0.0000
26.598,Upwind,723.945,0.112,723.944,0.112,3.867,3.867,127.605,0.014,0.018,0.230,-0.001,-0.0023,0.0319,0.0000,1.0000,0.5000,1.0000,0.0000
26.794,Upwind,736.034,0.117,736.034,0.117,3.870,3.870,128.669,0.015,0.019,0.227,-0.001,-0.0024,0.0314,0.0000,1.0000,0.5000,1.0000,0.0000
26.996,Upwind,750.441,0.122,750.441,0.122,3.873,3.873,129.729,0.015,0.019,0.223,-0.002,-0.0024,0.0309,0.0000,1.0000,0.5000,1.0000,0.0000
27.188,Upwind,762.731,0.127,762.731,0.127,3.875,3.875,130.699,0.015,0.020,0.220,-0.002,-0.0025,0.0304,0.0000,1.0000,0.5000,1.0000,0.0000
27.392,Upwind,776.243,0.132,776.243,0.132,3.879,3.879,131.842,0.015,0.020,0.216,-0.002,-0.0026,0.0298,0.0000,1.0000,0.5000,1.0000,0.0000
27.596,Upwind,791.002,0.138,791.002,0.138,3.881,3.881,132.893,0.015,0.021,0.212,-0.002,-0.0027,0.0293,0.0000,1.0000,0.5000,1.0000,0.0000
27.788,Upwind,803.590,0.143,803.590,0.143,3.884,3.884,133.942,0.015,0.021,0.208,-0.002,-0.0027,0.0288,0.0000,1.0000,0.5000,1.0000,0.0000
27.992,Upwind,817.426,0.149,817.426,0.149,3.887,3.887,134.989,0.015,0.022,0.205,-0.002,-0.0028,0.0283,0.0000,1.0000,0.5000,1.0000,0.0000
28.192,Upwind,831.369,0.155,831.369,0.155,3.890,3.890,136.032,0.015,0.023,0.201,-0.002,-0.0029,0.0278,0.0000,1.0000,0.5000,1.0000,0.0000
28.395,Upwind,846.595,0.162,846.595,0.162,3.893,3.893,137.073,0.015,0.023,0.197,-0.002,-0.0030,0.0273,0.0000,1.0000,0.5000,1.0000,0.0000
28.592,Upwind,859.577,0.168,859.577,0.168,3.896,3.896,138.112,0.015,0.024,0.194,-0.002,-0.0031,0.0267,0.0000,1.0000,0.5000,1.0000,0.0000
28.793,Upwind,873.842,0.174,873.841,0.174,3.899,3.899,139.148,0.015,0.024,0.190,-0.002,-0.0032,0.0262,0.0000,1.0000,0.5000,1.0000,0.0000
28.994,Upwind,888.212,0.181,888.212,0.181,3.902,3.902,140.181,0.015,0.025,0.186,-0.002,-0.0032,0.0257,0.0000,1.0000,0.5000,1.0000,0.0000
29.189,Upwind,902.689,0.188,902.688,0.188,3.905,3.905,141.211,0.015,0.025,0.182,-0.003,-0.0033,0.0252,0.0000,1.0000,0.5000,1.0000,0.0000
29.393,Upwind,917.272,0.195,917.271,0.195,3.908,3.908,142.239,0.015,0.026,0.179,-0.003,-0.0034,0.0246,0.0000,1.0000,0.5000,1.0000,0.0000
29.592,Upwind,931.960,0.203,931.960,0.203,3.911,3.911,143.178,0.015,0.026,0.175,-0.003,-0.0035,0.0242,0.0000,1.0000,0.5000,1.0000,0.0000
29.798,Upwind,947.991,0.211,947.991,0.211,3.915,3.915,144.286,0.015,0.027,0.171,-0.003,-0.0036,0.0236,0.0000,1.0000,0.5000,1.0000,0.0000
29.998,Upwind,962.898,0.219,962.898,0.219,3.918,3.918,145.305,0.015,0.028,0.167,-0.003,-0.0037,0.0231,0.0000,1.0000,0.5000,1.0000,0.0000
30.191,Upwind,976.655,0.226,976.655,0.226,3.921,3.921,146.322,0.016,0.028,0.164,-0.003,-0.0038,0.0225,0.0000,1.0000,0.5000,1.0000,0.0000
30.398,Upwind,993.027,0.235,993.027,0.235,3.924,3.924,147.336,0.016,0.029,0.160,-0.003,-0.0039,0.0220,0.0000,1.0000,0.5000,1.0000,0.0000
30.589,Upwind,1006.975,0.243,1006.975,0.243,3.927,3.927,148.347,0.016,0.029,0.156,-0.003,-0.0040,0.0215,0.0000,1.0000,0.5000,1.0000,0.0000
30.793,Upwind,1022.291,0.252,1022.291,0.252,3.930,3.930,149.356,0.016,0.030,0.152,-0.004,-0.0041,0.0209,0.0000,1.0000,0.5000,1.0000,0.0000
30.998,Upwind,1039.000,0.261,1039.000,0.261,3.933,3.933,150.362,0.015,0.031,0.148,-0.004,-0.0042,-0.0154,0.0000,1.0000,0.5000,1.0000,0.0000
31.188,Upwind,1053.234,0.269,1053.233,0.269,3.935,3.935,151.364,0.004,0.031,0.153,-0.004,-0.0043,-0.1007,0.0000,1.0000,0.5000,1.0000,0.0000
31.393,Upwind,1068.859,0.279,1068.859,0.279,3.935,3.935,152.358,-0.008,0.032,0.170,-0.004,-0.0043,-0.1927,0.0000,1.0000,0.5000,1.0000,0.0000
31.595,Upwind,1085.902,0.289,1085.902,0.289,3.933,3.933,153.343,-0.006,0.033,0.189,-0.004,-0.0045,-0.2840,0.0000,1.0000,0.5000,1.0000,0.0000
31.787,Upwind,1100.415,0.298,1100.415,0.298,3.932,3.932,154.239,-0.002,0.033,0.204,-0.004,-0.0046,-0.3704,0.0000,1.0000,0.5000,1.0000,0.0000
31.994,Upwind,1116.344,0.308,1116.344,0.308,3.932,3.932,155.290,0.006,0.034,0.223,-0.005,-0.0047,-0.4633,0.0000,1.0000,0.5000,1.0000,0.0000
32.188,Upwind,1132.372,0.318,1132.371,0.318,3.936,3.936,156.250,0.032,0.035,0.274,-0.005,-0.0048,-0.5508,0.0000,1.0000,0.5000,1.0000,0.0000
32.395,Upwind,1149.846,0.330,1149.846,0.330,3.946,3.946,157.200,0.071,0.035,0.406,-0.005,-0.0049,-0.6437,0.0000,1.0000,0.5000,1.0000,0.0000
32.598,Upwind,1166.078,0.341,1166.077,0.341,3.965,3.965,158.142,0.131,0.036,0.658,-0.005,-0.0050,-0.6500,0.0000,1.0000,0.5000,1.0000,0.0000
32.795,Upwind,1182.406,0.352,1182.405,0.352,3.998,3.998,159.076,0.195,0.037,1.035,-0.005,-0.0052,-0.6500,0.0000,1.0000,0.5000,1.0000,0.0000
32.989,Upwind,1197.457,0.362,1197.457,0.362,4.043,4.043,160.003,0.248,0.038,1.528,-0.005,-0.0053,-0.6500,0.0000,1.0000,0.5000,1.0000,0.0000
33.198,Upwind,1215.348,0.374,1215.348,0.374,4.097,4.097,160.921,0.295,0.038,2.126,-0.006,-0.0054,-0.6500,0.0000,1.0000,0.5000,1.0000,0.0000
33.389,Upwind,1230.572,0.385,1230.572,0.385,4.160,4.160,161.827,0.337,0.039,2.822,-0.006,-0.0055,-0.6500,0.0000,1.0000,0.5000,1.0000,0.0000
33.593,Upwind,1247.269,0.397,1247.269,0.397,4.232,4.232,162.720,0.374,0.040,3.604,-0.006,-0.0056,-0.6500,0.0000,1.0000,0.5000,1.0000,0.0000
33.796,Upwind,1265.461,0.411,1265.460,0.411,4.326,4.326,163.593,0.660,0.041,4.457,-0.009,-0.0053,-0.6500,0.0000,1.0000,0.5000,1.0000,0.0000
33.992,Upwind,1280.934,0.422,1280.934,0.422,4.530,4.530,164.437,1.461,0.041,5.346,-0.017,-0.0048,-0.6500,0.0000,1.0000,0.5000,1.0000,0.0000
34.188,Upwind,1297.895,0.435,1297.895,0.435,4.897,4.897,165.178,2.604,0.042,6.164,-0.028,-0.0043,-0.6500,0.0000,1.0000,0.5000,1.0000,0.0000
34.391,Upwind,1314.937,0.448,1314.937,0.448,5.647,5.647,166.009,4.388,0.042,7.106,-0.044,-0.0037,-0.6500,0.0000,1.0000,0.5000,1.0000,0.0000
34.589,Upwind,1332.053,0.461,1332.053,0.461,6.718,6.718,166.728,6.365,0.042,7.932,-0.059,-0.0031,-0.6500,0.0000,1.0000,0.5000,1.0000,0.0000
34.793,Upwind,1349.238,0.474,1349.238,0.474,8.208,8.208,167.397,8.569,0.041,8.705,-0.074,-0.0025,-0.6500,0.0000,1.0000,0.5000,1.0000,0.0000
34.996,Upwind,1367.926,0.487,1367.925,0.487,10.154,10.155,168.016,10.916,0.040,9.423,-0.089,-0.0020,-0.6500,0.0000,1.0000,0.5000,1.0000,0.0000
35.189,Upwind,1383.789,0.498,1383.789,0.498,12.582,12.582,168.583,13.377,0.038,10.086,-0.102,-0.0014,-0.6500,0.0000,1.0000,0.5000,1.0000,0.0000
35.394,Upwind,1401.142,0.509,1401.142,0.509,15.510,15.510,169.100,15.907,0.036,10.699,-0.113,-0.0009,-0.6500,0.0000,1.0000,0.5000,1.0000,0.0000
35.596,Upwind,1419.989,0.521,1419.989,0.521,18.947,18.947,169.568,18.468,0.033,11.266,-0.121,-0.0005,-0.6243,0.0000,1.0000,0.5000,1.0000,0.0000
35.792,Upwind,1435.971,0.530,1435.970,0.530,22.897,22.897,169.991,21.026,0.029,11.784,-0.128,-0.0001,-0.5948,0.0001,1.0000,0.5000,1.0000,0.0000
35.994,Upwind,1454.891,0.540,1454.891,0.540,27.355,27.355,170.373,23.545,0.025,12.244,-0.132,0.0003,-0.5645,0.0001,1.0000,0.5000,1.0000,0.0000
36.197,Upwind,1472.383,0.549,1472.383,0.549,32.311,32.311,170.716,26.006,0.021,12.641,-0.135,0.0007,-0.5340,0.0001,1.0000,0.5000,1.0000,0.0000
36.388,Upwind,1488.437,0.556,1488.436,0.556,37.751,37.751,171.026,28.382,0.016,12.972,-0.135,0.0010,-0.5054,0.0001,1.0000,0.5000,1.0000,0.0000
36.596,Upwind,1507.428,0.563,1507.427,0.563,43.658,43.658,171.305,30.666,0.011,13.236,-0.133,0.0013,-0.4742,0.0001,1.0000,0.5000,1.0000,0.0000
36.792,Upwind,1523.510,0.568,1523.510,0.568,50.010,50.010,171.558,32.835,0.007,13.434,-0.130,0.0015,-0.4448,0.0001,1.0000,0.5000,1.0000,0.0000
36.998,Upwind,1542.530,0.574,1542.530,0.574,56.783,56.783,171.788,34.870,0.003,13.569,-0.126,0.0017,-0.4140,0.0001,1.0000,0.5000,1.0000,0.0000
37.196,Upwind,1560.098,0.578,1560.097,0.578,63.947,63.948,172.000,36.753,359.999,13.643,-0.121,0.0018,-0.3843,0.0001,1.0000,0.5000,1.0000,0.0000
37.394,Upwind,1576.209,0.581,1576.209,0.581,71.473,71.474,172.198,38.480,359.995,13.661,-0.115,0.0019,-0.3546,0.0001,1.0000,0.5000,1.0000,0.0000
37.595,Upwind,1595.259,0.584,1595.259,0.584,79.328,79.328,172.386,40.038,359.993,13.626,-0.108,0.0018,-0.3245,0.0001,1.0000,0.5000,1.0000,0.0000
37.794,Upwind,1611.387,0.585,1611.387,0.585,87.476,87.477,172.569,41.417,359.991,13.541,-0.101,0.0018,-0.2946,0.0000,1.0000,0.5000,1.0000,0.0000
37.989,Upwind,1628.990,0.587,1628.990,0.587,95.883,95.883,172.749,42.616,359.989,13.408,-0.094,0.0016,-0.2653,0.0000,1.0000,0.5000,1.0000,0.0000
38.197,Upwind,1648.072,0.587,1648.072,0.587,103.784,103.784,172.913,43.550,359.988,13.248,-0.088,0.0015,-0.2341,0.0000,0.9995,0.5000,1.0000,0.0000
38.398,Upwind,1665.700,0.588,1665.700,0.588,113.321,113.322,173.104,44.455,359.988,13.013,-0.081,0.0012,-0.2401,0.0000,0.9968,0.5000,1.0000,0.0000
38.596,Upwind,1683.341,0.587,1683.341,0.587,122.278,122.278,173.275,45.072,359.988,12.773,-0.075,0.0010,-0.2923,0.0000,0.9943,0.5000,1.0000,0.0000
38.796,Upwind,1700.998,0.587,1700.997,0.587,131.337,131.338,173.441,45.495,359.989,12.559,-0.069,0.0008,-0.3344,0.0000,0.9920,0.5000,1.0000,0.0000
38.991,Upwind,1717.197,0.586,1717.197,0.586,140.466,140.466,173.602,45.774,359.989,12.408,-0.064,0.0005,-0.3607,0.0000,0.9897,0.5000,1.0000,0.0000
39.196,Upwind,1736.359,0.585,1736.359,0.585,149.641,149.642,173.757,45.971,359.990,12.339,-0.060,0.0004,-0.3673,0.0000,0.9876,0.5000,1.0000,0.0000
39.398,Upwind,1754.065,0.583,1754.065,0.583,158.853,158.853,173.906,46.145,359.991,12.349,-0.056,0.0002,-0.3583,0.0000,0.9855,0.5000,1.0000,0.0000
39.599,Upwind,1771.787,0.582,1771.787,0.582,168.101,168.101,174.048,46.342,359.991,12.423,-0.053,0.0000,-0.3377,0.0000,0.9835,0.5000,1.0000,0.0000
39.793,Upwind,1788.044,0.580,1788.044,0.580,177.393,177.394,174.181,46.593,359.992,12.536,-0.050,-0.0001,-0.3118,0.0000,0.9816,0.5000,1.0000,0.0000
39.997,Upwind,1807.272,0.578,1807.272,0.578,186.742,186.743,174.304,46.905,359.992,12.662,-0.048,-0.0002,-0.2830,0.0000,0.9799,0.5000,1.0000,0.0000
40.188,Upwind,1823.552,0.577,1823.551,0.577,195.371,195.372,174.408,47.240,359.993,12.768,-0.047,-0.0002,-0.2612,0.0000,0.9784,0.5000,1.0000,0.0000
40.392,Upwind,1841.321,0.575,1841.321,0.575,205.653,205.654,174.522,47.675,359.993,12.864,-0.046,-0.0002,-0.2432,0.0000,0.9768,0.5000,1.0000,0.0000
40.597,Upwind,1860.582,0.572,1860.581,0.572,215.229,215.230,174.618,48.088,359.993,12.916,-0.045,-0.0003,-0.2356,0.0000,0.9755,0.5000,1.0000,0.0000
40.799,Upwind,1878.368,0.570,1878.368,0.570,224.887,224.888,174.706,48.485,359.993,12.932,-0.044,-0.0002,-0.2352,0.0000,0.9742,0.5000,1.0000,0.0000
40.992,Upwind,1894.680,0.568,1894.680,0.568,234.621,234.622,174.788,48.848,359.992,12.919,-0.044,-0.0002,-0.2401,0.0000,0.9731,0.5000,1.0000,0.0000
41.195,Upwind,1913.965,0.566,1913.965,0.566,244.423,244.424,174.865,49.165,359.992,12.888,-0.044,-0.0002,-0.2483,0.0000,0.9720,0.5000,1.0000,0.0000
41.390,Upwind,1930.290,0.563,1930.290,0.563,254.284,254.285,174.938,49.433,359.992,12.849,-0.044,-0.0001,-0.2568,0.0000,0.9710,0.5000,1.0000,0.0000
41.594,Upwind,1949.592,0.561,1949.591,0.561,264.193,264.194,175.007,49.655,359.991,12.814,-0.044,-0.0001,-0.2637,0.0000,0.9700,0.5000,1.0000,0.0000
41.794,Upwind,1967.416,0.558,1967.416,0.558,274.143,274.144,175.072,49.841,359.991,12.790,-0.044,0.0000,-0.2677,0.0000,0.9691,0.5000,1.0000,0.0000
41.994,Upwind,1983.762,0.556,1983.762,0.556,284.128,284.129,175.134,50.003,359.990,12.780,-0.044,0.0001,-0.2686,0.0000,0.9682,0.5000,1.0000,0.0000
42.190,Upwind,2001.601,0.553,2001.601,0.553,294.143,294.145,175.192,50.152,359.990,12.785,-0.043,0.0001,-0.2663,0.0000,0.9674,0.5000,1.0000,0.0000
42.391,Upwind,2019.447,0.551,2019.446,0.551,304.188,304.190,175.247,50.298,359.989,12.801,-0.043,0.0001,-0.2617,0.0000,0.9667,0.5000,1.0000,0.0000
42.594,Upwind,2037.299,0.548,2037.299,0.548,314.263,314.264,175.298,50.448,359.989,12.825,-0.043,0.0002,-0.2560,0.0000,0.9659,0.5000,1.0000,0.0000
42.797,Upwind,2056.646,0.545,2056.646,0.545,324.368,324.369,175.346,50.603,359.988,12.852,-0.042,0.0002,-0.2501,0.0000,0.9653,0.5000,1.0000,0.0000
42.988,Upwind,2073.022,0.542,2073.022,0.542,333.658,333.660,175.386,50.749,359.988,12.875,-0.042,0.0002,-0.2455,0.0000,0.9647,0.5000,1.0000,0.0000
43.198,Upwind,2092.382,0.539,2092.381,0.539,344.673,344.674,175.431,50.924,359.988,12.896,-0.041,0.0003,-0.2413,0.0000,0.9641,0.5000,1.0000,0.0000
43.393,Upwind,2108.767,0.536,2108.767,0.536,354.873,354.875,175.468,51.082,359.987,12.909,-0.040,0.0003,-0.2391,0.0000,0.9636,0.5000,1.0000,0.0000
43.590,Upwind,2126.647,0.533,2126.647,0.533,365.105,365.107,175.503,51.233,359.987,12.916,-0.039,0.0002,-0.2383,0.0000,0.9631,0.5000,1.0000,0.0000
43.794,Upwind,2144.532,0.529,2144.532,0.529,375.366,375.368,175.535,51.374,359.987,12.916,-0.038,0.0002,-0.2386,0.0000,0.9626,0.5000,1.0000,0.0000
43.996,Upwind,2163.912,0.526,2163.912,0.526,385.654,385.656,175.564,51.502,359.987,12.913,-0.037,0.0002,-0.2395,0.0000,0.9622,0.5000,1.0000,0.0000
44.197,Upwind,2181.806,0.522,2181.806,0.522,395.966,395.968,175.592,51.618,359.987,12.909,-0.036,0.0002,-0.2405,0.0000,0.9618,0.5000,1.0000,0.0000
44.388,Upwind,2198.213,0.519,2198.212,0.519,405.438,405.440,175.616,51.713,359.987,12.905,-0.035,0.0002,-0.2412,0.0000,0.9615,0.5000,1.0000,0.0000
44.590,Upwind,2216.115,0.516,2216.115,0.516,416.653,416.655,175.641,51.814,359.987,12.902,-0.034,0.0002,-0.2416,0.0000,0.9611,0.5000,1.0000,0.0000
44.791,Upwind,2234.021,0.513,2234.021,0.513,427.025,427.027,175.664,51.899,359.987,12.902,-0.034,0.0001,-0.2414,0.0000,0.9608,0.5000,1.0000,0.0000
44.989,Upwind,2251.932,0.509,2251.932,0.509,437.413,437.415,175.684,51.979,359.987,12.905,-0.033,0.0001,-0.2406,0.0000,0.9605,0.5000,1.0000,0.0000
45.193,Upwind,2269.846,0.506,2269.846,0.506,447.816,447.818,175.703,52.055,359.987,12.909,-0.032,0.0001,-0.2395,0.0000,0.9602,0.5000,1.0000,0.0000
45.398,Upwind,2289.258,0.502,2289.258,0.502,458.234,458.236,175.721,52.128,359.987,12.915,-0.031,0.0001,-0.2381,0.0000,0.9600,0.5000,1.0000,0.0000
45.594,Upwind,2305.687,0.499,2305.687,0.499,468.667,468.669,175.737,52.200,359.987,12.921,-0.030,0.0001,-0.2367,0.0000,0.9598,0.5000,1.0000,0.0000
45.791,Upwind,2323.613,0.495,2323.613,0.495,479.114,479.116,175.751,52.270,359.987,12.927,-0.030,0.0001,-0.2355,0.0000,0.9596,0.5000,1.0000,0.0000
45.998,Upwind,2343.037,0.492,2343.036,0.492,489.575,489.577,175.764,52.338,359.988,12.932,-0.029,0.0000,-0.2345,0.0000,0.9594,0.5000,1.0000,0.0000
46.192,Upwind,2359.475,0.489,2359.475,0.489,500.049,500.051,175.776,52.404,359.988,12.936,-0.029,0.0000,-0.2338,0.0000,0.9592,0.5000,1.0000,0.0000
46.398,Upwind,2378.906,0.485,2378.906,0.485,510.536,510.539,175.787,52.466,359.988,12.938,-0.028,0.0000,-0.2334,0.0000,0.9591,0.5000,1.0000,0.0000
46.599,Upwind,2396.845,0.481,2396.845,0.481,521.035,521.038,175.797,52.524,359.988,12.940,-0.028,0.0000,-0.2332,0.0000,0.9589,0.5000,1.0000,0.0000
46.796,Upwind,2414.788,0.478,2414.788,0.478,531.545,531.548,175.805,52.579,359.988,12.940,-0.028,0.0001,-0.2331,0.0000,0.9588,0.5000,1.0000,0.0000
46.989,Upwind,2431.238,0.475,2431.238,0.475,542.066,542.069,175.813,52.629,359.988,12.940,-0.028,0.0000,-0.2331,0.0000,0.9587,0.5000,1.0000,0.0000
47.198,Upwind,2450.683,0.471,2450.682,0.471,552.597,552.599,175.820,52.675,359.988,12.941,-0.028,0.0001,-0.2331,0.0000,0.9586,0.5000,1.0000,0.0000
47.396,Upwind,2468.634,0.468,2468.634,0.468,563.136,563.139,175.826,52.718,359.988,12.941,-0.027,0.0000,-0.2330,0.0000,0.9585,0.5000,1.0000,0.0000
47.596,Upwind,2486.589,0.465,2486.589,0.465,573.684,573.686,175.831,52.758,359.988,12.942,-0.027,0.0001,-0.2328,0.0000,0.9584,0.5000,1.0000,0.0000
47.795,Upwind,2504.546,0.462,2504.546,0.462,584.239,584.242,175.836,52.795,359.988,12.943,-0.027,0.0001,-0.2325,0.0000,0.9584,0.5000,1.0000,0.0000
47.993,Upwind,2521.010,0.459,2521.010,0.459,594.802,594.805,175.839,52.831,359.988,12.944,-0.027,0.0000,-0.2321,0.0000,0.9583,0.5000,1.0000,0.0000
48.194,Upwind,2538.973,0.456,2538.973,0.456,605.371,605.374,175.843,52.865,359.988,12.946,-0.027,0.0000,-0.2318,0.0000,0.9583,0.5000,1.0000,0.0000
48.397,Upwind,2558.437,0.452,2558.437,0.452,615.947,615.950,175.845,52.897,359.989,12.948,-0.027,0.0000,-0.2314,0.0000,0.9582,0.5000,1.0000,0.0000
48.592,Upwind,2574.908,0.449,2574.908,0.449,626.530,626.533,175.847,52.928,359.989,12.949,-0.026,0.0000,-0.2310,0.0000,0.9582,0.5000,1.0000,0.0000
48.789,Upwind,2592.879,0.446,2592.879,0.446,637.118,637.122,175.849,52.958,359.989,12.951,-0.026,0.0000,-0.2308,0.0000,0.9582,0.5000,1.0000,0.0000
48.988,Upwind,2610.853,0.443,2610.853,0.443,647.713,647.716,175.850,52.986,359.989,12.952,-0.026,0.0000,-0.2305,0.0000,0.9582,0.5000,1.0000,0.0000
49.197,Upwind,2630.328,0.440,2630.327,0.440,658.313,658.316,175.850,53.013,359.989,12.953,-0.026,0.0000,-0.2304,0.0000,0.9582,0.5000,1.0000,0.0000
49.393,Upwind,2646.809,0.437,2646.808,0.437,668.918,668.921,175.850,53.038,359.989,12.953,-0.026,0.0000,-0.2302,0.0000,0.9582,0.5000,1.0000,0.0000
49.595,Upwind,2666.289,0.434,2666.289,0.434,679.527,679.531,175.850,53.061,359.989,12.954,-0.026,0.0000,-0.2302,0.0000,0.9582,0.5000,1.0000,0.0000
49.791,Upwind,2682.774,0.432,2682.774,0.432,690.142,690.145,175.849,53.083,359.989,12.954,-0.026,0.0000,-0.2301,0.0000,0.9582,0.5000,1.0000,0.0000
49.991,Upwind,2700.761,0.429,2700.761,0.429,700.761,700.764,175.848,53.104,359.989,12.954,-0.026,0.0000,-0.2300,0.0000,0.9582,0.5000,1.0000,0.0000
50.194,Upwind,2718.750,0.426,2718.750,0.426,711.383,711.387,175.846,53.123,359.990,12.955,-0.026,0.0000,-0.2299,0.0000,0.9582,0.5000,1.0000,0.0000
50.395,Upwind,2738.241,0.423,2738.241,0.423,722.010,722.013,175.844,53.141,359.990,12.955,-0.026,0.0000,-0.2298,0.0000,0.9582,0.5000,1.0000,0.0000
50.598,Upwind,2756.236,0.420,2756.235,0.420,732.640,732.643,175.842,53.158,359.990,12.956,-0.026,0.0000,-0.2297,0.0000,0.9583,0.5000,1.0000,0.0000
50.797,Upwind,2774.232,0.417,2774.232,0.417,743.273,743.276,175.840,53.174,359.990,12.956,-0.026,0.0000,-0.2296,0.0000,0.9583,0.5000,1.0000,0.0000
50.996,Upwind,2792.231,0.415,2792.231,0.415,753.909,753.913,175.837,53.190,359.990,12.957,-0.026,0.0001,-0.2295,0.0000,0.9584,0.5000,1.0000,0.0000
51.194,Upwind,2810.233,0.412,2810.233,0.412,764.549,764.552,175.834,53.204,359.990,12.957,-0.026,0.0000,-0.2294,0.0000,0.9584,0.5000,1.0000,0.0000
51.393,Upwind,2826.736,0.410,2826.736,0.410,775.191,775.195,175.831,53.218,359.990,12.957,-0.026,0.0000,-0.2293,0.0000,0.9584,0.5000,1.0000,0.0000
51.591,Upwind,2844.742,0.407,2844.742,0.407,785.836,785.840,175.827,53.231,359.990,12.958,-0.026,0.0000,-0.2293,0.0000,0.9585,0.5000,1.0000,0.0000
51.794,Upwind,2862.750,0.405,2862.750,0.405,796.483,796.487,175.823,53.244,359.991,12.958,-0.026,0.0000,-0.2292,0.0000,0.9585,0.5000,1.0000,0.0000
51.990,Upwind,2880.761,0.402,2880.761,0.402,807.133,807.137,175.819,53.255,359.991,12.958,-0.026,0.0001,-0.2291,0.0000,0.9586,0.5000,1.0000,0.0000
52.193,Upwind,2898.774,0.400,2898.774,0.400,817.785,817.789,175.815,53.266,359.991,12.959,-0.026,0.0000,-0.2291,0.0000,0.9587,0.5000,1.0000,0.0000
52.396,Upwind,2918.291,0.397,2918.291,0.397,828.440,828.443,175.811,53.277,359.991,12.959,-0.026,0.0000,-0.2291,0.0000,0.9587,0.5000,1.0000,0.0000
52.590,Upwind,2934.807,0.395,2934.806,0.395,839.096,839.100,175.806,53.287,359.991,12.959,-0.026,0.0000,-0.2291,0.0000,0.9588,0.5000,1.0000,0.0000
52.792,Upwind,2952.827,0.393,2952.827,0.393,849.754,849.758,175.802,53.296,359.991,12.959,-0.026,0.0000,-0.2290,0.0000,0.9588,0.5000,1.0000,0.0000
52.989,Upwind,2970.849,0.390,2970.848,0.390,860.414,860.418,175.797,53.305,359.991,12.959,-0.026,0.0000,-0.2290,0.0000,0.9589,0.5000,1.0000,0.0000
53.188,Upwind,2988.873,0.388,2988.873,0.388,871.076,871.080,175.792,53.313,359.991,12.959,-0.026,0.0000,-0.2290,0.0000,0.9590,0.5000,1.0000,0.0000
53.396,Upwind,3008.402,0.386,3008.402,0.386,881.739,881.743,175.787,53.321,359.992,12.959,-0.026,0.0000,-0.2290,0.0000,0.9591,0.5000,1.0000,0.0000
53.593,Upwind,3024.928,0.384,3024.928,0.384,892.404,892.408,175.782,53.328,359.992,12.959,-0.026,0.0000,-0.2290,0.0000,0.9591,0.5000,1.0000,0.0000
53.796,Upwind,3044.462,0.381,3044.462,0.381,903.070,903.075,175.777,53.335,359.992,12.959,-0.026,0.0000,-0.2289,0.0000,0.9592,0.5000,1.0000,0.0000
53.995,Upwind,3062.496,0.379,3062.496,0.379,913.738,913.742,175.771,53.342,359.992,12.959,-0.026,0.0000,-0.2289,0.0000,0.9593,0.5000,1.0000,0.0000
54.192,Upwind,3079.029,0.377,3079.028,0.377,924.407,924.411,175.766,53.348,359.992,12.960,-0.026,0.0000,-0.2289,0.0000,0.9594,0.5000,1.0000,0.0000
54.396,Upwind,3098.569,0.375,3098.569,0.375,935.077,935.082,175.760,53.354,359.992,12.960,-0.026,0.0000,-0.2289,0.0000,0.9594,0.5000,1.0000,0.0000
54.597,Upwind,3116.610,0.373,3116.610,0.373,945.749,945.753,175.754,53.360,359.992,12.960,-0.026,0.0000,-0.2289,0.0000,0.9595,0.5000,1.0000,0.0000
54.789,Upwind,3133.149,0.372,3133.149,0.372,956.421,956.426,175.749,53.365,359.992,12.960,-0.026,0.0000,-0.2289,0.0000,0.9596,0.5000,1.0000,0.0000
54.995,Upwind,3152.696,0.369,3152.696,0.369,967.095,967.099,175.743,53.370,359.993,12.959,-0.026,0.0000,-0.2289,0.0000,0.9597,0.5000,1.0000,0.0000
55.193,Upwind,3169.240,0.368,3169.240,0.368,977.769,977.774,175.737,53.375,359.993,12.959,-0.026,0.0000,-0.2290,0.0000,0.9598,0.5000,1.0000,0.0000
55.396,Upwind,3188.790,0.366,3188.790,0.366,988.444,988.449,175.731,53.380,359.993,12.959,-0.026,0.0000,-0.2290,0.0000,0.9598,0.5000,1.0000,0.0000
55.590,Upwind,3205.338,0.364,3205.338,0.364,999.121,999.126,175.725,53.384,359.993,12.959,-0.026,0.0000,-0.2290,0.0000,0.9599,0.5000,1.0000,0.0000
55.798,Upwind,3224.897,0.362,3224.897,0.362,1009.798,1009.803,175.719,53.388,359.993,12.959,-0.026,0.0000,-0.2289,0.0000,0.9600,0.5000,1.0000,0.0000
55.993,Upwind,3241.448,0.361,3241.447,0.361,1020.476,1020.481,175.712,53.392,359.993,12.959,-0.026,0.0000,-0.2290,0.0000,0.9601,0.5000,1.0000,0.0000
56.195,Upwind,3261.010,0.359,3261.009,0.359,1031.154,1031.159,175.706,53.396,359.993,12.959,-0.027,0.0000,-0.2290,0.0000,0.9602,0.5000,1.0000,0.0000
56.393,Upwind,3277.563,0.357,3277.563,0.357,1041.834,1041.839,175.700,53.399,359.993,12.959,-0.027,0.0000,-0.2290,0.0000,0.9603,0.5000,1.0000,0.0000
56.594,Upwind,3295.626,0.356,3295.625,0.356,1052.514,1052.519,175.693,53.403,359.993,12.959,-0.027,0.0000,-0.2290,0.0000,0.9604,0.5000,1.0000,0.0000
56.798,Upwind,3315.194,0.354,3315.194,0.354,1063.195,1063.200,175.687,53.406,359.994,12.959,-0.027,0.0000,-0.2290,0.0000,0.9605,0.5000,1.0000,0.0000
56.997,Upwind,3333.262,0.352,3333.262,0.352,1073.876,1073.882,175.680,53.409,359.994,12.959,-0.027,0.0000,-0.2290,0.0000,0.9605,0.5000,1.0000,0.0000
57.192,Upwind,3349.825,0.351,3349.825,0.351,1084.558,1084.564,175.674,53.412,359.994,12.959,-0.027,0.0000,-0.2291,0.0000,0.9606,0.5000,1.0000,0.0000
57.396,Upwind,3369.399,0.349,3369.399,0.349,1095.241,1095.246,175.667,53.415,359.994,12.959,-0.027,0.0000,-0.2291,0.0000,0.9607,0.5000,1.0000,0.0000
57.597,Upwind,3387.474,0.348,3387.474,0.348,1105.924,1105.930,175.661,53.418,359.994,12.959,-0.027,0.0000,-0.2291,0.0000,0.9608,0.5000,1.0000,0.0000
57.788,Upwind,3404.040,0.347,3404.040,0.347,1115.718,1115.723,175.655,53.420,359.994,12.959,-0.027,0.0000,-0.2292,0.0000,0.9609,0.5000,1.0000,0.0000
57.991,Upwind,3422.118,0.345,3422.117,0.345,1127.292,1127.298,175.648,53.422,359.994,12.958,-0.027,0.0000,-0.2292,0.0000,0.9610,0.5000,1.0000,0.0000
58.191,Upwind,3440.198,0.344,3440.198,0.344,1137.977,1137.982,175.641,53.425,359.994,12.958,-0.027,0.0000,-0.2292,0.0000,0.9611,0.5000,1.0000,0.0000
58.390,Upwind,3458.279,0.342,3458.279,0.342,1148.662,1148.668,175.634,53.427,359.994,12.958,-0.027,0.0000,-0.2292,0.0000,0.9612,0.5000,1.0000,0.0000
58.590,Upwind,3476.363,0.341,3476.363,0.341,1157.567,1157.572,175.629,53.429,359.994,12.958,-0.027,0.0000,-0.2293,0.0000,0.9613,0.5000,1.0000,0.0000
58.792,Upwind,3494.447,0.340,3494.446,0.340,1170.034,1170.039,175.621,53.431,359.995,12.958,-0.027,0.0000,-0.2293,0.0000,0.9614,0.5000,1.0000,0.0000
58.993,Upwind,3512.533,0.339,3512.533,0.339,1180.720,1180.726,175.614,53.433,359.995,12.958,-0.027,0.0000,-0.2293,0.0000,0.9615,0.5000,1.0000,0.0000
59.193,Upwind,3530.624,0.337,3530.623,0.337,1191.407,1191.412,175.607,53.435,359.995,12.958,-0.027,0.0000,-0.2293,0.0000,0.9616,0.5000,1.0000,0.0000
59.394,Upwind,3548.716,0.336,3548.716,0.336,1202.094,1202.099,175.600,53.436,359.995,12.958,-0.027,0.0000,-0.2294,0.0000,0.9617,0.5000,1.0000,0.0000
59.596,Upwind,3568.318,0.335,3568.318,0.335,1212.781,1212.787,175.593,53.438,359.995,12.957,-0.027,0.0000,-0.2294,0.0000,0.9618,0.5000,1.0000,0.0000
59.794,Upwind,3584.905,0.334,3584.905,0.334,1223.469,1223.475,175.587,53.440,359.995,12.957,-0.027,0.0000,-0.2294,0.0000,0.9619,0.5000,1.0000,0.0000
59.992,Upwind,3603.004,0.333,3603.004,0.333,1234.157,1234.163,175.580,53.441,359.995,12.957,-0.027,0.0000,-0.2295,0.0000,0.9620,0.5000,1.0000,0.0000
60.194,Upwind,3621.106,0.332,3621.106,0.332,1244.845,1244.851,175.573,53.443,359.995,12.957,-0.028,0.0000,-0.2295,0.0000,0.9621,0.5000,1.0000,0.0000
60.391,Upwind,3639.208,0.331,3639.208,0.331,1255.534,1255.540,175.566,53.444,359.995,12.957,-0.028,0.0000,-0.2295,0.0000,0.9622,0.5000,1.0000,0.0000
60.591,Upwind,3657.313,0.330,3657.313,0.330,1266.223,1266.229,175.559,53.446,359.995,12.957,-0.028,0.0000,-0.2296,0.0000,0.9622,0.5000,1.0000,0.0000
60.790,Upwind,3675.419,0.329,3675.418,0.329,1276.912,1276.918,175.552,53.447,359.996,12.956,-0.028,0.0000,-0.2296,0.0000,0.9623,0.5000,1.0000,0.0000
60.992,Upwind,3693.530,0.328,3693.530,0.328,1287.602,1287.608,175.545,53.448,359.996,12.956,-0.028,0.0000,-0.2297,0.0000,0.9624,0.5000,1.0000,0.0000
61.199,Upwind,3713.150,0.327,3713.150,0.327,1298.291,1298.297,175.538,53.450,359.996,12.956,-0.028,0.0000,-0.2297,0.0000,0.9625,0.5000,1.0000,0.0000
61.395,Upwind,3731.264,0.326,3731.264,0.326,1308.981,1308.988,175.531,53.451,359.996,12.956,-0.028,0.0000,-0.2297,0.0000,0.9626,0.5000,1.0000,0.0000
61.588,Upwind,3747.870,0.325,3747.869,0.325,1319.671,1319.678,175.524,53.452,359.996,12.956,-0.028,0.0000,-0.2298,0.0000,0.9627,0.5000,1.0000,0.0000
61.788,Upwind,3765.987,0.324,3765.987,0.324,1330.362,1330.368,175.517,53.453,359.996,12.956,-0.028,0.0000,-0.2298,0.0000,0.9628,0.5000,1.0000,0.0000
61.990,Upwind,3784.107,0.324,3784.107,0.324,1341.053,1341.059,175.510,53.454,359.996,12.955,-0.028,0.0000,-0.2298,0.0000,0.9629,0.5000,1.0000,0.0000
62.189,Upwind,3802.228,0.323,3802.227,0.323,1351.743,1351.750,175.503,53.455,359.996,12.955,-0.028,0.0000,-0.2299,0.0000,0.9630,0.5000,1.0000,0.0000
62.393,Upwind,3820.351,0.322,3820.351,0.322,1362.435,1362.441,175.496,53.456,359.996,12.955,-0.028,0.0000,-0.2299,0.0000,0.9631,0.5000,1.0000,0.0000
62.598,Upwind,3839.989,0.321,3839.989,0.321,1373.126,1373.132,175.489,53.457,359.996,12.955,-0.028,0.0000,-0.2299,0.0000,0.9632,0.5000,1.0000,0.0000
62.788,Upwind,3856.607,0.321,3856.607,0.321,1383.817,1383.824,175.482,53.458,359.996,12.955,-0.028,0.0000,-0.2300,0.0000,0.9633,0.5000,1.0000,0.0000
62.988,Upwind,3874.736,0.320,3874.736,0.320,1393.618,1393.625,175.475,53.459,359.996,12.955,-0.028,0.0000,-0.2300,0.0000,0.9634,0.5000,1.0000,0.0000
63.189,Upwind,3892.869,0.319,3892.869,0.319,1405.201,1405.208,175.468,53.460,359.996,12.954,-0.028,0.0000,-0.2301,0.0000,0.9635,0.5000,1.0000,0.0000
63.388,Upwind,3911.005,0.319,3911.004,0.319,1415.893,1415.900,175.461,53.461,359.997,12.954,-0.028,0.0000,-0.2301,0.0000,0.9636,0.5000,1.0000,0.0000
63.596,Upwind,3930.652,0.318,3930.652,0.318,1426.585,1426.592,175.454,53.462,359.997,12.954,-0.028,0.0000,-0.2301,0.0000,0.9637,0.5000,1.0000,0.0000
63.790,Upwind,3947.279,0.318,3947.279,0.318,1437.278,1437.284,175.446,53.463,359.997,12.954,-0.028,0.0000,-0.2302,0.0000,0.9638,0.5000,1.0000,0.0000
63.993,Upwind,3965.421,0.317,3965.420,0.317,1447.970,1447.977,175.439,53.463,359.997,12.954,-0.028,-0.0001,-0.2302,0.0000,0.9639,0.5000,1.0000,0.0000
64.193,Upwind,3983.562,0.316,3983.562,0.316,1458.663,1458.670,175.432,53.464,359.997,12.954,-0.028,0.0000,-0.2303,0.0000,0.9640,0.5000,1.0000,0.0000
64.392,Upwind,4001.710,0.316,4001.710,0.316,1469.356,1469.363,175.425,53.465,359.997,12.953,-0.029,-0.0001,-0.2303,0.0000,0.9641,0.5000,1.0000,0.0000
64.598,Upwind,4021.370,0.315,4021.369,0.315,1480.049,1480.056,175.418,53.466,359.997,12.953,-0.029,-0.0001,-0.2303,0.0000,0.9642,0.5000,1.0000,0.0000
64.789,Upwind,4038.006,0.315,4038.005,0.315,1490.742,1490.749,175.411,53.467,359.997,12.953,-0.029,0.0000,-0.2304,0.0000,0.9643,0.5000,1.0000,0.0000
64.997,Upwind,4057.671,0.315,4057.671,0.315,1501.435,1501.442,175.404,53.467,359.997,12.953,-0.029,0.0000,-0.2304,0.0000,0.9644,0.5000,1.0000,0.0000
65.194,Upwind,4074.311,0.314,4074.310,0.314,1512.129,1512.136,175.397,53.468,359.997,12.953,-0.029,0.0000,-0.2304,0.0000,0.9645,0.5000,1.0000,0.0000
65.396,Upwind,4093.979,0.314,4093.979,0.314,1522.822,1522.830,175.390,53.469,359.997,12.952,-0.029,0.0000,-0.2305,0.0000,0.9646,0.5000,1.0000,0.0000
65.597,Upwind,4112.139,0.313,4112.139,0.313,1533.516,1533.523,175.382,53.469,359.997,12.952,-0.029,-0.0001,-0.2305,0.0000,0.9647,0.5000,1.0000,0.0000
65.794,Upwind,4130.299,0.313,4130.299,0.313,1544.210,1544.217,175.375,53.470,359.997,12.952,-0.029,0.0000,-0.2306,0.0000,0.9648,0.5000,1.0000,0.0000
65.993,Upwind,4146.947,0.313,4146.947,0.313,1554.904,1554.911,175.368,53.471,359.998,12.952,-0.030,0.0000,-0.2306,0.0000,0.9649,0.5000,1.0000,0.0000
66.197,Upwind,4166.625,0.312,4166.625,0.312,1565.598,1565.606,175.361,53.471,359.998,12.952,-0.030,-0.0001,-0.2307,0.0000,0.9650,0.5000,1.0000,0.0000
66.397,Upwind,4184.794,0.312,4184.794,0.312,1576.292,1576.300,175.354,53.472,359.998,12.952,-0.030,0.0000,-0.2307,0.0000,0.9651,0.5000,1.0000,0.0000
66.601,Upwind,4202.963,0.312,4202.963,0.312,1586.987,1586.995,175.347,53.473,359.998,12.951,-0.030,0.0000,-0.2307,0.0000,0.9652,0.5000,1.0000,0.0000
66.790,Upwind,4219.621,0.312,4219.621,0.312,1597.681,1597.689,175.339,53.473,359.998,12.951,-0.030,0.0000,-0.2308,0.0000,0.9653,0.5000,1.0000,0.0000
66.991,Upwind,4237.793,0.311,4237.793,0.311,1608.376,1608.384,175.332,53.474,359.998,12.951,-0.030,0.0000,-0.2308,0.0000,0.9654,0.5000,1.0000,0.0000
67.197,Upwind,4257.483,0.311,4257.483,0.311,1619.071,1619.079,175.325,53.474,359.998,12.951,-0.030,0.0000,-0.2309,0.0000,0.9655,0.5000,1.0000,0.0000
67.390,Upwind,4274.146,0.311,4274.146,0.311,1629.766,1629.774,175.318,53.475,359.998,12.951,-0.030,0.0000,-0.2309,0.0000,0.9656,0.5000,1.0000,0.0000
67.598,Upwind,4293.840,0.311,4293.840,0.311,1640.461,1640.469,175.311,53.476,359.998,12.950,-0.030,0.0000,-0.2309,0.0000,0.9657,0.5000,1.0000,0.0000
67.797,Upwind,4312.021,0.310,4312.021,0.310,1651.156,1651.164,175.304,53.476,359.998,12.950,-0.030,-0.0001,-0.2310,0.0000,0.9658,0.5000,1.0000,0.0000
67.997,Upwind,4330.205,0.310,4330.205,0.310,1661.851,1661.859,175.296,53.477,359.998,12.950,-0.030,0.0000,-0.2310,0.0000,0.9659,0.5000,1.0000,0.0000
68.197,Upwind,4348.393,0.310,4348.393,0.310,1672.547,1672.555,175.289,53.477,359.998,12.950,-0.030,0.0000,-0.2311,0.0000,0.9660,0.5000,1.0000,0.0000
68.393,Upwind,4365.065,0.310,4365.065,0.310,1683.242,1683.250,175.282,53.478,359.998,12.950,-0.031,-0.0001,-0.2311,0.0000,0.9661,0.5000,1.0000,0.0000
68.603,Upwind,4384.771,0.310,4384.771,0.310,1693.938,1693.946,175.275,53.478,359.998,12.949,-0.031,0.0000,-0.2311,0.0000,0.9662,0.5000,1.0000,0.0000
68.790,Upwind,4401.446,0.310,4401.446,0.310,1704.633,1704.641,175.268,53.479,359.998,12.949,-0.031,0.0000,-0.2312,0.0000,0.9663,0.5000,1.0000,0.0000
68.996,Upwind,4421.158,0.310,4421.158,0.310,1715.329,1715.337,175.260,53.479,359.998,12.949,-0.031,0.0000,-0.2312,0.0000,0.9664,0.5000,1.0000,0.0000
69.194,Upwind,4437.836,0.309,4437.836,0.309,1726.025,1726.033,175.253,53.480,359.998,12.949,-0.031,0.0000,-0.2313,0.0000,0.9665,0.5000,1.0000,0.0000
69.391,Upwind,4456.036,0.309,4456.036,0.309,1736.721,1736.729,175.246,53.480,359.998,12.949,-0.031,0.0000,-0.2313,0.0000,0.9666,0.5000,1.0000,0.0000
69.589,Upwind,4474.238,0.309,4474.238,0.309,1747.417,1747.425,175.239,53.481,359.998,12.949,-0.031,0.0000,-0.2314,0.0000,0.9667,0.5000,1.0000,0.0000
69.797,Upwind,4493.956,0.309,4493.956,0.309,1758.113,1758.122,175.232,53.481,359.998,12.948,-0.031,0.0000,-0.2314,0.0000,0.9668,0.5000,1.0000,0.0000
69.990,Upwind,4510.644,0.309,4510.644,0.309,1768.810,1768.818,175.224,53.482,359.998,12.948,-0.031,0.0000,-0.2314,0.0000,0.9669,0.5000,1.0000,0.0000
70.187,Upwind,4528.853,0.309,4528.853,0.309,1778.615,1778.623,175.218,53.482,359.998,12.948,-0.031,0.0000,-0.2315,0.0000,0.9670,0.5000,1.0000,0.0000
70.391,Upwind,4547.061,0.309,4547.061,0.309,1790.202,1790.211,175.210,53.483,359.998,12.948,-0.031,0.0000,-0.2315,0.0000,0.9671,0.5000,1.0000,0.0000
70.592,Upwind,4565.273,0.309,4565.273,0.309,1800.899,1800.908,175.203,53.483,359.998,12.948,-0.031,0.0000,-0.2316,0.0000,0.9672,0.5000,1.0000,0.0000
70.800,Upwind,4585.006,0.309,4585.006,0.309,1811.596,1811.604,175.195,53.484,359.998,12.947,-0.031,0.0000,-0.2316,0.0000,0.9673,0.5000,1.0000,0.0000
70.996,Upwind,4603.221,0.309,4603.221,0.309,1822.292,1822.301,175.188,53.484,359.998,12.947,-0.031,-0.0001,-0.2316,0.0000,0.9675,0.5000,1.0000,0.0000
71.191,Upwind,4619.920,0.309,4619.920,0.309,1832.989,1832.998,175.181,53.485,359.998,12.947,-0.031,0.0000,-0.2317,0.0000,0.9676,0.5000,1.0000,0.0000
71.388,Upwind,4638.142,0.309,4638.142,0.309,1842.795,1842.804,175.174,53.485,359.998,12.947,-0.031,0.0000,-0.2317,0.0000,0.9676,0.5000,1.0000,0.0000
71.593,Upwind,4656.363,0.309,4656.363,0.309,1854.383,1854.392,175.167,53.486,359.998,12.947,-0.031,0.0000,-0.2318,0.0000,0.9678,0.5000,1.0000,0.0000
71.791,Upwind,4674.590,0.309,4674.590,0.309,1865.080,1865.089,175.159,53.486,359.998,12.946,-0.032,0.0000,-0.2318,0.0000,0.9679,0.5000,1.0000,0.0000
71.994,Upwind,4692.813,0.309,4692.813,0.309,1875.778,1875.787,175.152,53.487,359.998,12.946,-0.032,0.0000,-0.2319,0.0000,0.9680,0.5000,1.0000,0.0000
72.189,Upwind,4711.043,0.309,4711.043,0.309,1886.475,1886.484,175.145,53.487,359.998,12.946,-0.032,-0.0001,-0.2319,0.0000,0.9681,0.5000,1.0000,0.0000
72.391,Upwind,4729.274,0.309,4729.274,0.309,1897.172,1897.181,175.138,53.487,359.998,12.946,-0.032,0.0000,-0.2319,0.0000,0.9682,0.5000,1.0000,0.0000
72.596,Upwind,4749.028,0.309,4749.028,0.309,1907.870,1907.879,175.130,53.488,359.998,12.946,-0.032,0.0000,-0.2320,0.0000,0.9683,0.5000,1.0000,0.0000
72.794,Upwind,4765.743,0.309,4765.743,0.309,1918.567,1918.576,175.123,53.488,359.998,12.945,-0.032,0.0000,-0.2320,0.0000,0.9684,0.5000,1.0000,0.0000
72.991,Upwind,4783.979,0.309,4783.979,0.309,1929.265,1929.274,175.116,53.489,359.999,12.945,-0.032,0.0000,-0.2321,0.0000,0.9685,0.5000,1.0000,0.0000
73.198,Upwind,4803.739,0.309,4803.739,0.309,1939.963,1939.972,175.108,53.489,359.999,12.945,-0.032,0.0000,-0.2321,0.0000,0.9686,0.5000,1.0000,0.0000
73.391,Upwind,4820.461,0.309,4820.461,0.309,1950.660,1950.670,175.101,53.489,359.999,12.945,-0.032,0.0000,-0.2322,0.0000,0.9687,0.5000,1.0000,0.0000
73.592,Upwind,4838.703,0.309,4838.703,0.309,1961.358,1961.368,175.094,53.490,359.999,12.945,-0.032,0.0000,-0.2322,0.0000,0.9688,0.5000,1.0000,0.0000
73.791,Upwind,4856.952,0.309,4856.952,0.309,1972.056,1972.066,175.087,53.490,359.999,12.945,-0.032,0.0000,-0.2322,0.0000,0.9689,0.5000,1.0000,0.0000
73.988,Upwind,4875.197,0.309,4875.197,0.309,1982.754,1982.764,175.079,53.491,359.999,12.944,-0.032,0.0000,-0.2323,0.0000,0.9690,0.5000,1.0000,0.0000
74.188,Upwind,4893.448,0.309,4893.448,0.309,1993.452,1993.462,175.072,53.491,359.999,12.944,-0.032,0.0000,-0.2323,0.0000,0.9691,0.5000,1.0000,0.0000
74.396,Crosswind,4913.221,0.309,4913.221,0.309,2004.150,2004.160,175.063,53.489,359.999,12.944,-0.029,0.4000,-0.2595,0.0000,0.9390,0.0000,1.0000,0.0000
74.594,Crosswind,4931.469,0.309,4931.469,0.309,2014.839,2014.848,174.921,53.360,359.996,12.958,0.285,0.4000,-0.3485,0.0001,0.8401,0.0000,1.0000,0.0000
74.789,Crosswind,4948.178,0.312,4948.178,0.312,2025.483,2025.493,174.591,53.060,359.991,13.033,1.032,0.4000,-0.4363,0.0001,0.7425,0.0000,1.0000,0.0000
74.995,Crosswind,4967.883,0.322,4967.883,0.322,2036.055,2036.064,174.105,52.646,359.992,13.215,2.114,0.4000,-0.5289,0.0000,0.7082,0.0000,1.0000,0.0000
75.189,Crosswind,4984.517,0.341,4984.517,0.341,2046.542,2046.552,173.606,52.237,0.010,13.538,3.451,0.4000,-0.6164,-0.0001,0.7187,0.0000,1.0000,0.0000
75.397,Crosswind,5004.121,0.387,5004.121,0.387,2056.955,2056.965,173.116,51.917,0.060,14.024,4.977,0.4000,-0.7096,-0.0005,0.7296,0.0000,1.0000,0.0000
75.594,Crosswind,5020.666,0.453,5020.666,0.453,2067.320,2067.330,172.631,51.758,0.161,14.688,6.642,0.4000,-0.7985,-0.0009,0.7409,0.0000,1.0000,0.0000
75.795,Crosswind,5040.167,0.574,5040.167,0.574,2077.674,2077.684,172.146,51.838,0.333,15.527,8.404,0.4000,-0.8000,-0.0016,0.7524,0.0000,1.0000,0.0000
75.992,Crosswind,5056.617,0.725,5056.617,0.725,2088.075,2088.085,171.655,52.224,0.590,16.495,10.229,0.4000,-0.8000,-0.0023,0.7641,0.0000,1.0000,0.0000
76.196,Crosswind,5075.999,0.976,5075.999,0.976,2098.585,2098.595,171.155,52.922,0.942,17.531,12.089,0.4000,-0.7779,-0.0035,0.7761,0.0000,1.0000,0.0000
76.388,Crosswind,5092.342,1.263,5092.342,1.263,2109.264,2109.274,170.644,53.915,1.391,18.573,13.962,0.4000,-0.7491,-0.0046,0.7882,0.0000,1.0000,0.0000
76.592,Crosswind,5110.103,1.670,5110.103,1.670,2120.168,2120.178,170.117,55.163,1.936,19.560,15.829,0.4000,-0.7185,-0.0061,0.8006,0.0000,1.0000,0.0000
76.793,Crosswind,5127.794,2.191,5127.794,2.191,2131.341,2131.352,169.577,56.597,2.568,20.444,17.675,0.3956,-0.6884,-0.0077,0.8131,0.0000,1.0000,0.0000
76.997,Crosswind,5146.871,2.902,5146.871,2.902,2142.813,2142.824,169.027,58.133,3.278,21.190,19.480,0.3302,-0.6578,-0.0096,0.8256,0.0000,1.0000,0.0000
77.196,Crosswind,5164.395,3.709,5164.395,3.709,2154.596,2154.606,168.474,59.686,4.053,21.776,21.183,0.2725,-0.6279,-0.0114,0.8378,0.0000,1.0000,0.0000
77.390,Crosswind,5180.384,4.588,5180.384,4.588,2166.684,2166.694,167.923,61.184,4.877,22.192,22.727,0.2219,-0.5988,-0.0130,0.8497,0.0000,1.0000,0.0000
77.594,Crosswind,5197.746,5.708,5197.746,5.708,2179.061,2179.071,167.381,62.562,5.734,22.438,24.083,0.1802,-0.5682,-0.0145,0.8609,0.0000,1.0000,0.0000
77.794,Crosswind,5216.460,7.119,5216.460,7.119,2191.697,2191.708,166.855,63.772,6.605,22.521,25.245,0.1458,-0.5382,-0.0159,0.8714,0.0000,1.0000,0.0000
77.992,Crosswind,5232.218,8.480,5232.218,8.480,2204.556,2204.566,166.349,64.775,7.473,22.454,26.218,0.1175,-0.5085,-0.0169,0.8810,0.0000,1.0000,0.0000
78.190,Crosswind,5249.333,10.142,5249.333,10.142,2217.592,2217.603,165.869,65.545,8.322,22.255,27.022,0.0942,-0.4789,-0.0176,0.8899,0.0000,1.0000,0.0000
78.392,Crosswind,5266.371,11.989,5266.371,11.989,2230.757,2230.768,165.419,66.062,9.138,21.943,27.679,0.0749,-0.4486,-0.0179,0.8979,0.0000,1.0000,0.0000
78.594,Crosswind,5283.339,14.022,5283.339,14.022,2243.999,2244.010,165.002,66.315,9.910,21.540,28.214,0.0588,-0.4182,-0.0179,0.9052,0.0000,1.0000,0.0000
78.790,Crosswind,5300.244,16.238,5300.244,16.238,2257.265,2257.276,164.621,66.300,10.627,21.063,28.651,0.0451,-0.3888,-0.0176,0.9117,0.0000,1.0000,0.0000
78.988,Crosswind,5317.086,18.636,5317.086,18.636,2269.400,2269.411,164.304,66.052,11.232,20.577,28.981,0.0345,-0.3592,-0.0171,0.9170,0.0000,1.0000,0.0000
79.193,Crosswind,5333.878,21.212,5333.878,21.212,2283.655,2283.666,163.971,65.475,11.879,19.957,29.302,0.0233,-0.3284,-0.0163,0.9225,0.0000,1.0000,0.0000
79.395,Crosswind,5352.017,24.198,5352.017,24.198,2296.674,2296.685,163.706,64.679,12.408,19.354,29.545,0.0149,-0.2982,-0.0154,0.9269,0.0000,1.0000,0.0000
79.594,Crosswind,5367.330,26.880,5367.330,26.880,2309.510,2309.521,163.479,63.641,12.873,18.730,29.744,0.0079,-0.3353,-0.0146,0.9306,0.0000,1.0000,0.0000
79.792,Crosswind,5384.003,29.964,5384.003,29.964,2322.114,2322.125,163.287,62.353,13.293,18.117,29.908,0.0023,-0.4246,-0.0137,0.9337,0.0000,1.0000,0.0000
79.990,Crosswind,5400.651,33.206,5400.651,33.206,2334.437,2334.448,163.128,60.846,13.706,17.573,30.049,-0.0022,-0.5134,-0.0129,0.9362,0.0000,1.0000,0.0000
80.200,Crosswind,5418.658,36.892,5418.658,36.892,2346.442,2346.453,162.998,59.183,14.145,17.145,30.173,-0.0056,-0.6081,-0.0122,0.9380,0.0000,1.0000,0.0000
80.398,Crosswind,5435.261,40.452,5435.261,40.452,2358.104,2358.116,162.893,57.437,14.639,16.867,30.285,-0.0083,-0.6971,-0.0116,0.9395,0.0000,1.0000,0.0000
80.588,Crosswind,5450.467,43.848,5450.467,43.848,2368.487,2368.498,162.814,55.834,15.158,16.762,30.377,-0.0100,-0.7828,-0.0112,0.9406,0.0000,1.0000,0.0000
80.798,Crosswind,5468.414,48.026,5468.414,48.026,2380.386,2380.398,162.738,54.034,15.870,16.835,30.474,-0.0112,-0.8000,-0.0109,0.9417,0.0000,1.0000,0.0000
80.998,Crosswind,5484.958,52.045,5484.958,52.045,2391.042,2391.054,162.679,52.561,16.618,17.067,30.548,-0.0116,-0.7848,-0.0108,0.9425,0.0000,1.0000,0.0000
81.194,Crosswind,5500.101,55.872,5500.101,55.872,2401.427,2401.438,162.626,51.327,17.431,17.408,30.602,-0.0113,-0.7554,-0.0108,0.9432,0.0000,1.0000,0.0000
81.398,Crosswind,5517.956,60.578,5517.956,60.578,2411.590,2411.602,162.574,50.353,18.284,17.803,30.629,-0.0096,-0.7247,-0.0109,0.9440,0.0000,1.0000,0.0000
81.591,Crosswind,5533.028,64.720,5533.028,64.720,2421.585,2421.596,162.520,49.630,19.150,18.206,30.627,-0.0073,-0.6958,-0.0111,0.9447,0.0000,1.0000,0.0000
81.800,Crosswind,5550.789,69.813,5550.789,69.813,2431.457,2431.469,162.462,49.132,20.011,18.579,30.592,-0.0039,-0.6644,-0.0113,0.9455,0.0000,1.0000,0.0000
81.997,Crosswind,5567.126,74.708,5567.126,74.708,2441.249,2441.261,162.401,48.818,20.848,18.891,30.527,0.0001,-0.6349,-0.0116,0.9464,0.0000,1.0000,0.0000
82.193,Crosswind,5582.049,79.360,5582.049,79.360,2450.994,2451.005,162.336,48.641,21.647,19.121,30.435,0.0046,-0.6055,-0.0118,0.9473,0.0000,1.0000,0.0000
82.388,Crosswind,5598.271,84.618,5598.271,84.618,2459.902,2459.914,162.278,48.554,22.337,19.248,30.329,0.0091,-0.5763,-0.0119,0.9481,0.0000,1.0000,0.0000
82.593,Crosswind,5614.422,90.066,5614.422,90.066,2470.415,2470.427,162.213,48.485,23.092,19.287,30.184,0.0147,-0.5455,-0.0121,0.9490,0.0000,1.0000,0.0000
82.792,Crosswind,5630.510,95.703,5630.510,95.703,2480.104,2480.116,162.160,48.402,23.729,19.215,30.038,0.0198,-0.5157,-0.0122,0.9498,0.0000,1.0000,0.0000
82.990,Crosswind,5646.527,101.526,5646.527,101.526,2489.771,2489.783,162.119,48.254,24.306,19.041,29.887,0.0247,-0.4860,-0.0122,0.9500,0.0000,1.0000,0.0000
83.195,Crosswind,5663.803,108.039,5663.803,108.039,2499.398,2499.410,162.092,48.001,24.826,18.772,29.736,0.0292,-0.4551,-0.0122,0.9500,0.0000,1.0000,0.0000
83.395,Crosswind,5679.683,114.238,5679.683,114.238,2508.962,2508.974,162.082,47.610,25.293,18.417,29.590,0.0334,-0.4521,-0.0122,0.9498,0.0000,1.0000,0.0000
83.594,Crosswind,5695.505,120.608,5695.505,120.608,2518.430,2518.442,162.090,47.039,25.717,17.997,29.454,0.0373,-0.5415,-0.0121,0.9493,0.0000,1.0000,0.0000
