time_s,leg,north_m,east_m,along_m,cross_m,agl_ft,altitude_ft,speed_kts,vertical_speed_fps,heading_deg,pitch_deg,roll_deg,aileron_cmd,elevator_cmd,rudder_cmd,throttle_cmd,flaps_cmd,gear_cmd,brake_cmd
0.000,Upwind,0.596,0.000,0.000,0.000,3.691,3.691,0.000,0.000,0.000,0.450,0.000,0.0000,0.0018,0.0000,0.1726,0.5000,1.0000,1.0000
0.201,Upwind,0.596,0.000,0.000,0.000,3.691,3.691,0.000,0.000,0.000,0.449,0.000,0.0000,0.0319,0.0000,0.0721,0.5000,1.0000,1.0000
0.399,Upwind,0.596,0.000,0.000,0.000,3.691,3.691,0.000,0.000,0.000,0.449,0.000,0.0000,0.0617,0.0000,0.0000,0.5000,1.0000,1.0000
0.590,Upwind,0.596,0.000,0.000,0.000,3.691,3.691,0.000,0.000,0.000,0.450,0.000,0.0000,0.0630,0.0000,0.0000,0.5000,1.0000,1.0000
0.795,Upwind,0.596,0.000,0.000,0.000,3.691,3.691,0.000,0.000,0.000,0.450,0.000,0.0000,0.0630,0.0000,0.0175,0.5000,1.0000,0.0000
0.990,Upwind,0.596,0.000,0.000,0.000,3.691,3.691,0.000,0.000,0.000,0.450,0.000,0.0000,0.0629,0.0000,0.1152,0.5000,1.0000,0.0000
1.191,Upwind,0.596,0.000,0.000,0.000,3.691,3.691,0.000,0.000,0.000,0.450,0.000,0.0000,0.0629,0.0000,0.2157,0.5000,1.0000,0.0000
1.389,Upwind,0.596,0.000,0.000,0.000,3.691,3.691,0.000,0.000,0.000,0.450,0.000,0.0000,0.0629,0.0000,0.3145,0.5000,1.0000,0.0000
1.599,Upwind,0.596,0.000,0.000,0.000,3.691,3.691,0.000,0.000,0.000,0.449,0.000,0.0000,0.0629,0.0000,0.4199,0.5000,1.0000,0.0000
1.801,Upwind,0.596,0.000,0.000,0.000,3.691,3.691,0.000,0.000,0.000,0.449,0.000,0.0000,0.0629,0.0000,0.5207,0.5000,1.0000,0.0000
1.990,Upwind,0.596,0.000,0.000,0.000,3.691,3.691,0.000,0.000,0.000,0.449,0.000,0.0000,0.0628,0.0000,0.6152,0.5000,1.0000,0.0000
2.189,Upwind,0.596,0.000,0.000,0.000,3.691,3.691,0.002,0.000,0.000,0.449,0.000,0.0000,0.0628,0.0000,0.7147,0.5000,1.0000,0.0000
2.391,Upwind,0.597,0.000,0.001,0.000,3.691,3.691,0.011,0.000,0.000,0.449,0.000,0.0000,0.0628,0.0000,0.8157,0.5000,1.0000,0.0000
2.593,Upwind,0.599,0.000,0.003,0.000,3.691,3.691,0.029,0.000,0.000,0.449,0.000,0.0000,0.0629,0.0000,0.9165,0.5000,1.0000,0.0000
2.797,Upwind,0.603,0.000,0.007,0.000,3.691,3.691,0.058,0.000,0.000,0.449,0.000,0.0000,0.0629,0.0000,1.0000,0.5000,1.0000,0.0000
2.992,Upwind,0.612,0.000,0.016,0.000,3.691,3.691,0.099,0.000,0.000,0.449,0.000,0.0000,0.0629,0.0000,1.0000,0.5000,1.0000,0.0000
3.191,Upwind,0.625,0.000,0.029,0.000,3.691,3.691,0.156,0.000,0.000,0.449,0.000,0.0000,0.0629,0.0000,1.0000,0.5000,1.0000,0.0000
3.395,Upwind,0.645,0.000,0.050,0.000,3.691,3.691,0.231,0.000,0.000,0.449,0.000,0.0000,0.0629,0.0000,1.0000,0.5000,1.0000,0.0000
3.599,Upwind,0.675,0.000,0.079,0.000,3.691,3.691,0.327,0.000,0.000,0.449,0.000,0.0000,0.0629,0.0000,1.0000,0.5000,1.0000,0.0000
3.797,Upwind,0.715,0.000,0.120,0.000,3.691,3.691,0.449,0.000,0.000,0.449,0.000,0.0000,0.0629,0.0000,1.0000,0.5000,1.0000,0.0000
3.991,Upwind,0.770,0.000,0.175,0.000,3.691,3.691,0.600,0.000,0.000,0.450,0.000,0.0000,0.0630,0.0000,1.0000,0.5000,1.0000,0.0000
4.191,Upwind,0.843,0.000,0.247,0.000,3.691,3.691,0.786,0.000,0.000,0.450,0.000,0.0000,0.0630,0.0000,1.0000,0.5000,1.0000,0.0000
4.394,Upwind,0.937,0.000,0.341,0.000,3.691,3.691,1.012,0.000,0.000,0.450,0.000,0.0000,0.0630,0.0000,1.0000,0.5000,1.0000,0.0000
4.589,Upwind,1.046,0.000,0.450,0.000,3.691,3.691,1.285,0.000,0.000,0.450,0.000,0.0000,0.0631,0.0000,1.0000,0.5000,1.0000,0.0000
4.793,Upwind,1.208,0.000,0.613,0.000,3.691,3.691,1.611,0.000,0.000,0.451,0.000,0.0000,0.0631,0.0000,1.0000,0.5000,1.0000,0.0000
4.995,Upwind,1.397,0.000,0.801,0.000,3.691,3.691,1.999,0.000,0.000,0.451,0.000,0.0000,0.0631,0.0000,1.0000,0.5000,1.0000,0.0000
5.194,Upwind,1.629,0.000,1.034,0.000,3.691,3.691,2.456,0.000,0.000,0.451,0.000,0.0000,0.0632,0.0000,1.0000,0.5000,1.0000,0.0000
5.392,Upwind,1.914,0.000,1.318,0.000,3.691,3.691,2.991,0.000,0.000,0.452,0.000,0.0000,0.0633,0.0000,1.0000,0.5000,1.0000,0.0000
5.592,Upwind,2.258,0.000,1.662,0.000,3.691,3.691,3.612,0.000,0.000,0.452,0.000,0.0000,0.0633,0.0000,1.0000,0.5000,1.0000,0.0000
5.789,Upwind,2.634,0.000,2.038,0.000,3.691,3.691,4.263,0.000,0.000,0.452,0.000,0.0000,0.0634,0.0000,1.0000,0.5000,1.0000,0.0000
6.001,Upwind,3.165,0.000,2.569,0.000,3.691,3.691,5.142,0.000,0.000,0.453,0.000,0.0000,0.0634,0.0000,1.0000,0.5000,1.0000,0.0000
6.190,Upwind,3.696,0.000,3.100,0.000,3.691,3.691,6.066,0.000,0.000,0.453,0.000,0.0000,0.0635,0.0000,1.0000,0.5000,1.0000,0.0000
6.389,Upwind,4.373,0.000,3.777,0.000,3.691,3.691,7.104,0.000,0.000,0.454,0.000,0.0000,0.0636,0.0000,1.0000,0.5000,1.0000,0.0000
6.589,Upwind,5.162,0.000,4.566,0.000,3.691,3.691,8.263,0.001,0.000,0.454,0.000,0.0000,0.0637,0.0000,1.0000,0.5000,1.0000,0.0000
6.797,Upwind,6.159,0.000,5.564,0.000,3.691,3.691,9.534,0.001,0.000,0.455,0.000,0.0000,0.0637,0.0000,1.0000,0.5000,1.0000,0.0000
6.991,Upwind,7.218,0.000,6.622,0.000,3.691,3.691,10.819,0.001,0.000,0.455,0.000,0.0000,0.0636,0.0000,1.0000,0.5000,1.0000,0.0000
7.190,Upwind,8.408,0.000,7.812,0.000,3.692,3.692,12.103,0.001,0.000,0.454,0.000,0.0000,0.0636,0.0000,1.0000,0.5000,1.0000,0.0000
7.397,Upwind,9.730,0.000,9.134,0.000,3.692,3.692,13.386,0.001,0.000,0.454,0.000,0.0000,0.0635,0.0000,1.0000,0.5000,1.0000,0.0000
7.594,Upwind,11.184,0.000,10.588,0.000,3.692,3.692,14.668,0.001,0.000,0.454,0.000,0.0000,0.0635,0.0000,1.0000,0.5000,1.0000,0.0000
7.794,Upwind,12.770,0.000,12.175,0.000,3.692,3.692,15.949,0.001,0.000,0.453,0.000,0.0000,0.0634,0.0000,1.0000,0.5000,1.0000,0.0000
7.991,Upwind,14.488,0.000,13.892,0.000,3.693,3.693,17.229,0.002,0.000,0.453,0.000,0.0000,0.0634,0.0000,1.0000,0.5000,1.0000,0.0000
8.189,Upwind,16.178,0.000,15.583,0.000,3.693,3.693,18.507,0.002,0.000,0.453,0.000,0.0000,0.0633,0.0000,1.0000,0.5000,1.0000,0.0000
8.392,Upwind,18.319,0.000,17.723,0.000,3.693,3.693,19.785,0.002,0.000,0.452,0.000,0.0000,0.0632,0.0000,1.0000,0.5000,1.0000,0.0000
8.597,Upwind,20.431,0.000,19.835,0.000,3.694,3.694,21.061,0.002,0.000,0.452,0.000,0.0000,0.0632,0.0000,1.0000,0.5000,1.0000,0.0000
8.794,Upwind,22.674,0.000,22.079,0.000,3.694,3.694,22.336,0.002,0.000,0.451,0.000,0.0000,0.0631,0.0000,1.0000,0.5000,1.0000,0.0000
8.996,Upwind,25.049,0.000,24.453,0.000,3.694,3.695,23.610,0.002,0.000,0.450,0.000,0.0000,0.0630,0.0000,1.0000,0.5000,1.0000,0.0000
9.192,Upwind,27.555,0.000,26.959,0.000,3.695,3.695,24.882,0.003,0.000,0.450,0.000,0.0000,0.0629,0.0000,1.0000,0.5000,1.0000,0.0000
9.390,Upwind,29.967,0.000,29.371,0.000,3.696,3.696,26.154,0.003,0.000,0.449,0.000,0.0000,0.0628,0.0000,1.0000,0.5000,1.0000,0.0000
9.601,Upwind,32.959,0.000,32.363,0.000,3.696,3.696,27.424,0.003,0.000,0.448,0.000,0.0000,0.0627,0.0000,1.0000,0.5000,1.0000,0.0000
9.795,Upwind,35.856,0.000,35.261,0.000,3.697,3.697,28.692,0.003,0.000,0.447,0.000,0.0000,0.0625,0.0000,1.0000,0.5000,1.0000,0.0000
9.992,Upwind,38.885,0.000,38.289,0.000,3.697,3.697,29.959,0.004,0.000,0.446,0.000,0.0000,0.0624,0.0000,1.0000,0.5000,1.0000,0.0000
10.197,Upwind,42.043,0.000,41.448,0.000,3.698,3.698,31.225,0.004,0.000,0.446,0.000,0.0000,0.0623,0.0000,1.0000,0.5000,1.0000,0.0000
10.400,Upwind,45.332,0.001,44.736,0.001,3.699,3.699,32.490,0.004,0.000,0.445,0.000,0.0000,0.0621,0.0000,1.0000,0.5000,1.0000,0.0000
10.591,Upwind,48.751,0.001,48.155,0.001,3.700,3.700,33.753,0.004,0.000,0.443,0.000,0.0000,0.0620,0.0000,1.0000,0.5000,1.0000,0.0000
10.793,Upwind,52.300,0.001,51.704,0.001,3.701,3.701,35.014,0.004,0.000,0.442,0.000,0.0000,0.0618,0.0000,1.0000,0.5000,1.0000,0.0000
10.991,Upwind,55.978,0.001,55.382,0.001,3.701,3.701,36.274,0.005,0.000,0.441,0.000,0.0000,0.0616,0.0000,1.0000,0.5000,1.0000,0.0000
11.196,Upwind,59.786,0.001,59.190,0.001,3.702,3.702,37.532,0.005,0.000,0.440,0.000,0.0000,0.0615,0.0000,1.0000,0.5000,1.0000,0.0000
11.395,Upwind,63.723,0.001,63.127,0.001,3.703,3.703,38.789,0.005,0.000,0.439,0.000,0.0000,0.0613,0.0000,1.0000,0.5000,1.0000,0.0000
11.596,Upwind,67.789,0.001,67.194,0.001,3.704,3.704,40.044,0.005,0.000,0.437,0.000,0.0000,0.0611,0.0000,1.0000,0.5000,1.0000,0.0000
11.789,Upwind,71.630,0.001,71.034,0.001,3.706,3.706,41.297,0.006,0.000,0.436,0.000,0.0000,0.0609,0.0000,1.0000,0.5000,1.0000,0.0000
11.999,Upwind,76.309,0.001,75.713,0.001,3.707,3.707,42.549,0.006,0.000,0.434,0.000,0.0000,0.0607,0.0000,1.0000,0.5000,1.0000,0.0000
12.200,Upwind,80.762,0.001,80.166,0.001,3.708,3.708,43.798,0.006,0.000,0.433,0.000,0.0000,0.0604,0.0000,1.0000,0.5000,1.0000,0.0000
12.388,Upwind,84.957,0.001,84.361,0.001,3.709,3.709,45.046,0.007,0.000,0.431,0.000,0.0000,0.0602,0.0000,1.0000,0.5000,1.0000,0.0000
12.589,Upwind,89.656,0.002,89.060,0.002,3.711,3.711,46.292,0.007,0.000,0.429,0.000,-0.0001,0.0599,0.0000,1.0000,0.5000,1.0000,0.0000
12.798,Upwind,94.891,0.002,94.295,0.002,3.712,3.712,47.536,0.008,0.000,0.427,0.000,-0.0001,0.0596,0.0000,1.0000,0.5000,1.0000,0.0000
12.989,Upwind,99.438,0.002,98.842,0.002,3.714,3.714,48.778,0.008,0.000,0.425,0.000,-0.0001,0.0593,0.0000,1.0000,0.5000,1.0000,0.0000
13.194,Upwind,104.950,0.002,104.354,0.002,3.715,3.715,50.018,0.009,0.001,0.423,0.000,-0.0001,0.0590,0.0000,1.0000,0.5000,1.0000,0.0000
13.402,Upwind,110.171,0.002,109.575,0.002,3.717,3.717,51.256,0.009,0.001,0.421,0.000,-0.0001,0.0587,0.0000,1.0000,0.5000,1.0000,0.0000
13.598,Upwind,115.519,0.002,114.923,0.002,3.719,3.719,52.491,0.009,0.001,0.418,0.000,-0.0001,0.0583,0.0000,1.0000,0.5000,1.0000,0.0000
13.791,Upwind,120.533,0.003,119.937,0.003,3.721,3.721,53.724,0.010,0.001,0.416,0.000,-0.0001,0.0580,0.0000,1.0000,0.5000,1.0000,0.0000
13.994,Upwind,126.596,0.003,126.000,0.003,3.723,3.723,54.955,0.010,0.001,0.414,0.000,-0.0001,0.0576,0.0000,1.0000,0.5000,1.0000,0.0000
14.194,Upwind,132.324,0.003,131.728,0.003,3.725,3.725,56.184,0.009,0.001,0.411,0.000,-0.0001,0.0573,0.0000,1.0000,0.5000,1.0000,0.0000
14.393,Upwind,138.179,0.003,137.583,0.003,3.726,3.726,57.411,0.008,0.001,0.409,0.000,-0.0001,0.0570,0.0000,1.0000,0.5000,1.0000,0.0000
14.592,Upwind,144.159,0.004,143.564,0.004,3.728,3.728,58.635,0.008,0.001,0.407,0.000,-0.0001,0.0567,0.0000,1.0000,0.5000,1.0000,0.0000
14.799,Upwind,150.266,0.004,149.670,0.004,3.730,3.730,59.858,0.008,0.001,0.405,0.000,-0.0001,0.0565,0.0000,1.0000,0.5000,1.0000,0.0000
14.993,Upwind,156.498,0.004,155.902,0.004,3.731,3.731,61.078,0.008,0.001,0.403,0.000,-0.0001,0.0562,0.0000,1.0000,0.5000,1.0000,0.0000
15.192,Upwind,162.856,0.005,162.260,0.005,3.733,3.733,62.296,0.008,0.001,0.400,0.000,-0.0001,0.0558,0.0000,1.0000,0.5000,1.0000,0.0000
15.389,Upwind,168.794,0.005,168.198,0.005,3.734,3.734,63.513,0.009,0.001,0.398,0.000,-0.0002,0.0555,0.0000,1.0000,0.5000,1.0000,0.0000
15.589,Upwind,175.391,0.005,174.796,0.005,3.736,3.736,64.727,0.009,0.001,0.396,0.000,-0.0002,0.0552,0.0000,1.0000,0.5000,1.0000,0.0000
15.789,Upwind,182.114,0.006,181.518,0.006,3.738,3.738,65.838,0.009,0.001,0.394,0.000,-0.0002,0.0549,0.0000,1.0000,0.5000,1.0000,0.0000
16.003,Upwind,189.537,0.006,188.941,0.006,3.740,3.740,67.148,0.009,0.002,0.392,0.000,-0.0002,0.0546,0.0000,1.0000,0.5000,1.0000,0.0000
16.190,Upwind,195.932,0.006,195.336,0.006,3.741,3.742,68.355,0.009,0.002,0.389,0.000,-0.0002,0.0543,0.0000,1.0000,0.5000,1.0000,0.0000
16.390,Upwind,203.027,0.007,202.431,0.007,3.743,3.743,69.460,0.009,0.002,0.387,0.000,-0.0002,0.0540,0.0000,1.0000,0.5000,1.0000,0.0000
16.596,Upwind,210.854,0.007,210.258,0.007,3.745,3.745,70.764,0.009,0.002,0.384,0.000,-0.0002,0.0536,0.0000,1.0000,0.5000,1.0000,0.0000
16.796,Upwind,218.207,0.008,217.611,0.008,3.747,3.747,71.964,0.010,0.002,0.382,0.000,-0.0003,0.0532,0.0000,1.0000,0.5000,1.0000,0.0000
16.993,Upwind,225.683,0.009,225.088,0.009,3.749,3.749,73.162,0.010,0.002,0.380,0.000,-0.0003,0.0529,0.0000,1.0000,0.5000,1.0000,0.0000
17.193,Upwind,233.283,0.009,232.687,0.009,3.751,3.751,74.358,0.010,0.002,0.377,0.000,-0.0003,0.0525,0.0000,1.0000,0.5000,1.0000,0.0000
17.400,Upwind,241.006,0.010,240.410,0.010,3.753,3.753,75.552,0.010,0.003,0.375,0.000,-0.0003,0.0522,0.0000,1.0000,0.5000,1.0000,0.0000
17.595,Upwind,248.851,0.010,248.255,0.010,3.755,3.755,76.743,0.010,0.003,0.372,0.000,-0.0003,0.0518,0.0000,1.0000,0.5000,1.0000,0.0000
17.799,Upwind,256.819,0.011,256.223,0.011,3.757,3.757,77.932,0.010,0.003,0.369,0.000,-0.0003,0.0515,0.0000,1.0000,0.5000,1.0000,0.0000
18.001,Upwind,264.909,0.012,264.313,0.012,3.759,3.759,79.118,0.010,0.003,0.367,0.000,-0.0004,0.0511,0.0000,1.0000,0.5000,1.0000,0.0000
18.195,Upwind,273.121,0.013,272.525,0.013,3.761,3.761,80.302,0.010,0.003,0.364,0.000,-0.0004,0.0507,0.0000,1.0000,0.5000,1.0000,0.0000
18.392,Upwind,281.454,0.013,280.858,0.013,3.763,3.763,81.484,0.011,0.003,0.361,0.000,-0.0004,0.0503,0.0000,1.0000,0.5000,1.0000,0.0000
18.590,Upwind,289.200,0.014,288.604,0.014,3.765,3.765,82.663,0.011,0.004,0.359,0.000,-0.0004,0.0500,0.0000,1.0000,0.5000,1.0000,0.0000
18.794,Upwind,298.485,0.015,297.890,0.015,3.767,3.767,83.840,0.011,0.004,0.356,0.000,-0.0005,0.0496,0.0000,1.0000,0.5000,1.0000,0.0000
18.992,Upwind,307.182,0.016,306.587,0.016,3.769,3.769,85.014,0.011,0.004,0.353,0.000,-0.0005,0.0492,0.0000,1.0000,0.5000,1.0000,0.0000
19.198,Upwind,316.000,0.017,315.404,0.017,3.772,3.772,86.185,0.011,0.004,0.350,0.000,-0.0005,0.0488,0.0000,1.0000,0.5000,1.0000,0.0000
19.388,Upwind,324.189,0.018,323.593,0.018,3.774,3.774,87.354,0.011,0.004,0.348,0.000,-0.0005,0.0484,0.0000,1.0000,0.5000,1.0000,0.0000
19.596,Upwind,333.997,0.019,333.401,0.019,3.776,3.776,88.521,0.011,0.005,0.345,0.000,-0.0006,0.0480,0.0000,1.0000,0.5000,1.0000,0.0000
19.798,Upwind,343.174,0.020,342.579,0.020,3.778,3.778,89.685,0.011,0.005,0.342,0.000,-0.0006,0.0476,0.0000,1.0000,0.5000,1.0000,0.0000
19.997,Upwind,352.472,0.022,351.877,0.022,3.781,3.781,90.846,0.012,0.005,0.339,0.000,-0.0006,0.0472,0.0000,1.0000,0.5000,1.0000,0.0000
20.194,Upwind,361.889,0.023,361.294,0.023,3.783,3.783,92.004,0.012,0.005,0.336,0.000,-0.0007,0.0468,0.0000,1.0000,0.5000,1.0000,0.0000
20.393,Upwind,371.425,0.024,370.830,0.024,3.785,3.785,93.160,0.012,0.006,0.333,0.000,-0.0007,0.0463,0.0000,1.0000,0.5000,1.0000,0.0000
20.595,Upwind,381.080,0.026,380.484,0.026,3.788,3.788,94.314,0.012,0.006,0.330,0.000,-0.0007,0.0459,0.0000,1.0000,0.5000,1.0000,0.0000
20.790,Upwind,390.035,0.027,389.439,0.027,3.790,3.790,95.369,0.012,0.006,0.327,0.000,-0.0008,0.0455,0.0000,1.0000,0.5000,1.0000,0.0000
20.991,Upwind,400.745,0.029,400.150,0.029,3.792,3.792,96.612,0.012,0.007,0.324,0.000,-0.0008,0.0451,0.0000,1.0000,0.5000,1.0000,0.0000
21.198,Upwind,410.755,0.030,410.159,0.030,3.795,3.795,97.758,0.012,0.007,0.321,0.000,-0.0008,0.0446,0.0000,1.0000,0.5000,1.0000,0.0000
21.396,Upwind,420.882,0.032,420.286,0.032,3.797,3.797,98.900,0.012,0.007,0.318,0.000,-0.0009,0.0442,0.0000,1.0000,0.5000,1.0000,0.0000
21.602,Upwind,431.127,0.034,430.531,0.034,3.800,3.800,100.040,0.012,0.008,0.315,0.000,-0.0009,0.0438,0.0000,1.0000,0.5000,1.0000,0.0000
21.796,Upwind,441.489,0.036,440.893,0.036,3.802,3.802,101.177,0.013,0.008,0.312,0.000,-0.0010,0.0433,0.0000,1.0000,0.5000,1.0000,0.0000
21.998,Upwind,451.967,0.038,451.371,0.038,3.805,3.805,102.312,0.013,0.008,0.308,0.000,-0.0010,0.0429,0.0000,1.0000,0.5000,1.0000,0.0000
22.196,Upwind,462.562,0.040,461.967,0.040,3.807,3.807,103.443,0.013,0.009,0.305,0.000,-0.0010,0.0424,0.0000,1.0000,0.5000,1.0000,0.0000
22.390,Upwind,472.377,0.042,471.781,0.042,3.810,3.810,104.572,0.013,0.009,0.302,0.000,-0.0011,0.0420,0.0000,1.0000,0.5000,1.0000,0.0000
22.591,Upwind,484.101,0.044,483.505,0.044,3.812,3.812,105.698,0.013,0.009,0.299,0.000,-0.0011,0.0415,0.0000,1.0000,0.5000,1.0000,0.0000
22.795,Upwind,495.044,0.046,494.449,0.046,3.815,3.815,106.821,0.013,0.010,0.296,0.000,-0.0012,0.0411,0.0000,1.0000,0.5000,1.0000,0.0000
22.999,Upwind,506.103,0.049,505.507,0.049,3.817,3.817,107.941,0.013,0.010,0.292,0.000,-0.0012,0.0406,0.0000,1.0000,0.5000,1.0000,0.0000
23.201,Upwind,517.276,0.051,516.681,0.051,3.820,3.820,109.059,0.013,0.010,0.289,0.000,-0.0013,0.0401,0.0000,1.0000,0.5000,1.0000,0.0000
23.392,Upwind,528.565,0.054,527.969,0.054,3.823,3.823,110.173,0.013,0.011,0.286,0.000,-0.0013,0.0397,0.0000,1.0000,0.5000,1.0000,0.0000
23.590,Upwind,539.013,0.056,538.417,0.056,3.825,3.825,111.285,0.013,0.011,0.282,0.000,-0.0014,0.0392,0.0000,1.0000,0.5000,1.0000,0.0000
23.799,Upwind,551.485,0.059,550.889,0.059,3.828,3.828,112.394,0.013,0.012,0.279,-0.001,-0.0014,0.0387,0.0000,1.0000,0.5000,1.0000,0.0000
23.997,Upwind,563.116,0.062,562.520,0.062,3.831,3.831,113.500,0.014,0.012,0.276,-0.001,-0.0015,0.0382,0.0000,1.0000,0.5000,1.0000,0.0000
24.197,Upwind,574.860,0.065,574.265,0.065,3.833,3.833,114.603,0.014,0.013,0.272,-0.001,-0.0015,0.0378,0.0000,1.0000,0.5000,1.0000,0.0000
24.400,Upwind,586.718,0.068,586.123,0.068,3.836,3.836,115.703,0.014,0.013,0.269,-0.001,-0.0016,0.0373,0.0000,1.0000,0.5000,1.0000,0.0000
24.589,Upwind,597.687,0.071,597.091,0.071,3.839,3.839,116.800,0.014,0.013,0.265,-0.001,-0.0017,0.0368,0.0000,1.0000,0.5000,1.0000,0.0000
24.796,Upwind,610.773,0.075,610.177,0.075,3.842,3.842,117.894,0.014,0.014,0.262,-0.001,-0.0017,0.0363,0.0000,1.0000,0.5000,1.0000,0.0000
25.000,Upwind,622.969,0.079,622.373,0.079,3.844,3.844,118.985,0.014,0.014,0.258,-0.001,-0.0018,0.0358,0.0000,1.0000,0.5000,1.0000,0.0000
25.193,Upwind,635.277,0.082,634.681,0.082,3.847,3.847,120.073,0.014,0.015,0.255,-0.001,-0.0018,0.0353,0.0000,1.0000,0.5000,1.0000,0.0000
25.401,Upwind,647.697,0.086,647.101,0.086,3.850,3.850,121.158,0.014,0.015,0.251,-0.001,-0.0019,0.0349,0.0000,1.0000,0.5000,1.0000,0.0000
25.590,Upwind,659.180,0.090,658.584,0.090,3.853,3.853,122.240,0.014,0.016,0.248,-0.001,-0.0020,0.0344,0.0000,1.0000,0.5000,1.0000,0.0000
25.796,Upwind,672.871,0.094,672.275,0.094,3.855,3.855,123.320,0.014,0.016,0.244,-0.001,-0.0020,0.0339,0.0000,1.0000,0.5000,1.0000,0.0000
25.994,Upwind,685.625,0.099,685.029,0.099,3.858,3.858,124.396,0.014,0.017,0.241,-0.001,-0.0021,0.0334,0.0000,1.0000,0.5000,1.0000,0.0000
26.193,Upwind,698.489,0.103,697.893,0.103,3.861,3.861,125.469,0.014,0.017,0.237,-0.001,-0.0022,0.0329,0.0000,1.0000,0.5000,1.0000,0.0000
26.399,Upwind,711.463,0.107,710.867,0.107,3.864,3.864,126.539,0.014,0.018,0.234,-0.001,-0.0022,0.0324,0.0000,1.0000,0.5000,1.0000,0.0000
26.592,Upwind,724.547,0.112,723.951,0.112,3.867,3.867,127.606,0.014,0.018,0.230,-0.001,-0.0023,0.0319,0.0000,1.0000,0.5000,1.0000,0.0000
26.795,Upwind,737.741,0.117,737.145,0.117,3.870,3.870,128.670,0.015,0.019,0.227,-0.001,-0.0024,0.0314,0.0000,1.0000,0.5000,1.0000,0.0000
26.996,Upwind,751.044,0.122,750.448,0.122,3.873,3.873,129.730,0.015,0.019,0.223,-0.002,-0.0024,0.0309,0.0000,1.0000,0.5000,1.0000,0.0000
27.196,Upwind,764.455,0.127,763.860,0.127,3.876,3.876,130.788,0.015,0.020,0.219,-0.002,-0.0025,0.0303,0.0000,1.0000,0.5000,1.0000,0.0000
27.396,Upwind,777.976,0.133,777.380,0.133,3.878,3.879,131.843,0.015,0.020,0.216,-0.002,-0.0026,0.0298,0.0000,1.0000,0.5000,1.0000,0.0000
27.594,Upwind,791.605,0.138,791.010,0.138,3.881,3.881,132.894,0.015,0.021,0.212,-0.002,-0.0027,0.0293,0.0000,1.0000,0.5000,1.0000,0.0000
27.794,Upwind,805.342,0.144,804.747,0.144,3.884,3.884,133.943,0.015,0.021,0.208,-0.002,-0.0027,0.0288,0.0000,1.0000,0.5000,1.0000,0.0000
28.001,Upwind,819.187,0.150,818.591,0.150,3.887,3.887,134.990,0.015,0.022,0.205,-0.002,-0.0028,0.0283,0.0000,1.0000,0.5000,1.0000,0.0000
28.194,Upwind,833.139,0.156,832.544,0.156,3.890,3.890,136.033,0.015,0.023,0.201,-0.002,-0.0029,0.0278,0.0000,1.0000,0.5000,1.0000,0.0000
28.390,Upwind,846.023,0.161,845.427,0.161,3.893,3.893,137.075,0.015,0.023,0.197,-0.002,-0.0030,0.0273,0.0000,1.0000,0.5000,1.0000,0.0000
28.597,Upwind,861.365,0.168,860.770,0.168,3.896,3.896,138.113,0.015,0.024,0.194,-0.002,-0.0031,0.0267,0.0000,1.0000,0.5000,1.0000,0.0000
28.788,Upwind,874.445,0.174,873.849,0.174,3.899,3.899,139.149,0.015,0.024,0.190,-0.002,-0.0032,0.0262,0.0000,1.0000,0.5000,1.0000,0.0000
29.010,Upwind,891.221,0.182,890.625,0.182,3.902,3.902,140.182,0.015,0.025,0.186,-0.002,-0.0032,0.0257,0.0000,1.0000,0.5000,1.0000,0.0000
29.194,Upwind,904.504,0.189,903.908,0.189,3.905,3.905,141.212,0.015,0.025,0.182,-0.003,-0.0033,0.0252,0.0000,1.0000,0.5000,1.0000,0.0000
29.392,Upwind,919.096,0.196,918.500,0.196,3.908,3.908,142.240,0.015,0.026,0.179,-0.003,-0.0034,0.0246,0.0000,1.0000,0.5000,1.0000,0.0000
29.596,Upwind,933.793,0.203,933.197,0.203,3.911,3.911,143.265,0.015,0.027,0.175,-0.003,-0.0035,0.0241,0.0000,1.0000,0.5000,1.0000,0.0000
29.791,Upwind,947.357,0.210,946.762,0.210,3.915,3.915,144.287,0.015,0.027,0.171,-0.003,-0.0036,0.0236,0.0000,1.0000,0.5000,1.0000,0.0000
29.989,Upwind,962.256,0.218,961.660,0.218,3.917,3.917,145.222,0.015,0.028,0.168,-0.003,-0.0037,0.0231,0.0000,1.0000,0.5000,1.0000,0.0000
30.210,Upwind,979.770,0.228,979.175,0.228,3.921,3.921,146.323,0.016,0.028,0.164,-0.003,-0.0038,0.0225,0.0000,1.0000,0.5000,1.0000,0.0000
30.400,Upwind,993.631,0.235,993.036,0.235,3.924,3.924,147.337,0.016,0.029,0.160,-0.003,-0.0039,0.0220,0.0000,1.0000,0.5000,1.0000,0.0000
30.595,Upwind,1008.852,0.244,1008.257,0.244,3.927,3.927,148.349,0.016,0.029,0.156,-0.003,-0.0040,0.0215,0.0000,1.0000,0.5000,1.0000,0.0000
30.792,Upwind,1024.177,0.252,1023.581,0.252,3.930,3.930,149.273,0.016,0.030,0.152,-0.004,-0.0041,0.0210,0.0000,1.0000,0.5000,1.0000,0.0000
31.000,Upwind,1039.605,0.261,1039.009,0.261,3.933,3.933,150.363,0.015,0.031,0.148,-0.004,-0.0042,-0.0169,0.0000,1.0000,0.5000,1.0000,0.0000
31.202,Upwind,1055.137,0.270,1054.541,0.270,3.935,3.935,151.365,0.004,0.031,0.152,-0.004,-0.0043,-0.1078,0.0000,1.0000,0.5000,1.0000,0.0000
31.390,Upwind,1069.465,0.279,1068.869,0.279,3.935,3.935,152.359,-0.008,0.032,0.170,-0.004,-0.0043,-0.1923,0.0000,1.0000,0.5000,1.0000,0.0000
31.598,Upwind,1086.507,0.289,1085.911,0.289,3.933,3.933,153.345,-0.006,0.033,0.189,-0.004,-0.0045,-0.2859,0.0000,1.0000,0.5000,1.0000,0.0000
31.793,Upwind,1102.344,0.299,1101.748,0.299,3.932,3.932,154.322,-0.002,0.033,0.206,-0.004,-0.0046,-0.3739,0.0000,1.0000,0.5000,1.0000,0.0000
32.003,Upwind,1118.281,0.309,1117.686,0.309,3.932,3.932,155.291,0.006,0.034,0.223,-0.005,-0.0047,-0.4681,0.0000,1.0000,0.5000,1.0000,0.0000
32.205,Upwind,1134.318,0.319,1133.722,0.319,3.936,3.936,156.251,0.031,0.035,0.273,-0.005,-0.0048,-0.5589,0.0000,1.0000,0.5000,1.0000,0.0000
32.391,Upwind,1150.452,0.330,1149.856,0.330,3.945,3.945,157.202,0.070,0.035,0.403,-0.005,-0.0049,-0.6429,0.0000,1.0000,0.5000,1.0000,0.0000
32.606,Upwind,1166.684,0.341,1166.088,0.341,3.965,3.965,158.143,0.131,0.036,0.653,-0.005,-0.0050,-0.6500,0.0000,1.0000,0.5000,1.0000,0.0000
32.800,Upwind,1183.012,0.352,1182.416,0.352,3.998,3.998,159.078,0.194,0.037,1.029,-0.005,-0.0052,-0.6500,0.0000,1.0000,0.5000,1.0000,0.0000
32.990,Upwind,1198.063,0.362,1197.468,0.362,4.042,4.042,160.005,0.248,0.038,1.521,-0.005,-0.0053,-0.6500,0.0000,1.0000,0.5000,1.0000,0.0000
33.191,Upwind,1215.954,0.374,1215.359,0.374,4.096,4.096,160.923,0.295,0.038,2.118,-0.006,-0.0054,-0.6500,0.0000,1.0000,0.5000,1.0000,0.0000
33.390,Upwind,1231.179,0.385,1230.583,0.385,4.160,4.160,161.829,0.337,0.039,2.813,-0.006,-0.0055,-0.6500,0.0000,1.0000,0.5000,1.0000,0.0000
33.600,Upwind,1249.272,0.398,1248.676,0.398,4.231,4.231,162.722,0.374,0.040,3.594,-0.006,-0.0056,-0.6500,0.0000,1.0000,0.5000,1.0000,0.0000
33.790,Upwind,1264.665,0.410,1264.069,0.410,4.325,4.325,163.596,0.655,0.041,4.447,-0.009,-0.0053,-0.6500,0.0000,1.0000,0.5000,1.0000,0.0000
33.999,Upwind,1282.952,0.423,1282.356,0.423,4.527,4.527,164.440,1.451,0.041,5.337,-0.017,-0.0048,-0.6500,0.0000,1.0000,0.5000,1.0000,0.0000
34.190,Upwind,1298.503,0.435,1297.907,0.435,4.936,4.936,165.247,2.713,0.042,6.229,-0.029,-0.0043,-0.6500,0.0000,1.0000,0.5000,1.0000,0.0000
34.391,Upwind,1316.969,0.449,1316.373,0.449,5.639,5.639,166.012,4.371,0.042,7.097,-0.044,-0.0037,-0.6500,0.0000,1.0000,0.5000,1.0000,0.0000
34.595,Upwind,1334.091,0.462,1333.495,0.462,6.706,6.706,166.732,6.346,0.042,7.924,-0.059,-0.0031,-0.6500,0.0000,1.0000,0.5000,1.0000,0.0000
34.798,Upwind,1351.282,0.475,1350.686,0.475,8.192,8.192,167.402,8.549,0.041,8.698,-0.074,-0.0025,-0.6500,0.0000,1.0000,0.5000,1.0000,0.0000
34.997,Upwind,1368.535,0.487,1367.939,0.487,10.135,10.135,168.021,10.897,0.040,9.417,-0.089,-0.0020,-0.6500,0.0000,1.0000,0.5000,1.0000,0.0000
35.195,Upwind,1385.844,0.499,1385.248,0.499,12.559,12.559,168.588,13.358,0.038,10.081,-0.102,-0.0015,-0.6500,0.0000,1.0000,0.5000,1.0000,0.0000
35.401,Upwind,1403.201,0.510,1402.605,0.510,15.483,15.483,169.105,15.888,0.036,10.694,-0.113,-0.0010,-0.6500,0.0000,1.0000,0.5000,1.0000,0.0000
35.589,Upwind,1419.149,0.520,1418.554,0.520,18.916,18.916,169.574,18.450,0.033,11.263,-0.122,-0.0005,-0.6258,0.0000,1.0000,0.5000,1.0000,0.0000
35.788,Upwind,1436.583,0.530,1435.987,0.530,22.862,22.862,169.997,21.009,0.029,11.782,-0.128,-0.0001,-0.5960,0.0001,1.0000,0.5000,1.0000,0.0000
35.991,Upwind,1455.504,0.541,1454.908,0.541,27.317,27.317,170.379,23.530,0.025,12.243,-0.133,0.0003,-0.5655,0.0001,1.0000,0.5000,1.0000,0.0000
36.191,Upwind,1472.997,0.549,1472.401,0.549,32.270,32.271,170.723,25.993,0.021,12.642,-0.135,0.0007,-0.5356,0.0001,1.0000,0.5000,1.0000,0.0000
36.398,Upwind,1490.511,0.556,1489.915,0.556,37.708,37.708,171.032,28.373,0.016,12.975,-0.135,0.0010,-0.5045,0.0001,1.0000,0.5000,1.0000,0.0000
36.602,Upwind,1508.042,0.563,1507.447,0.563,43.613,43.613,171.311,30.660,0.011,13.241,-0.134,0.0013,-0.4738,0.0001,1.0000,0.5000,1.0000,0.0000
36.790,Upwind,1524.126,0.568,1523.530,0.568,49.965,49.965,171.563,32.834,0.007,13.442,-0.131,0.0015,-0.4457,0.0001,1.0000,0.5000,1.0000,0.0000
37.002,Upwind,1543.146,0.574,1542.551,0.574,56.738,56.738,171.793,34.874,0.002,13.579,-0.126,0.0017,-0.4140,0.0001,1.0000,0.5000,1.0000,0.0000
37.198,Upwind,1560.714,0.578,1560.118,0.578,63.904,63.905,172.004,36.763,359.999,13.655,-0.121,0.0018,-0.3845,0.0001,1.0000,0.5000,1.0000,0.0000
37.391,Upwind,1578.291,0.581,1577.695,0.581,71.433,71.433,172.202,38.496,359.995,13.675,-0.115,0.0019,-0.3556,0.0001,1.0000,0.5000,1.0000,0.0000
37.590,Upwind,1594.410,0.583,1593.814,0.583,79.291,79.292,172.389,40.060,359.993,13.642,-0.108,0.0018,-0.3256,0.0001,1.0000,0.5000,1.0000,0.0000
37.800,Upwind,1613.470,0.586,1612.875,0.585,87.445,87.445,172.571,41.446,359.990,13.558,-0.101,0.0018,-0.2941,0.0000,1.0000,0.5000,1.0000,0.0000
37.990,Upwind,1629.607,0.587,1629.011,0.587,95.858,95.858,172.750,42.652,359.989,13.428,-0.094,0.0016,-0.2657,0.0000,1.0000,0.5000,1.0000,0.0000
38.205,Upwind,1648.689,0.587,1648.093,0.587,103.766,103.766,172.913,43.592,359.988,13.269,-0.088,0.0015,-0.2335,0.0000,0.9994,0.5000,1.0000,0.0000
38.390,Upwind,1664.847,0.588,1664.251,0.588,113.313,113.314,173.104,44.504,359.988,13.035,-0.081,0.0012,-0.2350,0.0000,0.9968,0.5000,1.0000,0.0000
38.601,Upwind,1683.957,0.587,1683.361,0.587,122.280,122.281,173.274,45.130,359.988,12.793,-0.074,0.0010,-0.2882,0.0000,0.9944,0.5000,1.0000,0.0000
38.791,Upwind,1701.612,0.587,1701.017,0.587,131.352,131.353,173.439,45.559,359.989,12.574,-0.069,0.0008,-0.3317,0.0000,0.9920,0.5000,1.0000,0.0000
38.989,Upwind,1717.811,0.586,1717.215,0.586,140.494,140.495,173.600,45.839,359.989,12.416,-0.064,0.0005,-0.3596,0.0000,0.9898,0.5000,1.0000,0.0000
39.202,Upwind,1736.973,0.585,1736.377,0.585,149.682,149.682,173.755,46.031,359.990,12.340,-0.059,0.0003,-0.3677,0.0000,0.9876,0.5000,1.0000,0.0000
39.396,Upwind,1754.677,0.583,1754.082,0.583,158.905,158.905,173.904,46.197,359.991,12.345,-0.055,0.0002,-0.3596,0.0000,0.9855,0.5000,1.0000,0.0000
39.593,Upwind,1772.399,0.582,1771.803,0.582,168.162,168.163,174.045,46.385,359.991,12.415,-0.052,0.0000,-0.3394,0.0000,0.9835,0.5000,1.0000,0.0000
39.793,Upwind,1790.134,0.580,1789.538,0.580,177.462,177.463,174.178,46.626,359.992,12.527,-0.050,-0.0001,-0.3133,0.0000,0.9816,0.5000,1.0000,0.0000
39.993,Upwind,1807.882,0.578,1807.286,0.578,186.817,186.817,174.301,46.929,359.992,12.654,-0.048,-0.0002,-0.2849,0.0000,0.9799,0.5000,1.0000,0.0000
40.190,Upwind,1824.162,0.577,1823.566,0.577,196.238,196.239,174.415,47.290,359.993,12.772,-0.047,-0.0002,-0.2601,0.0000,0.9783,0.5000,1.0000,0.0000
40.391,Upwind,1843.412,0.574,1842.816,0.574,205.735,205.736,174.519,47.689,359.993,12.863,-0.045,-0.0003,-0.2432,0.0000,0.9769,0.5000,1.0000,0.0000
40.594,Upwind,1861.191,0.572,1860.595,0.572,215.314,215.315,174.615,48.100,359.993,12.918,-0.045,-0.0003,-0.2351,0.0000,0.9755,0.5000,1.0000,0.0000
40.799,Upwind,1878.977,0.570,1878.382,0.570,224.974,224.975,174.704,48.498,359.993,12.936,-0.044,-0.0002,-0.2342,0.0000,0.9743,0.5000,1.0000,0.0000
40.989,Upwind,1895.289,0.568,1894.693,0.568,233.897,233.898,174.779,48.833,359.993,12.926,-0.044,-0.0002,-0.2385,0.0000,0.9732,0.5000,1.0000,0.0000
41.198,Upwind,1914.573,0.566,1913.977,0.566,244.516,244.517,174.863,49.181,359.992,12.893,-0.044,-0.0002,-0.2472,0.0000,0.9720,0.5000,1.0000,0.0000
41.397,Upwind,1932.382,0.563,1931.786,0.563,254.380,254.381,174.935,49.449,359.992,12.854,-0.044,-0.0001,-0.2559,0.0000,0.9710,0.5000,1.0000,0.0000
41.595,Upwind,1950.199,0.561,1949.603,0.561,264.292,264.294,175.004,49.672,359.991,12.818,-0.044,-0.0001,-0.2631,0.0000,0.9701,0.5000,1.0000,0.0000
41.789,Upwind,1966.537,0.559,1965.942,0.559,274.246,274.247,175.069,49.857,359.991,12.792,-0.044,0.0000,-0.2676,0.0000,0.9691,0.5000,1.0000,0.0000
42.000,Upwind,1985.855,0.556,1985.259,0.556,284.234,284.235,175.131,50.018,359.990,12.781,-0.044,0.0000,-0.2685,0.0000,0.9683,0.5000,1.0000,0.0000
42.201,Upwind,2003.694,0.553,2003.098,0.553,294.252,294.253,175.189,50.165,359.990,12.784,-0.044,0.0001,-0.2664,0.0000,0.9675,0.5000,1.0000,0.0000
42.389,Upwind,2020.052,0.551,2019.456,0.551,304.299,304.301,175.244,50.310,359.989,12.800,-0.043,0.0001,-0.2620,0.0000,0.9667,0.5000,1.0000,0.0000
42.597,Upwind,2039.392,0.548,2038.796,0.548,314.376,314.377,175.296,50.457,359.989,12.824,-0.043,0.0002,-0.2562,0.0000,0.9660,0.5000,1.0000,0.0000
42.793,Upwind,2057.251,0.545,2056.655,0.545,324.483,324.484,175.343,50.610,359.988,12.851,-0.042,0.0002,-0.2503,0.0000,0.9653,0.5000,1.0000,0.0000
43.001,Upwind,2075.116,0.542,2074.520,0.542,334.620,334.622,175.387,50.768,359.988,12.876,-0.042,0.0002,-0.2451,0.0000,0.9647,0.5000,1.0000,0.0000
43.193,Upwind,2092.986,0.539,2092.390,0.539,344.790,344.791,175.428,50.928,359.988,12.896,-0.041,0.0003,-0.2413,0.0000,0.9641,0.5000,1.0000,0.0000
43.392,Upwind,2110.861,0.536,2110.265,0.536,354.991,354.993,175.466,51.086,359.987,12.910,-0.040,0.0002,-0.2389,0.0000,0.9636,0.5000,1.0000,0.0000
43.599,Upwind,2128.741,0.532,2128.146,0.532,365.224,365.225,175.500,51.237,359.987,12.917,-0.039,0.0002,-0.2381,0.0000,0.9631,0.5000,1.0000,0.0000
43.795,Upwind,2146.626,0.529,2146.030,0.529,375.485,375.487,175.532,51.378,359.987,12.918,-0.038,0.0002,-0.2383,0.0000,0.9626,0.5000,1.0000,0.0000
43.989,Upwind,2163.024,0.526,2162.428,0.526,384.916,384.918,175.560,51.497,359.987,12.915,-0.037,0.0002,-0.2391,0.0000,0.9623,0.5000,1.0000,0.0000
44.189,Upwind,2180.917,0.523,2180.322,0.523,396.087,396.089,175.590,51.622,359.987,12.910,-0.036,0.0002,-0.2403,0.0000,0.9618,0.5000,1.0000,0.0000
44.399,Upwind,2200.307,0.519,2199.711,0.519,406.422,406.424,175.615,51.726,359.987,12.906,-0.035,0.0002,-0.2412,0.0000,0.9615,0.5000,1.0000,0.0000
44.592,Upwind,2218.209,0.516,2217.614,0.516,416.777,416.779,175.639,51.818,359.987,12.903,-0.034,0.0002,-0.2416,0.0000,0.9611,0.5000,1.0000,0.0000
44.794,Upwind,2236.116,0.512,2235.520,0.512,427.149,427.151,175.662,51.903,359.987,12.902,-0.033,0.0001,-0.2414,0.0000,0.9608,0.5000,1.0000,0.0000
44.993,Upwind,2254.027,0.509,2253.431,0.509,436.671,436.673,175.680,51.976,359.987,12.904,-0.033,0.0001,-0.2407,0.0000,0.9606,0.5000,1.0000,0.0000
45.198,Upwind,2271.941,0.506,2271.345,0.505,447.941,447.944,175.701,52.057,359.987,12.909,-0.032,0.0001,-0.2395,0.0000,0.9603,0.5000,1.0000,0.0000
45.396,Upwind,2289.860,0.502,2289.264,0.502,458.360,458.362,175.719,52.130,359.987,12.915,-0.031,0.0001,-0.2381,0.0000,0.9600,0.5000,1.0000,0.0000
45.594,Upwind,2307.782,0.499,2307.187,0.499,468.793,468.796,175.735,52.202,359.987,12.921,-0.030,0.0001,-0.2367,0.0000,0.9598,0.5000,1.0000,0.0000
45.799,Upwind,2325.708,0.495,2325.112,0.495,479.241,479.243,175.749,52.271,359.987,12.927,-0.030,0.0001,-0.2355,0.0000,0.9596,0.5000,1.0000,0.0000
45.993,Upwind,2343.638,0.492,2343.042,0.492,489.702,489.704,175.763,52.339,359.988,12.932,-0.029,0.0000,-0.2345,0.0000,0.9594,0.5000,1.0000,0.0000
46.193,Upwind,2361.570,0.488,2360.975,0.488,500.176,500.178,175.774,52.405,359.988,12.936,-0.029,0.0000,-0.2337,0.0000,0.9592,0.5000,1.0000,0.0000
46.396,Upwind,2379.507,0.485,2378.911,0.485,510.663,510.666,175.785,52.467,359.988,12.939,-0.028,0.0000,-0.2333,0.0000,0.9591,0.5000,1.0000,0.0000
46.598,Upwind,2397.446,0.482,2396.850,0.482,521.163,521.165,175.795,52.525,359.988,12.940,-0.028,0.0000,-0.2331,0.0000,0.9589,0.5000,1.0000,0.0000
46.794,Upwind,2415.388,0.478,2414.792,0.478,531.673,531.676,175.804,52.580,359.988,12.941,-0.028,0.0001,-0.2331,0.0000,0.9588,0.5000,1.0000,0.0000
46.998,Upwind,2433.334,0.475,2432.738,0.475,541.317,541.320,175.811,52.626,359.988,12.941,-0.028,0.0001,-0.2331,0.0000,0.9587,0.5000,1.0000,0.0000
47.189,Upwind,2449.787,0.472,2449.191,0.472,552.725,552.727,175.818,52.676,359.988,12.941,-0.028,0.0000,-0.2330,0.0000,0.9586,0.5000,1.0000,0.0000
47.395,Upwind,2469.234,0.468,2468.638,0.468,563.264,563.267,175.824,52.719,359.988,12.941,-0.027,0.0001,-0.2329,0.0000,0.9585,0.5000,1.0000,0.0000
47.593,Upwind,2487.189,0.465,2486.593,0.465,573.812,573.815,175.830,52.759,359.988,12.942,-0.027,0.0000,-0.2327,0.0000,0.9585,0.5000,1.0000,0.0000
47.796,Upwind,2505.146,0.462,2504.551,0.462,584.368,584.370,175.834,52.796,359.988,12.943,-0.027,0.0000,-0.2325,0.0000,0.9584,0.5000,1.0000,0.0000
47.995,Upwind,2523.107,0.459,2522.511,0.459,594.930,594.933,175.838,52.832,359.988,12.944,-0.027,0.0000,-0.2321,0.0000,0.9583,0.5000,1.0000,0.0000
48.192,Upwind,2541.070,0.456,2540.474,0.456,605.500,605.503,175.841,52.865,359.988,12.946,-0.027,0.0001,-0.2318,0.0000,0.9583,0.5000,1.0000,0.0000
48.399,Upwind,2559.036,0.452,2558.440,0.452,616.076,616.079,175.844,52.898,359.989,12.948,-0.027,0.0000,-0.2314,0.0000,0.9583,0.5000,1.0000,0.0000
48.590,Upwind,2575.507,0.450,2576.409,0.449,626.659,626.662,175.846,52.928,359.989,12.949,-0.026,0.0000,-0.2310,0.0000,0.9582,0.5000,1.0000,0.0000
48.789,Upwind,2593.478,0.447,2592.883,0.446,637.247,637.250,175.848,52.958,359.989,12.951,-0.026,0.0000,-0.2307,0.0000,0.9582,0.5000,1.0000,0.0000
49.004,Upwind,2612.950,0.443,2612.354,0.443,647.842,647.845,175.849,52.986,359.989,12.952,-0.026,0.0000,-0.2305,0.0000,0.9582,0.5000,1.0000,0.0000
49.195,Upwind,2630.927,0.440,2630.331,0.440,658.442,658.445,175.849,53.013,359.989,12.953,-0.026,0.0001,-0.2303,0.0000,0.9582,0.5000,1.0000,0.0000
49.392,Upwind,2648.906,0.437,2648.310,0.437,669.047,669.050,175.849,53.038,359.989,12.953,-0.026,0.0000,-0.2302,0.0000,0.9582,0.5000,1.0000,0.0000
49.596,Upwind,2666.887,0.434,2666.292,0.434,679.657,679.660,175.849,53.061,359.989,12.954,-0.026,0.0000,-0.2301,0.0000,0.9582,0.5000,1.0000,0.0000
49.797,Upwind,2684.872,0.431,2684.276,0.431,690.271,690.274,175.848,53.083,359.989,12.954,-0.026,0.0000,-0.2301,0.0000,0.9582,0.5000,1.0000,0.0000
49.992,Upwind,2702.859,0.429,2702.263,0.429,700.890,700.893,175.847,53.104,359.989,12.955,-0.026,0.0000,-0.2300,0.0000,0.9582,0.5000,1.0000,0.0000
50.188,Upwind,2719.349,0.426,2718.753,0.426,711.513,711.516,175.845,53.123,359.990,12.955,-0.026,0.0000,-0.2299,0.0000,0.9582,0.5000,1.0000,0.0000
50.398,Upwind,2738.840,0.423,2738.244,0.423,722.139,722.142,175.843,53.141,359.990,12.955,-0.026,0.0000,-0.2298,0.0000,0.9583,0.5000,1.0000,0.0000
50.602,Upwind,2756.834,0.420,2756.239,0.420,732.769,732.772,175.841,53.159,359.990,12.956,-0.026,0.0000,-0.2297,0.0000,0.9583,0.5000,1.0000,0.0000
50.791,Upwind,2774.831,0.418,2774.235,0.418,743.402,743.406,175.839,53.175,359.990,12.956,-0.026,0.0000,-0.2296,0.0000,0.9583,0.5000,1.0000,0.0000
50.990,Upwind,2791.330,0.415,2790.734,0.415,754.039,754.042,175.836,53.190,359.990,12.957,-0.026,0.0001,-0.2295,0.0000,0.9584,0.5000,1.0000,0.0000
51.194,Upwind,2810.831,0.412,2810.235,0.412,764.678,764.682,175.833,53.204,359.990,12.957,-0.026,0.0000,-0.2294,0.0000,0.9584,0.5000,1.0000,0.0000
51.391,Upwind,2828.835,0.410,2828.239,0.410,775.320,775.324,175.830,53.218,359.990,12.957,-0.026,0.0000,-0.2293,0.0000,0.9585,0.5000,1.0000,0.0000
51.603,Upwind,2846.841,0.407,2846.245,0.407,785.965,785.969,175.826,53.231,359.990,12.958,-0.026,0.0000,-0.2292,0.0000,0.9585,0.5000,1.0000,0.0000
51.798,Upwind,2864.849,0.405,2864.254,0.405,796.613,796.617,175.822,53.244,359.991,12.958,-0.026,0.0000,-0.2292,0.0000,0.9586,0.5000,1.0000,0.0000
# disengaged
