time_s,leg,north_m,east_m,along_m,cross_m,agl_ft,altitude_ft,speed_kts,vertical_speed_fps,heading_deg,pitch_deg,roll_deg,aileron_cmd,elevator_cmd,rudder_cmd,throttle_cmd,flaps_cmd,gear_cmd,brake_cmd
0.333,Upwind,1.385,0.000,1.308,0.000,3.691,3.691,1.077,0.002,0.000,0.454,0.000,0.0000,0.0636,0.0000,0.1667,0.5000,1.0000,0.0000
0.434,Upwind,1.510,0.000,1.433,0.000,3.691,3.691,2.922,0.000,0.000,0.449,0.000,0.0000,0.0628,0.0000,0.2170,0.5000,1.0000,0.0000
0.615,Upwind,1.787,0.000,1.710,0.000,3.691,3.691,2.950,0.000,0.000,0.449,0.000,0.0000,0.0628,0.0000,0.3073,0.5000,1.0000,0.0000
0.813,Upwind,2.094,0.000,2.017,0.000,3.691,3.691,2.995,0.000,0.000,0.449,0.000,0.0000,0.0629,0.0000,0.4067,0.5000,1.0000,0.0000
1.005,Upwind,2.380,0.000,2.303,0.000,3.691,3.691,3.054,0.000,0.000,0.449,0.000,0.0000,0.0629,0.0000,0.5023,0.5000,1.0000,0.0000
1.206,Upwind,2.698,0.000,2.622,0.000,3.691,3.691,3.133,0.000,0.000,0.449,0.000,0.0000,0.0629,0.0000,0.6029,0.5000,1.0000,0.0000
1.412,Upwind,3.054,0.000,2.978,0.000,3.691,3.691,3.234,0.000,0.000,0.449,0.000,0.0000,0.0629,0.0000,0.7060,0.5000,1.0000,0.0000
1.609,Upwind,3.396,0.000,3.319,0.000,3.691,3.691,3.360,0.000,0.000,0.449,0.000,0.0000,0.0629,0.0000,0.8044,0.5000,1.0000,0.0000
1.802,Upwind,3.722,0.000,3.645,0.000,3.691,3.691,3.517,0.000,0.000,0.450,0.000,0.0000,0.0630,0.0000,0.9010,0.5000,1.0000,0.0000
2.015,Upwind,4.127,0.000,4.050,0.000,3.691,3.691,3.727,0.000,0.000,0.450,0.000,0.0000,0.0630,0.0000,1.0000,0.5000,1.0000,0.0000
2.209,Upwind,4.524,0.000,4.447,0.000,3.691,3.691,3.965,0.000,0.000,0.450,0.000,0.0000,0.0630,0.0000,1.0000,0.5000,1.0000,0.0000
2.411,Upwind,4.949,0.000,4.872,0.000,3.691,3.691,4.225,0.000,0.000,0.450,0.000,0.0000,0.0630,0.0000,1.0000,0.5000,1.0000,0.0000
2.603,Upwind,5.367,0.000,5.290,0.000,3.691,3.691,4.562,0.000,0.000,0.450,0.000,0.0000,0.0631,0.0000,1.0000,0.5000,1.0000,0.0000
2.809,Upwind,5.902,0.000,5.826,0.000,3.691,3.691,4.961,0.000,0.000,0.451,0.000,0.0000,0.0631,0.0000,1.0000,0.5000,1.0000,0.0000
3.002,Upwind,6.398,0.000,6.321,0.000,3.691,3.691,5.431,0.000,0.000,0.451,0.000,0.0000,0.0632,0.0000,1.0000,0.5000,1.0000,0.0000
3.214,Upwind,7.041,0.000,6.964,0.000,3.691,3.691,6.030,0.000,0.000,0.451,0.000,0.0000,0.0632,0.0000,1.0000,0.5000,1.0000,0.0000
3.410,Upwind,7.699,0.000,7.622,0.000,3.691,3.691,6.617,0.000,0.000,0.452,0.000,0.0000,0.0633,0.0000,1.0000,0.5000,1.0000,0.0000
3.603,Upwind,8.365,0.000,8.288,0.000,3.691,3.691,7.348,0.000,0.000,0.452,0.000,0.0000,0.0634,0.0000,1.0000,0.5000,1.0000,0.0000
3.809,Upwind,9.242,0.000,9.165,0.000,3.691,3.691,8.181,0.000,0.000,0.453,0.000,0.0000,0.0634,0.0000,1.0000,0.5000,1.0000,0.0000
4.016,Upwind,10.147,0.000,10.070,0.000,3.691,3.691,9.207,0.000,0.000,0.453,0.000,0.0000,0.0635,0.0000,1.0000,0.5000,1.0000,0.0000
4.215,Upwind,11.158,0.000,11.081,0.000,3.691,3.691,10.275,0.001,0.000,0.454,0.000,0.0000,0.0636,0.0000,1.0000,0.5000,1.0000,0.0000
4.410,Upwind,12.285,0.000,12.209,0.000,3.691,3.691,11.362,0.001,0.000,0.454,0.000,0.0000,0.0636,0.0000,1.0000,0.5000,1.0000,0.0000
4.608,Upwind,13.542,0.000,13.465,0.000,3.691,3.692,12.639,0.001,0.000,0.455,0.000,0.0000,0.0636,0.0000,1.0000,0.5000,1.0000,0.0000
4.820,Upwind,14.930,0.000,14.854,0.000,3.692,3.692,14.029,0.001,0.000,0.454,0.000,0.0000,0.0636,0.0000,1.0000,0.5000,1.0000,0.0000
5.017,Upwind,16.451,0.000,16.374,0.000,3.692,3.692,15.310,0.001,0.000,0.454,0.000,0.0000,0.0635,0.0000,1.0000,0.5000,1.0000,0.0000
5.207,Upwind,17.960,0.000,17.883,0.000,3.692,3.692,16.484,0.001,0.000,0.454,0.000,0.0000,0.0635,0.0000,1.0000,0.5000,1.0000,0.0000
5.413,Upwind,19.887,0.000,19.810,0.000,3.692,3.692,17.870,0.001,0.000,0.453,0.000,0.0000,0.0634,0.0000,1.0000,0.5000,1.0000,0.0000
5.605,Upwind,21.638,0.000,21.561,0.000,3.693,3.693,19.042,0.001,0.000,0.453,0.000,0.0000,0.0634,0.0000,1.0000,0.5000,1.0000,0.0000
5.810,Upwind,23.849,0.000,23.772,0.000,3.693,3.693,20.319,0.002,0.000,0.452,0.000,0.0000,0.0633,0.0000,1.0000,0.5000,1.0000,0.0000
6.015,Upwind,26.027,0.000,25.951,0.000,3.693,3.693,21.701,0.002,0.000,0.452,0.000,0.0000,0.0632,0.0000,1.0000,0.5000,1.0000,0.0000
6.201,Upwind,28.139,0.000,28.063,0.000,3.694,3.694,22.870,0.002,0.000,0.452,0.000,0.0000,0.0632,0.0000,1.0000,0.5000,1.0000,0.0000
6.413,Upwind,30.777,0.000,30.701,0.000,3.694,3.694,24.250,0.002,0.000,0.451,0.000,0.0000,0.0631,0.0000,1.0000,0.5000,1.0000,0.0000
6.612,Upwind,33.349,0.000,33.272,0.000,3.694,3.694,25.522,0.002,0.000,0.450,0.000,0.0000,0.0630,0.0000,1.0000,0.5000,1.0000,0.0000
6.812,Upwind,36.051,0.000,35.974,0.000,3.695,3.695,26.793,0.002,0.000,0.450,0.000,0.0000,0.0629,0.0000,1.0000,0.5000,1.0000,0.0000
7.018,Upwind,38.884,0.000,38.808,0.000,3.695,3.695,28.063,0.003,0.000,0.449,0.000,0.0000,0.0628,0.0000,1.0000,0.5000,1.0000,0.0000
7.211,Upwind,41.848,0.000,41.771,0.000,3.696,3.696,29.226,0.003,0.000,0.448,0.000,0.0000,0.0627,0.0000,1.0000,0.5000,1.0000,0.0000
7.409,Upwind,44.942,0.000,44.865,0.000,3.696,3.696,30.493,0.003,0.000,0.448,0.000,0.0000,0.0626,0.0000,1.0000,0.5000,1.0000,0.0000
7.605,Upwind,47.893,0.000,47.816,0.000,3.697,3.697,31.759,0.003,0.000,0.447,0.000,0.0000,0.0625,0.0000,1.0000,0.5000,1.0000,0.0000
7.818,Upwind,51.521,0.001,51.444,0.001,3.698,3.698,33.129,0.003,0.000,0.446,0.000,0.0000,0.0624,0.0000,1.0000,0.5000,1.0000,0.0000
8.004,Upwind,54.711,0.001,54.634,0.001,3.698,3.698,34.287,0.003,0.000,0.445,0.000,0.0000,0.0622,0.0000,1.0000,0.5000,1.0000,0.0000
# disengaged
