time_s,leg,north_m,east_m,along_m,cross_m,agl_ft,altitude_ft,speed_kts,vertical_speed_fps,heading_deg,pitch_deg,roll_deg,aileron_cmd,elevator_cmd,rudder_cmd,throttle_cmd,flaps_cmd,gear_cmd,brake_cmd
0.000,Upwind,0.819,0.000,0.000,0.000,3.690,3.690,0.000,0.000,0.000,0.450,0.000,0.0000,0.0020,0.0000,0.1320,0.5000,1.0000,1.0000
0.196,Upwind,0.819,0.000,0.000,0.000,3.690,3.690,0.000,0.000,0.000,0.450,0.000,0.0000,0.0313,0.0000,0.0342,0.5000,1.0000,1.0000
0.389,Upwind,0.819,0.000,0.000,0.000,3.690,3.690,0.000,0.000,0.000,0.450,0.000,0.0000,0.0604,0.0000,0.0000,0.5000,1.0000,1.0000
0.589,Upwind,0.819,0.000,0.000,0.000,3.690,3.690,0.000,0.000,0.000,0.450,0.000,0.0000,0.0630,0.0000,0.0000,0.5000,1.0000,1.0000
0.794,Upwind,0.819,0.000,0.000,0.000,3.690,3.690,0.000,0.000,0.000,0.450,0.000,0.0000,0.0630,0.0000,0.0216,0.5000,1.0000,0.0000
0.996,Upwind,0.819,0.000,0.000,0.000,3.690,3.690,0.000,0.000,0.000,0.450,0.000,0.0000,0.0629,0.0000,0.1224,0.5000,1.0000,0.0000
1.190,Upwind,0.819,0.000,0.000,0.000,3.690,3.690,0.000,0.000,0.000,0.450,0.000,0.0000,0.0629,0.0000,0.2196,0.5000,1.0000,0.0000
1.389,Upwind,0.819,0.000,0.000,0.000,3.690,3.690,0.000,0.000,0.000,0.450,0.000,0.0000,0.0629,0.0000,0.3191,0.5000,1.0000,0.0000
1.590,Upwind,0.819,0.000,0.000,0.000,3.690,3.690,0.000,0.000,0.000,0.449,0.000,0.0000,0.0629,0.0000,0.4195,0.5000,1.0000,0.0000
1.792,Upwind,0.819,0.000,0.000,0.000,3.690,3.690,0.000,0.000,0.000,0.449,0.000,0.0000,0.0629,0.0000,0.5206,0.5000,1.0000,0.0000
1.995,Upwind,0.819,0.000,0.000,0.000,3.690,3.690,0.000,0.000,0.000,0.449,0.000,0.0000,0.0628,0.0000,0.6219,0.5000,1.0000,0.0000
2.193,Upwind,0.819,0.000,0.000,0.000,3.690,3.690,0.002,0.000,0.000,0.449,0.000,0.0000,0.0628,0.0000,0.7209,0.5000,1.0000,0.0000
2.400,Upwind,0.819,0.000,0.001,0.000,3.690,3.690,0.011,0.000,0.000,0.449,0.000,0.0000,0.0628,0.0000,0.8246,0.5000,1.0000,0.0000
2.599,Upwind,0.821,0.000,0.003,0.000,3.690,3.690,0.028,0.000,0.000,0.449,0.000,0.0000,0.0629,0.0000,0.9239,0.5000,1.0000,0.0000
2.792,Upwind,0.825,0.000,0.007,0.000,3.690,3.690,0.056,0.000,0.000,0.449,0.000,0.0000,0.0629,0.0000,1.0000,0.5000,1.0000,0.0000
3.002,Upwind,0.834,0.000,0.015,0.000,3.690,3.690,0.097,0.000,0.000,0.449,0.000,0.0000,0.0629,0.0000,1.0000,0.5000,1.0000,0.0000
3.197,Upwind,0.847,0.000,0.029,0.000,3.690,3.690,0.153,0.000,0.000,0.449,0.000,0.0000,0.0629,0.0000,1.0000,0.5000,1.0000,0.0000
3.391,Upwind,0.865,0.000,0.047,0.000,3.690,3.690,0.221,0.000,0.000,0.449,0.000,0.0000,0.0629,0.0000,1.0000,0.5000,1.0000,0.0000
3.592,Upwind,0.894,0.000,0.075,0.000,3.690,3.690,0.314,0.000,0.000,0.449,0.000,0.0000,0.0629,0.0000,1.0000,0.5000,1.0000,0.0000
3.802,Upwind,0.937,0.000,0.118,0.000,3.690,3.690,0.444,0.000,0.000,0.449,0.000,0.0000,0.0629,0.0000,1.0000,0.5000,1.0000,0.0000
4.000,Upwind,0.991,0.000,0.172,0.000,3.690,3.690,0.594,0.000,0.000,0.450,0.000,0.0000,0.0630,0.0000,1.0000,0.5000,1.0000,0.0000
4.190,Upwind,1.056,0.000,0.237,0.000,3.690,3.690,0.778,0.000,0.000,0.450,0.000,0.0000,0.0630,0.0000,1.0000,0.5000,1.0000,0.0000
4.395,Upwind,1.156,0.000,0.337,0.000,3.690,3.690,1.002,0.000,0.000,0.450,0.000,0.0000,0.0630,0.0000,1.0000,0.5000,1.0000,0.0000
4.602,Upwind,1.275,0.000,0.456,0.000,3.690,3.690,1.273,0.000,0.000,0.450,0.000,0.0000,0.0631,0.0000,1.0000,0.5000,1.0000,0.0000
4.795,Upwind,1.425,0.000,0.606,0.000,3.690,3.690,1.597,0.000,0.000,0.451,0.000,0.0000,0.0631,0.0000,1.0000,0.5000,1.0000,0.0000
5.000,Upwind,1.612,0.000,0.793,0.000,3.690,3.690,1.983,0.000,0.000,0.451,0.000,0.0000,0.0631,0.0000,1.0000,0.5000,1.0000,0.0000
5.197,Upwind,1.843,0.000,1.024,0.000,3.690,3.690,2.438,0.000,0.000,0.451,0.000,0.0000,0.0632,0.0000,1.0000,0.5000,1.0000,0.0000
5.394,Upwind,2.099,0.000,1.280,0.000,3.690,3.690,2.969,0.000,0.000,0.452,0.000,0.0000,0.0633,0.0000,1.0000,0.5000,1.0000,0.0000
5.594,Upwind,2.466,0.000,1.648,0.000,3.690,3.690,3.587,0.000,0.000,0.452,0.000,0.0000,0.0633,0.0000,1.0000,0.5000,1.0000,0.0000
5.793,Upwind,2.840,0.000,2.022,0.000,3.690,3.690,4.298,0.000,0.000,0.452,0.000,0.0000,0.0634,0.0000,1.0000,0.5000,1.0000,0.0000
5.989,Upwind,3.323,0.000,2.505,0.000,3.690,3.690,5.037,0.000,0.000,0.453,0.000,0.0000,0.0634,0.0000,1.0000,0.5000,1.0000,0.0000
6.189,Upwind,3.895,0.000,3.077,0.000,3.690,3.690,5.948,0.000,0.000,0.453,0.000,0.0000,0.0635,0.0000,1.0000,0.5000,1.0000,0.0000
6.389,Upwind,4.568,0.000,3.749,0.000,3.690,3.690,6.972,0.000,0.000,0.454,0.000,0.0000,0.0636,0.0000,1.0000,0.5000,1.0000,0.0000
6.596,Upwind,5.424,0.000,4.605,0.000,3.691,3.691,8.217,0.001,0.000,0.454,0.000,0.0000,0.0637,0.0000,1.0000,0.5000,1.0000,0.0000
6.798,Upwind,6.345,0.000,5.526,0.000,3.691,3.691,9.485,0.001,0.000,0.455,0.000,0.0000,0.0637,0.0000,1.0000,0.5000,1.0000,0.0000
7.001,Upwind,7.398,0.000,6.579,0.000,3.691,3.691,10.771,0.001,0.000,0.455,0.000,0.0000,0.0636,0.0000,1.0000,0.5000,1.0000,0.0000
7.198,Upwind,8.583,0.000,7.764,0.000,3.691,3.691,12.055,0.001,0.000,0.454,0.000,0.0000,0.0636,0.0000,1.0000,0.5000,1.0000,0.0000
7.390,Upwind,9.786,0.000,8.967,0.000,3.691,3.691,13.232,0.001,0.000,0.454,0.000,0.0000,0.0635,0.0000,1.0000,0.5000,1.0000,0.0000
7.599,Upwind,11.350,0.000,10.531,0.000,3.691,3.691,14.622,0.001,0.000,0.454,0.000,0.0000,0.0635,0.0000,1.0000,0.5000,1.0000,0.0000
7.796,Upwind,12.931,0.000,12.113,0.000,3.692,3.692,15.903,0.001,0.000,0.453,0.000,0.0000,0.0634,0.0000,1.0000,0.5000,1.0000,0.0000
7.992,Upwind,14.497,0.000,13.678,0.000,3.692,3.692,17.184,0.002,0.000,0.453,0.000,0.0000,0.0634,0.0000,1.0000,0.5000,1.0000,0.0000
8.199,Upwind,16.490,0.000,15.671,0.000,3.692,3.692,18.463,0.002,0.000,0.453,0.000,0.0000,0.0633,0.0000,1.0000,0.5000,1.0000,0.0000
8.392,Upwind,18.296,0.000,17.478,0.000,3.693,3.693,19.741,0.002,0.000,0.452,0.000,0.0000,0.0632,0.0000,1.0000,0.5000,1.0000,0.0000
8.591,Upwind,20.393,0.000,19.574,0.000,3.693,3.693,21.018,0.002,0.000,0.452,0.000,0.0000,0.0632,0.0000,1.0000,0.5000,1.0000,0.0000
8.797,Upwind,22.813,0.000,21.994,0.000,3.693,3.694,22.294,0.002,0.000,0.451,0.000,0.0000,0.0631,0.0000,1.0000,0.5000,1.0000,0.0000
8.990,Upwind,24.981,0.000,24.162,0.000,3.694,3.694,23.462,0.002,0.000,0.450,0.000,0.0000,0.0630,0.0000,1.0000,0.5000,1.0000,0.0000
9.198,Upwind,27.685,0.000,26.866,0.000,3.694,3.694,24.842,0.003,0.000,0.450,0.000,0.0000,0.0629,0.0000,1.0000,0.5000,1.0000,0.0000
9.392,Upwind,30.093,0.000,29.274,0.000,3.695,3.695,26.114,0.003,0.000,0.449,0.000,0.0000,0.0628,0.0000,1.0000,0.5000,1.0000,0.0000
9.599,Upwind,33.080,0.000,32.262,0.000,3.696,3.696,27.384,0.003,0.000,0.448,0.000,0.0000,0.0627,0.0000,1.0000,0.5000,1.0000,0.0000
9.798,Upwind,35.974,0.000,35.156,0.000,3.696,3.696,28.653,0.003,0.000,0.447,0.000,0.0000,0.0625,0.0000,1.0000,0.5000,1.0000,0.0000
9.989,Upwind,38.742,0.000,37.923,0.000,3.697,3.697,29.816,0.004,0.000,0.447,0.000,0.0000,0.0624,0.0000,1.0000,0.5000,1.0000,0.0000
10.190,Upwind,41.886,0.000,41.067,0.000,3.698,3.698,31.188,0.004,0.000,0.446,0.000,0.0000,0.0623,0.0000,1.0000,0.5000,1.0000,0.0000
10.387,Upwind,45.160,0.001,44.341,0.001,3.698,3.698,32.347,0.004,0.000,0.445,0.000,0.0000,0.0621,0.0000,1.0000,0.5000,1.0000,0.0000
10.597,Upwind,48.853,0.001,48.035,0.001,3.699,3.699,33.716,0.004,0.000,0.443,0.000,0.0000,0.0620,0.0000,1.0000,0.5000,1.0000,0.0000
10.793,Upwind,52.098,0.001,51.279,0.001,3.700,3.700,34.978,0.004,0.000,0.442,0.000,0.0000,0.0618,0.0000,1.0000,0.5000,1.0000,0.0000
10.994,Upwind,56.073,0.001,55.254,0.001,3.701,3.701,36.239,0.005,0.000,0.441,0.000,0.0000,0.0616,0.0000,1.0000,0.5000,1.0000,0.0000
11.189,Upwind,59.555,0.001,58.737,0.001,3.702,3.702,37.393,0.005,0.000,0.440,0.000,0.0000,0.0615,0.0000,1.0000,0.5000,1.0000,0.0000
11.387,Upwind,63.478,0.001,62.660,0.001,3.703,3.703,38.650,0.005,0.000,0.439,0.000,0.0000,0.0613,0.0000,1.0000,0.5000,1.0000,0.0000
11.595,Upwind,67.874,0.001,67.055,0.001,3.704,3.704,40.011,0.005,0.000,0.437,0.000,0.0000,0.0611,0.0000,1.0000,0.5000,1.0000,0.0000
11.792,Upwind,71.712,0.001,70.893,0.001,3.705,3.705,41.265,0.006,0.000,0.436,0.000,0.0000,0.0609,0.0000,1.0000,0.5000,1.0000,0.0000
11.991,Upwind,76.022,0.001,75.203,0.001,3.706,3.706,42.412,0.006,0.000,0.434,0.000,0.0000,0.0607,0.0000,1.0000,0.5000,1.0000,0.0000
12.193,Upwind,80.461,0.001,79.642,0.001,3.707,3.707,43.663,0.006,0.000,0.433,0.000,0.0000,0.0604,0.0000,1.0000,0.5000,1.0000,0.0000
12.393,Upwind,85.029,0.001,84.210,0.001,3.709,3.709,44.912,0.007,0.000,0.431,0.000,0.0000,0.0602,0.0000,1.0000,0.5000,1.0000,0.0000
12.590,Upwind,89.725,0.002,88.906,0.002,3.710,3.710,46.158,0.007,0.000,0.429,0.000,-0.0001,0.0599,0.0000,1.0000,0.5000,1.0000,0.0000
12.788,Upwind,94.549,0.002,93.730,0.002,3.712,3.712,47.403,0.008,0.000,0.427,0.000,-0.0001,0.0596,0.0000,1.0000,0.5000,1.0000,0.0000
12.991,Upwind,99.501,0.002,98.682,0.002,3.713,3.713,48.749,0.008,0.000,0.425,0.000,-0.0001,0.0593,0.0000,1.0000,0.5000,1.0000,0.0000
13.193,Upwind,104.581,0.002,103.762,0.002,3.715,3.715,49.990,0.009,0.000,0.423,0.000,-0.0001,0.0590,0.0000,1.0000,0.5000,1.0000,0.0000
13.389,Upwind,109.788,0.002,108.969,0.002,3.716,3.716,51.125,0.009,0.001,0.421,0.000,-0.0001,0.0587,0.0000,1.0000,0.5000,1.0000,0.0000
13.592,Upwind,115.123,0.002,114.304,0.002,3.718,3.718,52.464,0.009,0.001,0.418,0.000,-0.0001,0.0584,0.0000,1.0000,0.5000,1.0000,0.0000
13.789,Upwind,120.584,0.003,119.766,0.003,3.720,3.720,53.595,0.010,0.001,0.416,0.000,-0.0001,0.0580,0.0000,1.0000,0.5000,1.0000,0.0000
13.988,Upwind,126.173,0.003,125.354,0.003,3.722,3.722,54.827,0.010,0.001,0.414,0.000,-0.0001,0.0577,0.0000,1.0000,0.5000,1.0000,0.0000
14.190,Upwind,131.888,0.003,131.069,0.003,3.724,3.724,56.057,0.009,0.001,0.411,0.000,-0.0001,0.0573,0.0000,1.0000,0.5000,1.0000,0.0000
14.387,Upwind,137.730,0.003,136.911,0.003,3.726,3.726,57.284,0.008,0.001,0.409,0.000,-0.0001,0.0570,0.0000,1.0000,0.5000,1.0000,0.0000
14.588,Upwind,143.697,0.004,142.879,0.004,3.727,3.727,58.509,0.008,0.001,0.407,0.000,-0.0001,0.0568,0.0000,1.0000,0.5000,1.0000,0.0000
14.791,Upwind,149.791,0.004,148.972,0.004,3.729,3.729,59.733,0.008,0.001,0.405,0.000,-0.0001,0.0565,0.0000,1.0000,0.5000,1.0000,0.0000
14.994,Upwind,156.011,0.004,155.192,0.004,3.731,3.731,61.056,0.008,0.001,0.403,0.000,-0.0001,0.0562,0.0000,1.0000,0.5000,1.0000,0.0000
15.198,Upwind,162.890,0.005,162.071,0.005,3.732,3.732,62.275,0.008,0.001,0.401,0.000,-0.0001,0.0559,0.0000,1.0000,0.5000,1.0000,0.0000
15.390,Upwind,168.826,0.005,168.007,0.005,3.734,3.734,63.390,0.009,0.001,0.399,0.000,-0.0002,0.0556,0.0000,1.0000,0.5000,1.0000,0.0000
15.587,Upwind,175.421,0.005,174.602,0.005,3.735,3.736,64.605,0.009,0.001,0.396,0.000,-0.0002,0.0553,0.0000,1.0000,0.5000,1.0000,0.0000
15.790,Upwind,182.141,0.006,181.323,0.006,3.737,3.737,65.817,0.009,0.001,0.394,0.000,-0.0002,0.0549,0.0000,1.0000,0.5000,1.0000,0.0000
15.993,Upwind,188.986,0.006,188.167,0.006,3.739,3.739,67.129,0.009,0.002,0.392,0.000,-0.0002,0.0546,0.0000,1.0000,0.5000,1.0000,0.0000
16.206,Upwind,196.542,0.007,195.723,0.007,3.741,3.741,68.337,0.009,0.002,0.389,0.000,-0.0002,0.0543,0.0000,1.0000,0.5000,1.0000,0.0000
16.388,Upwind,203.049,0.007,202.230,0.007,3.743,3.743,69.442,0.009,0.002,0.387,0.000,-0.0002,0.0540,0.0000,1.0000,0.5000,1.0000,0.0000
16.593,Upwind,210.266,0.007,209.448,0.007,3.745,3.745,70.746,0.009,0.002,0.385,0.000,-0.0002,0.0536,0.0000,1.0000,0.5000,1.0000,0.0000
16.788,Upwind,217.607,0.008,216.789,0.008,3.746,3.746,71.847,0.010,0.002,0.382,0.000,-0.0003,0.0533,0.0000,1.0000,0.5000,1.0000,0.0000
16.988,Upwind,225.072,0.009,224.253,0.008,3.748,3.748,73.046,0.010,0.002,0.380,0.000,-0.0003,0.0529,0.0000,1.0000,0.5000,1.0000,0.0000
17.198,Upwind,233.298,0.009,232.479,0.009,3.750,3.750,74.343,0.010,0.002,0.377,0.000,-0.0003,0.0526,0.0000,1.0000,0.5000,1.0000,0.0000
17.396,Upwind,241.019,0.010,240.200,0.010,3.752,3.752,75.537,0.010,0.003,0.375,0.000,-0.0003,0.0522,0.0000,1.0000,0.5000,1.0000,0.0000
17.590,Upwind,248.204,0.010,247.386,0.010,3.754,3.754,76.729,0.010,0.003,0.372,0.000,-0.0003,0.0518,0.0000,1.0000,0.5000,1.0000,0.0000
17.801,Upwind,256.829,0.011,256.010,0.011,3.756,3.756,77.918,0.010,0.003,0.369,0.000,-0.0003,0.0515,0.0000,1.0000,0.5000,1.0000,0.0000
17.995,Upwind,264.917,0.012,264.099,0.012,3.758,3.758,79.105,0.010,0.003,0.367,0.000,-0.0004,0.0511,0.0000,1.0000,0.5000,1.0000,0.0000
18.192,Upwind,272.439,0.013,271.620,0.013,3.760,3.760,80.290,0.010,0.003,0.364,0.000,-0.0004,0.0507,0.0000,1.0000,0.5000,1.0000,0.0000
18.397,Upwind,281.460,0.013,280.642,0.013,3.762,3.763,81.472,0.011,0.003,0.362,0.000,-0.0004,0.0503,0.0000,1.0000,0.5000,1.0000,0.0000
18.587,Upwind,289.205,0.014,288.386,0.014,3.764,3.764,82.553,0.011,0.004,0.359,0.000,-0.0004,0.0500,0.0000,1.0000,0.5000,1.0000,0.0000
18.793,Upwind,297.770,0.015,296.951,0.015,3.767,3.767,83.829,0.011,0.004,0.356,0.000,-0.0005,0.0496,0.0000,1.0000,0.5000,1.0000,0.0000
18.989,Upwind,306.456,0.016,305.637,0.016,3.769,3.769,84.906,0.011,0.004,0.354,0.000,-0.0005,0.0492,0.0000,1.0000,0.5000,1.0000,0.0000
19.194,Upwind,315.262,0.017,314.444,0.017,3.771,3.771,86.175,0.011,0.004,0.350,0.000,-0.0005,0.0488,0.0000,1.0000,0.5000,1.0000,0.0000
19.392,Upwind,324.189,0.018,323.371,0.018,3.773,3.773,87.345,0.011,0.004,0.348,0.000,-0.0005,0.0484,0.0000,1.0000,0.5000,1.0000,0.0000
19.589,Upwind,333.237,0.019,332.418,0.019,3.775,3.775,88.415,0.011,0.005,0.345,0.000,-0.0006,0.0480,0.0000,1.0000,0.5000,1.0000,0.0000
19.796,Upwind,343.173,0.020,342.355,0.020,3.778,3.778,89.676,0.011,0.005,0.342,0.000,-0.0006,0.0476,0.0000,1.0000,0.5000,1.0000,0.0000
19.990,Upwind,351.691,0.022,350.872,0.022,3.780,3.780,90.742,0.012,0.005,0.339,0.000,-0.0006,0.0472,0.0000,1.0000,0.5000,1.0000,0.0000
20.196,Upwind,361.887,0.023,361.068,0.023,3.782,3.782,91.997,0.012,0.005,0.336,0.000,-0.0007,0.0468,0.0000,1.0000,0.5000,1.0000,0.0000
20.401,Upwind,371.422,0.024,370.603,0.024,3.785,3.785,93.154,0.012,0.006,0.333,0.000,-0.0007,0.0463,0.0000,1.0000,0.5000,1.0000,0.0000
20.590,Upwind,380.267,0.026,379.448,0.026,3.787,3.787,94.308,0.012,0.006,0.330,0.000,-0.0007,0.0459,0.0000,1.0000,0.5000,1.0000,0.0000
20.799,Upwind,390.849,0.027,390.030,0.027,3.789,3.789,95.363,0.012,0.006,0.327,0.000,-0.0008,0.0455,0.0000,1.0000,0.5000,1.0000,0.0000
20.999,Upwind,400.740,0.029,399.921,0.029,3.792,3.792,96.608,0.012,0.007,0.324,0.000,-0.0008,0.0451,0.0000,1.0000,0.5000,1.0000,0.0000
21.199,Upwind,410.749,0.030,409.930,0.030,3.794,3.794,97.754,0.012,0.007,0.321,0.000,-0.0008,0.0446,0.0000,1.0000,0.5000,1.0000,0.0000
21.391,Upwind,420.028,0.032,419.209,0.032,3.797,3.797,98.897,0.012,0.007,0.318,0.000,-0.0009,0.0442,0.0000,1.0000,0.5000,1.0000,0.0000
21.597,Upwind,431.120,0.034,430.302,0.034,3.799,3.799,100.037,0.012,0.008,0.315,0.000,-0.0009,0.0438,0.0000,1.0000,0.5000,1.0000,0.0000
21.791,Upwind,440.614,0.035,439.795,0.035,3.802,3.802,101.175,0.013,0.008,0.312,0.000,-0.0009,0.0433,0.0000,1.0000,0.5000,1.0000,0.0000
21.995,Upwind,451.960,0.038,451.141,0.038,3.804,3.804,102.310,0.013,0.008,0.308,0.000,-0.0010,0.0429,0.0000,1.0000,0.5000,1.0000,0.0000
22.196,Upwind,462.555,0.040,461.737,0.040,3.807,3.807,103.442,0.013,0.009,0.305,0.000,-0.0010,0.0424,0.0000,1.0000,0.5000,1.0000,0.0000
22.388,Upwind,472.370,0.041,471.551,0.041,3.809,3.809,104.477,0.013,0.009,0.302,0.000,-0.0011,0.0420,0.0000,1.0000,0.5000,1.0000,0.0000
22.590,Upwind,483.187,0.044,482.369,0.044,3.812,3.812,105.698,0.013,0.009,0.299,0.000,-0.0011,0.0415,0.0000,1.0000,0.5000,1.0000,0.0000
22.791,Upwind,494.121,0.046,493.302,0.046,3.814,3.814,106.821,0.013,0.010,0.296,0.000,-0.0012,0.0411,0.0000,1.0000,0.5000,1.0000,0.0000
22.988,Upwind,505.170,0.048,504.351,0.048,3.817,3.817,107.849,0.013,0.010,0.293,0.000,-0.0012,0.0406,0.0000,1.0000,0.5000,1.0000,0.0000
23.199,Upwind,517.269,0.051,516.451,0.051,3.819,3.820,109.060,0.013,0.010,0.289,0.000,-0.0013,0.0401,0.0000,1.0000,0.5000,1.0000,0.0000
23.391,Upwind,527.613,0.053,526.794,0.053,3.822,3.822,110.082,0.013,0.011,0.286,0.000,-0.0013,0.0397,0.0000,1.0000,0.5000,1.0000,0.0000
23.595,Upwind,539.961,0.056,539.142,0.056,3.825,3.825,111.287,0.013,0.011,0.282,0.000,-0.0014,0.0392,0.0000,1.0000,0.5000,1.0000,0.0000
23.790,Upwind,550.514,0.059,549.696,0.059,3.827,3.827,112.304,0.013,0.012,0.279,-0.001,-0.0014,0.0388,0.0000,1.0000,0.5000,1.0000,0.0000
23.993,Upwind,562.136,0.062,561.317,0.062,3.830,3.830,113.503,0.014,0.012,0.276,-0.001,-0.0015,0.0382,0.0000,1.0000,0.5000,1.0000,0.0000
24.190,Upwind,573.872,0.065,573.053,0.065,3.833,3.833,114.606,0.014,0.013,0.272,-0.001,-0.0015,0.0378,0.0000,1.0000,0.5000,1.0000,0.0000
24.389,Upwind,585.721,0.068,584.902,0.068,3.835,3.835,115.615,0.014,0.013,0.269,-0.001,-0.0016,0.0373,0.0000,1.0000,0.5000,1.0000,0.0000
24.599,Upwind,598.685,0.072,597.866,0.072,3.838,3.838,116.805,0.014,0.013,0.265,-0.001,-0.0017,0.0368,0.0000,1.0000,0.5000,1.0000,0.0000
24.794,Upwind,609.757,0.075,608.939,0.075,3.841,3.841,117.899,0.014,0.014,0.262,-0.001,-0.0017,0.0363,0.0000,1.0000,0.5000,1.0000,0.0000
24.993,Upwind,621.945,0.078,621.126,0.078,3.844,3.844,118.991,0.014,0.014,0.258,-0.001,-0.0018,0.0358,0.0000,1.0000,0.5000,1.0000,0.0000
25.191,Upwind,634.244,0.082,633.426,0.082,3.847,3.847,120.080,0.014,0.015,0.255,-0.001,-0.0018,0.0353,0.0000,1.0000,0.5000,1.0000,0.0000
25.392,Upwind,646.656,0.086,645.837,0.086,3.849,3.849,121.165,0.014,0.015,0.251,-0.001,-0.0019,0.0349,0.0000,1.0000,0.5000,1.0000,0.0000
25.600,Upwind,660.227,0.090,659.408,0.090,3.852,3.852,122.248,0.014,0.016,0.248,-0.001,-0.0020,0.0344,0.0000,1.0000,0.5000,1.0000,0.0000
25.800,Upwind,672.870,0.094,672.052,0.094,3.855,3.855,123.328,0.014,0.016,0.244,-0.001,-0.0020,0.0339,0.0000,1.0000,0.5000,1.0000,0.0000
25.996,Upwind,685.625,0.099,684.806,0.099,3.858,3.858,124.404,0.014,0.017,0.241,-0.001,-0.0021,0.0334,0.0000,1.0000,0.5000,1.0000,0.0000
26.199,Upwind,698.489,0.103,697.671,0.103,3.861,3.861,125.478,0.014,0.017,0.237,-0.001,-0.0022,0.0329,0.0000,1.0000,0.5000,1.0000,0.0000
26.396,Upwind,711.465,0.107,710.646,0.107,3.864,3.864,126.548,0.014,0.018,0.234,-0.001,-0.0022,0.0324,0.0000,1.0000,0.5000,1.0000,0.0000
26.593,Upwind,723.455,0.112,722.637,0.112,3.866,3.866,127.527,0.014,0.018,0.230,-0.001,-0.0023,0.0319,0.0000,1.0000,0.5000,1.0000,0.0000
26.803,Upwind,737.745,0.117,736.926,0.117,3.869,3.869,128.680,0.015,0.019,0.227,-0.001,-0.0024,0.0314,0.0000,1.0000,0.5000,1.0000,0.0000
26.988,Upwind,749.936,0.122,749.117,0.122,3.872,3.872,129.653,0.015,0.019,0.223,-0.002,-0.0024,0.0309,0.0000,1.0000,0.5000,1.0000,0.0000
27.189,Upwind,763.340,0.127,762.521,0.127,3.875,3.875,130.712,0.015,0.020,0.220,-0.002,-0.0025,0.0304,0.0000,1.0000,0.5000,1.0000,0.0000
27.392,Upwind,776.853,0.132,776.034,0.132,3.878,3.878,131.767,0.015,0.020,0.216,-0.002,-0.0026,0.0299,0.0000,1.0000,0.5000,1.0000,0.0000
27.596,Upwind,791.614,0.138,790.795,0.138,3.881,3.881,132.907,0.015,0.021,0.212,-0.002,-0.0027,0.0293,0.0000,1.0000,0.5000,1.0000,0.0000
27.793,Upwind,804.203,0.143,803.385,0.143,3.884,3.884,133.956,0.015,0.021,0.208,-0.002,-0.0027,0.0288,0.0000,1.0000,0.5000,1.0000,0.0000
27.988,Upwind,818.041,0.149,817.222,0.149,3.887,3.887,134.916,0.015,0.022,0.205,-0.002,-0.0028,0.0283,0.0000,1.0000,0.5000,1.0000,0.0000
28.192,Upwind,831.985,0.155,831.166,0.155,3.890,3.890,136.047,0.015,0.023,0.201,-0.002,-0.0029,0.0278,0.0000,1.0000,0.5000,1.0000,0.0000
28.397,Upwind,847.213,0.162,846.395,0.162,3.893,3.893,137.089,0.015,0.023,0.197,-0.002,-0.0030,0.0273,0.0000,1.0000,0.5000,1.0000,0.0000
28.592,Upwind,860.197,0.168,859.378,0.168,3.896,3.896,138.128,0.015,0.024,0.194,-0.002,-0.0031,0.0267,0.0000,1.0000,0.5000,1.0000,0.0000
28.791,Upwind,874.462,0.175,873.643,0.175,3.899,3.899,139.164,0.015,0.024,0.190,-0.002,-0.0032,0.0262,0.0000,1.0000,0.5000,1.0000,0.0000
28.990,Upwind,888.835,0.181,888.016,0.181,3.902,3.902,140.111,0.015,0.025,0.186,-0.002,-0.0032,0.0257,0.0000,1.0000,0.5000,1.0000,0.0000
29.193,Upwind,903.313,0.188,902.494,0.188,3.905,3.905,141.142,0.015,0.025,0.183,-0.003,-0.0033,0.0252,0.0000,1.0000,0.5000,1.0000,0.0000
29.395,Upwind,919.118,0.196,918.299,0.196,3.908,3.908,142.171,0.015,0.026,0.179,-0.003,-0.0034,0.0247,0.0000,1.0000,0.5000,1.0000,0.0000
29.600,Upwind,933.816,0.204,932.998,0.204,3.911,3.911,143.282,0.015,0.027,0.175,-0.003,-0.0035,0.0241,0.0000,1.0000,0.5000,1.0000,0.0000
29.788,Upwind,947.383,0.211,946.564,0.210,3.914,3.914,144.219,0.015,0.027,0.171,-0.003,-0.0036,0.0236,0.0000,1.0000,0.5000,1.0000,0.0000
29.992,Upwind,962.283,0.218,961.465,0.218,3.917,3.917,145.324,0.016,0.028,0.167,-0.003,-0.0037,0.0231,0.0000,1.0000,0.5000,1.0000,0.0000
30.190,Upwind,977.289,0.226,976.470,0.226,3.920,3.920,146.342,0.016,0.028,0.164,-0.003,-0.0038,0.0225,0.0000,1.0000,0.5000,1.0000,0.0000
30.394,Upwind,992.399,0.235,991.580,0.235,3.923,3.923,147.356,0.016,0.029,0.160,-0.003,-0.0039,0.0220,0.0000,1.0000,0.5000,1.0000,0.0000
30.603,Upwind,1008.886,0.244,1008.067,0.244,3.926,3.926,148.368,0.016,0.030,0.156,-0.003,-0.0040,0.0214,0.0000,1.0000,0.5000,1.0000,0.0000
30.787,Upwind,1022.931,0.252,1022.112,0.252,3.929,3.929,149.293,0.016,0.030,0.152,-0.004,-0.0041,0.0210,0.0000,1.0000,0.5000,1.0000,0.0000
30.999,Upwind,1039.643,0.261,1038.824,0.261,3.933,3.933,150.383,0.015,0.031,0.148,-0.004,-0.0042,-0.0153,0.0000,1.0000,0.5000,1.0000,0.0000
31.188,Upwind,1053.878,0.270,1053.059,0.270,3.935,3.935,151.302,0.005,0.031,0.152,-0.004,-0.0043,-0.1004,0.0000,1.0000,0.5000,1.0000,0.0000
31.393,Upwind,1069.506,0.279,1068.687,0.279,3.934,3.934,152.380,-0.007,0.032,0.170,-0.004,-0.0044,-0.1927,0.0000,1.0000,0.5000,1.0000,0.0000
31.597,Upwind,1086.551,0.289,1085.732,0.289,3.933,3.933,153.366,-0.006,0.033,0.189,-0.004,-0.0045,-0.2848,0.0000,1.0000,0.5000,1.0000,0.0000
31.802,Upwind,1102.390,0.299,1101.571,0.299,3.932,3.932,154.344,-0.002,0.033,0.206,-0.004,-0.0046,-0.3769,0.0000,1.0000,0.5000,1.0000,0.0000
31.989,Upwind,1116.997,0.308,1116.178,0.308,3.932,3.932,155.233,0.004,0.034,0.221,-0.005,-0.0047,-0.4609,0.0000,1.0000,0.5000,1.0000,0.0000
32.188,Upwind,1133.028,0.319,1132.209,0.319,3.935,3.935,156.194,0.030,0.035,0.269,-0.005,-0.0048,-0.5505,0.0000,1.0000,0.5000,1.0000,0.0000
32.402,Upwind,1150.505,0.330,1149.686,0.330,3.945,3.945,157.224,0.072,0.035,0.410,-0.005,-0.0049,-0.6467,0.0000,1.0000,0.5000,1.0000,0.0000
32.588,Upwind,1165.382,0.340,1164.563,0.340,3.963,3.963,158.088,0.127,0.036,0.639,-0.005,-0.0050,-0.6500,0.0000,1.0000,0.5000,1.0000,0.0000
32.799,Upwind,1183.069,0.352,1182.251,0.352,3.999,3.999,159.101,0.197,0.037,1.047,-0.005,-0.0052,-0.6500,0.0000,1.0000,0.5000,1.0000,0.0000
32.991,Upwind,1198.123,0.362,1197.304,0.362,4.044,4.044,160.028,0.250,0.038,1.544,-0.005,-0.0053,-0.6500,0.0000,1.0000,0.5000,1.0000,0.0000
33.196,Upwind,1216.017,0.375,1215.198,0.375,4.098,4.098,160.946,0.297,0.039,2.148,-0.006,-0.0054,-0.6500,0.0000,1.0000,0.5000,1.0000,0.0000
33.394,Upwind,1232.631,0.386,1231.813,0.386,4.162,4.162,161.852,0.339,0.039,2.848,-0.006,-0.0055,-0.6500,0.0000,1.0000,0.5000,1.0000,0.0000
33.592,Upwind,1247.943,0.398,1247.124,0.397,4.227,4.227,162.671,0.373,0.040,3.567,-0.006,-0.0056,-0.6500,0.0000,1.0000,0.5000,1.0000,0.0000
33.788,Upwind,1264.734,0.410,1263.915,0.410,4.320,4.320,163.546,0.639,0.041,4.420,-0.009,-0.0053,-0.6500,0.0000,1.0000,0.5000,1.0000,0.0000
33.994,Upwind,1283.023,0.424,1282.205,0.424,4.542,4.542,164.461,1.508,0.041,5.386,-0.018,-0.0048,-0.6500,0.0000,1.0000,0.5000,1.0000,0.0000
34.194,Upwind,1298.576,0.435,1297.758,0.435,4.965,4.965,165.266,2.796,0.042,6.280,-0.030,-0.0042,-0.6500,0.0000,1.0000,0.5000,1.0000,0.0000
34.392,Upwind,1315.620,0.448,1314.801,0.448,5.686,5.686,166.029,4.477,0.042,7.149,-0.044,-0.0037,-0.6500,0.0000,1.0000,0.5000,1.0000,0.0000
34.589,Upwind,1332.738,0.461,1331.919,0.461,6.670,6.670,166.688,6.296,0.042,7.909,-0.059,-0.0031,-0.6500,0.0000,1.0000,0.5000,1.0000,0.0000
34.804,Upwind,1351.360,0.475,1350.541,0.475,8.290,8.290,167.414,8.690,0.041,8.751,-0.075,-0.0025,-0.6500,0.0000,1.0000,0.5000,1.0000,0.0000
34.987,Upwind,1367.174,0.486,1366.355,0.486,10.080,10.080,167.980,10.849,0.040,9.411,-0.088,-0.0020,-0.6500,0.0000,1.0000,0.5000,1.0000,0.0000
35.195,Upwind,1385.923,0.499,1385.104,0.499,12.718,12.718,168.594,13.524,0.038,10.133,-0.102,-0.0014,-0.6500,0.0000,1.0000,0.5000,1.0000,0.0000
35.391,Upwind,1401.832,0.510,1401.013,0.510,15.410,15.410,169.067,15.852,0.036,10.697,-0.112,-0.0010,-0.6500,0.0000,1.0000,0.5000,1.0000,0.0000
35.594,Upwind,1419.228,0.520,1418.409,0.520,19.146,19.146,169.573,18.636,0.033,11.315,-0.122,-0.0005,-0.6233,0.0000,1.0000,0.5000,1.0000,0.0000
35.796,Upwind,1438.114,0.531,1437.295,0.531,23.130,23.131,169.994,21.202,0.029,11.833,-0.128,0.0000,-0.5929,0.0001,1.0000,0.5000,1.0000,0.0000
35.994,Upwind,1455.580,0.540,1454.761,0.540,27.624,27.624,170.372,23.730,0.025,12.293,-0.133,0.0004,-0.5632,0.0001,1.0000,0.5000,1.0000,0.0000
36.187,Upwind,1471.612,0.548,1470.793,0.548,32.183,32.184,170.686,25.994,0.021,12.659,-0.135,0.0007,-0.5343,0.0001,1.0000,0.5000,1.0000,0.0000
36.390,Upwind,1489.122,0.556,1488.304,0.556,37.623,37.623,170.995,28.384,0.016,12.995,-0.135,0.0010,-0.5039,0.0001,1.0000,0.5000,1.0000,0.0000
36.589,Upwind,1506.650,0.562,1505.831,0.562,44.044,44.044,171.296,30.868,0.011,13.283,-0.133,0.0013,-0.4740,0.0001,1.0000,0.5000,1.0000,0.0000
36.799,Upwind,1525.654,0.569,1524.835,0.569,50.437,50.437,171.546,33.042,0.006,13.480,-0.130,0.0016,-0.4426,0.0001,1.0000,0.5000,1.0000,0.0000
36.988,Upwind,1541.745,0.573,1540.927,0.573,56.668,56.669,171.755,34.917,0.003,13.606,-0.126,0.0017,-0.4142,0.0001,1.0000,0.5000,1.0000,0.0000
37.200,Upwind,1560.773,0.577,1559.954,0.577,64.459,64.459,171.982,36.967,359.998,13.688,-0.121,0.0018,-0.3824,0.0001,1.0000,0.5000,1.0000,0.0000
37.396,Upwind,1578.346,0.581,1577.527,0.581,72.028,72.028,172.177,38.696,359.995,13.705,-0.115,0.0019,-0.3530,0.0001,1.0000,0.5000,1.0000,0.0000
37.588,Upwind,1594.462,0.583,1593.643,0.583,79.256,79.256,172.348,40.131,359.993,13.674,-0.108,0.0018,-0.3242,0.0001,1.0000,0.5000,1.0000,0.0000
37.789,Upwind,1612.051,0.585,1611.232,0.585,87.424,87.425,172.529,41.525,359.990,13.591,-0.102,0.0018,-0.2940,0.0000,1.0000,0.5000,1.0000,0.0000
38.004,Upwind,1631.117,0.586,1630.298,0.586,96.567,96.568,172.721,42.833,359.989,13.449,-0.094,0.0016,-0.2618,0.0000,1.0000,0.5000,1.0000,0.0000
38.200,Upwind,1648.727,0.587,1647.908,0.587,105.238,105.238,172.898,43.844,359.988,13.272,-0.087,0.0014,-0.2324,0.0000,0.9997,0.5000,1.0000,0.0000
38.389,Upwind,1664.880,0.587,1664.061,0.587,113.348,113.349,173.059,44.610,359.988,13.073,-0.081,0.0013,-0.2269,0.0000,0.9974,0.5000,1.0000,0.0000
38.593,Upwind,1682.515,0.587,1681.697,0.587,123.092,123.093,173.244,45.291,359.988,12.808,-0.074,0.0010,-0.2856,0.0000,0.9948,0.5000,1.0000,0.0000
38.797,Upwind,1701.637,0.586,1700.818,0.586,132.195,132.196,173.410,45.711,359.989,12.584,-0.068,0.0008,-0.3297,0.0000,0.9924,0.5000,1.0000,0.0000
38.989,Upwind,1717.832,0.585,1717.013,0.585,140.600,140.601,173.557,45.962,359.989,12.434,-0.064,0.0005,-0.3560,0.0000,0.9904,0.5000,1.0000,0.0000
39.189,Upwind,1735.514,0.584,1734.695,0.584,149.813,149.813,173.713,46.149,359.990,12.348,-0.059,0.0003,-0.3668,0.0000,0.9882,0.5000,1.0000,0.0000
39.387,Upwind,1753.214,0.583,1752.395,0.583,159.058,159.059,173.863,46.304,359.991,12.345,-0.055,0.0002,-0.3601,0.0000,0.9861,0.5000,1.0000,0.0000
39.591,Upwind,1770.930,0.581,1770.111,0.581,168.336,168.336,174.006,46.479,359.991,12.411,-0.052,0.0000,-0.3403,0.0000,0.9841,0.5000,1.0000,0.0000
39.792,Upwind,1788.660,0.579,1787.842,0.579,178.431,178.432,174.150,46.727,359.992,12.532,-0.050,-0.0001,-0.3118,0.0000,0.9820,0.5000,1.0000,0.0000
40.002,Upwind,1807.883,0.578,1807.064,0.577,187.806,187.806,174.274,47.024,359.992,12.660,-0.048,-0.0002,-0.2832,0.0000,0.9803,0.5000,1.0000,0.0000
40.190,Upwind,1824.160,0.576,1823.341,0.576,196.456,196.457,174.379,47.349,359.993,12.770,-0.046,-0.0002,-0.2602,0.0000,0.9788,0.5000,1.0000,0.0000
40.397,Upwind,1843.406,0.574,1842.588,0.574,206.760,206.761,174.493,47.775,359.993,12.872,-0.045,-0.0003,-0.2415,0.0000,0.9772,0.5000,1.0000,0.0000
40.598,Upwind,1861.182,0.572,1860.363,0.572,216.356,216.357,174.590,48.184,359.993,12.927,-0.045,-0.0003,-0.2329,0.0000,0.9759,0.5000,1.0000,0.0000
40.798,Upwind,1878.965,0.569,1878.146,0.569,226.033,226.034,174.679,48.580,359.993,12.946,-0.044,-0.0002,-0.2321,0.0000,0.9746,0.5000,1.0000,0.0000
40.999,Upwind,1896.756,0.567,1895.938,0.567,235.785,235.787,174.761,48.942,359.993,12.934,-0.044,-0.0002,-0.2370,0.0000,0.9735,0.5000,1.0000,0.0000
41.196,Upwind,1914.555,0.565,1913.736,0.565,245.606,245.608,174.839,49.259,359.992,12.902,-0.044,-0.0002,-0.2453,0.0000,0.9724,0.5000,1.0000,0.0000
41.399,Upwind,1932.361,0.562,1931.542,0.562,255.486,255.487,174.912,49.526,359.992,12.862,-0.044,-0.0001,-0.2542,0.0000,0.9714,0.5000,1.0000,0.0000
41.597,Upwind,1950.175,0.560,1949.356,0.560,265.414,265.415,174.981,49.746,359.991,12.825,-0.044,-0.0001,-0.2617,0.0000,0.9704,0.5000,1.0000,0.0000
41.799,Upwind,1967.996,0.558,1967.177,0.557,275.382,275.383,175.047,49.929,359.991,12.798,-0.044,0.0000,-0.2663,0.0000,0.9695,0.5000,1.0000,0.0000
41.990,Upwind,1984.339,0.555,1983.520,0.555,284.549,284.550,175.104,50.074,359.990,12.786,-0.044,0.0001,-0.2675,0.0000,0.9687,0.5000,1.0000,0.0000
42.188,Upwind,2002.175,0.552,2001.356,0.552,294.578,294.579,175.163,50.219,359.990,12.788,-0.044,0.0001,-0.2657,0.0000,0.9678,0.5000,1.0000,0.0000
42.389,Upwind,2020.017,0.550,2019.198,0.550,304.636,304.637,175.219,50.360,359.989,12.803,-0.043,0.0002,-0.2614,0.0000,0.9671,0.5000,1.0000,0.0000
42.600,Upwind,2039.355,0.547,2038.536,0.547,315.564,315.565,175.275,50.516,359.989,12.829,-0.043,0.0002,-0.2552,0.0000,0.9663,0.5000,1.0000,0.0000
42.793,Upwind,2055.723,0.544,2054.905,0.544,325.682,325.684,175.324,50.667,359.988,12.856,-0.042,0.0002,-0.2491,0.0000,0.9656,0.5000,1.0000,0.0000
42.996,Upwind,2075.073,0.541,2074.255,0.541,335.831,335.833,175.368,50.824,359.988,12.882,-0.042,0.0003,-0.2438,0.0000,0.9650,0.5000,1.0000,0.0000
43.190,Upwind,2091.452,0.538,2090.634,0.538,345.162,345.164,175.406,50.970,359.988,12.901,-0.041,0.0003,-0.2402,0.0000,0.9644,0.5000,1.0000,0.0000
43.391,Upwind,2109.325,0.535,2108.507,0.535,356.224,356.226,175.447,51.141,359.987,12.916,-0.040,0.0003,-0.2375,0.0000,0.9638,0.5000,1.0000,0.0000
43.590,Upwind,2127.203,0.532,2126.384,0.532,365.613,365.615,175.480,51.279,359.987,12.923,-0.039,0.0002,-0.2367,0.0000,0.9634,0.5000,1.0000,0.0000
43.788,Upwind,2145.085,0.529,2144.266,0.529,375.883,375.885,175.512,51.421,359.987,12.924,-0.038,0.0002,-0.2369,0.0000,0.9629,0.5000,1.0000,0.0000
43.987,Upwind,2162.972,0.525,2162.153,0.525,386.180,386.182,175.543,51.550,359.987,12.921,-0.037,0.0002,-0.2378,0.0000,0.9625,0.5000,1.0000,0.0000
44.194,Upwind,2182.354,0.522,2181.535,0.522,397.363,397.365,175.573,51.676,359.987,12.916,-0.036,0.0002,-0.2390,0.0000,0.9621,0.5000,1.0000,0.0000
44.394,Upwind,2198.759,0.519,2197.940,0.519,407.709,407.711,175.599,51.778,359.987,12.911,-0.035,0.0002,-0.2400,0.0000,0.9617,0.5000,1.0000,0.0000
44.598,Upwind,2218.151,0.515,2217.332,0.515,418.074,418.076,175.624,51.870,359.987,12.908,-0.034,0.0002,-0.2404,0.0000,0.9614,0.5000,1.0000,0.0000
44.799,Upwind,2236.055,0.511,2235.237,0.511,428.456,428.458,175.646,51.954,359.987,12.907,-0.033,0.0001,-0.2403,0.0000,0.9610,0.5000,1.0000,0.0000
44.994,Upwind,2252.472,0.508,2251.653,0.508,437.988,437.990,175.666,52.026,359.987,12.909,-0.032,0.0001,-0.2396,0.0000,0.9608,0.5000,1.0000,0.0000
45.188,Upwind,2270.385,0.505,2269.566,0.505,448.401,448.403,175.685,52.101,359.987,12.914,-0.032,0.0001,-0.2385,0.0000,0.9605,0.5000,1.0000,0.0000
45.390,Upwind,2288.301,0.501,2287.482,0.501,458.828,458.831,175.703,52.174,359.987,12.919,-0.031,0.0001,-0.2371,0.0000,0.9602,0.5000,1.0000,0.0000
45.598,Upwind,2307.715,0.498,2306.896,0.498,470.141,470.143,175.721,52.251,359.987,12.926,-0.030,0.0001,-0.2356,0.0000,0.9600,0.5000,1.0000,0.0000
45.788,Upwind,2324.146,0.495,2323.327,0.495,479.726,479.729,175.735,52.315,359.987,12.932,-0.030,0.0001,-0.2344,0.0000,0.9598,0.5000,1.0000,0.0000
45.991,Upwind,2342.073,0.491,2341.254,0.491,490.196,490.198,175.748,52.383,359.988,12.937,-0.029,0.0000,-0.2333,0.0000,0.9596,0.5000,1.0000,0.0000
46.190,Upwind,2360.004,0.488,2359.185,0.488,501.553,501.556,175.762,52.454,359.988,12.942,-0.029,0.0000,-0.2325,0.0000,0.9594,0.5000,1.0000,0.0000
46.393,Upwind,2377.938,0.484,2377.120,0.484,512.050,512.053,175.773,52.516,359.988,12.944,-0.028,0.0000,-0.2321,0.0000,0.9593,0.5000,1.0000,0.0000
46.598,Upwind,2397.371,0.481,2396.552,0.481,522.560,522.562,175.783,52.575,359.988,12.946,-0.028,0.0000,-0.2319,0.0000,0.9591,0.5000,1.0000,0.0000
46.798,Upwind,2415.312,0.477,2414.493,0.477,533.080,533.083,175.792,52.629,359.988,12.946,-0.028,0.0000,-0.2319,0.0000,0.9590,0.5000,1.0000,0.0000
46.995,Upwind,2433.256,0.474,2432.438,0.474,543.611,543.613,175.800,52.679,359.988,12.946,-0.028,0.0000,-0.2319,0.0000,0.9589,0.5000,1.0000,0.0000
47.195,Upwind,2451.203,0.471,2450.385,0.471,554.151,554.154,175.807,52.726,359.988,12.946,-0.028,0.0000,-0.2319,0.0000,0.9588,0.5000,1.0000,0.0000
47.394,Upwind,2467.658,0.468,2466.839,0.468,564.701,564.703,175.813,52.768,359.988,12.946,-0.027,0.0000,-0.2318,0.0000,0.9587,0.5000,1.0000,0.0000
47.588,Upwind,2485.611,0.465,2484.792,0.465,574.378,574.381,175.818,52.805,359.988,12.947,-0.027,0.0001,-0.2316,0.0000,0.9586,0.5000,1.0000,0.0000
47.791,Upwind,2503.566,0.461,2502.748,0.461,585.824,585.827,175.823,52.846,359.988,12.948,-0.027,0.0000,-0.2313,0.0000,0.9585,0.5000,1.0000,0.0000
47.989,Upwind,2521.526,0.458,2520.707,0.458,595.515,595.518,175.827,52.878,359.988,12.949,-0.027,0.0001,-0.2310,0.0000,0.9585,0.5000,1.0000,0.0000
# disengaged
