time_s,leg,north_m,east_m,along_m,cross_m,agl_ft,altitude_ft,speed_kts,vertical_speed_fps,heading_deg,pitch_deg,roll_deg,aileron_cmd,elevator_cmd,rudder_cmd,throttle_cmd,flaps_cmd,gear_cmd,brake_cmd
1.968,Upwind,0.731,0.000,0.731,0.000,3.691,3.691,2.641,0.000,0.000,0.450,0.000,0.0000,0.0450,0.0000,0.0147,0.5000,1.0000,0.0000
2.151,Upwind,0.990,0.000,0.990,0.000,3.691,3.691,2.809,0.000,0.000,0.450,0.000,0.0000,0.0449,0.0000,0.1061,0.5000,1.0000,0.0000
2.355,Upwind,1.285,0.000,1.285,0.000,3.691,3.691,2.894,0.000,0.000,0.449,0.000,0.0000,0.0449,0.0000,0.2081,0.5000,1.0000,0.0000
2.548,Upwind,1.586,0.000,1.586,0.000,3.691,3.691,2.945,0.000,0.000,0.449,0.000,0.0000,0.0449,0.0000,0.3048,0.5000,1.0000,0.0000
2.743,Upwind,1.892,0.000,1.892,0.000,3.691,3.691,3.009,0.000,0.000,0.449,0.000,0.0000,0.0449,0.0000,0.4020,0.5000,1.0000,0.0000
2.954,Upwind,2.207,0.000,2.207,0.000,3.691,3.691,3.094,0.000,0.000,0.449,0.000,0.0000,0.0449,0.0000,0.5076,0.5000,1.0000,0.0000
3.151,Upwind,2.532,0.000,2.532,0.000,3.691,3.691,3.202,0.000,0.000,0.449,0.000,0.0000,0.0449,0.0000,0.6062,0.5000,1.0000,0.0000
3.346,Upwind,2.869,0.000,2.869,0.000,3.691,3.691,3.336,0.000,0.000,0.449,0.000,0.0000,0.0450,0.0000,0.7039,0.5000,1.0000,0.0000
3.542,Upwind,3.192,0.000,3.192,0.000,3.691,3.691,3.488,0.000,0.000,0.450,0.000,0.0000,0.0450,0.0000,0.8015,0.5000,1.0000,0.0000
3.741,Upwind,3.562,0.000,3.562,0.000,3.691,3.691,3.688,0.000,0.000,0.450,0.000,0.0000,0.0450,0.0000,0.9012,0.5000,1.0000,0.0000
3.941,Upwind,3.956,0.000,3.956,0.000,3.691,3.691,3.954,0.000,0.000,0.450,0.000,0.0000,0.0450,0.0000,1.0000,0.5000,1.0000,0.0000
4.149,Upwind,4.414,0.000,4.414,0.000,3.691,3.691,4.250,0.000,0.000,0.450,0.000,0.0000,0.0451,0.0000,1.0000,0.5000,1.0000,0.0000
4.352,Upwind,4.872,0.000,4.872,0.000,3.691,3.691,4.604,0.000,0.000,0.451,0.000,0.0000,0.0451,0.0000,1.0000,0.5000,1.0000,0.0000
4.549,Upwind,5.371,0.000,5.371,0.000,3.691,3.691,5.023,0.000,0.000,0.451,0.000,0.0000,0.0451,0.0000,1.0000,0.5000,1.0000,0.0000
4.747,Upwind,5.916,0.000,5.916,0.000,3.691,3.691,5.515,0.000,0.000,0.451,0.000,0.0000,0.0452,0.0000,1.0000,0.5000,1.0000,0.0000
4.943,Upwind,6.518,0.000,6.518,0.000,3.691,3.691,6.089,0.000,0.000,0.452,0.000,0.0000,0.0452,0.0000,1.0000,0.5000,1.0000,0.0000
5.155,Upwind,7.183,0.000,7.183,0.000,3.691,3.691,6.752,0.000,0.000,0.452,0.000,0.0000,0.0452,0.0000,1.0000,0.5000,1.0000,0.0000
5.348,Upwind,7.922,0.000,7.922,0.000,3.691,3.691,7.511,0.000,0.000,0.452,0.000,0.0000,0.0453,0.0000,1.0000,0.5000,1.0000,0.0000
5.539,Upwind,8.674,0.000,8.674,0.000,3.691,3.691,8.299,0.000,0.000,0.453,0.000,0.0000,0.0453,0.0000,1.0000,0.5000,1.0000,0.0000
5.746,Upwind,9.666,0.000,9.666,0.000,3.691,3.691,9.350,0.000,0.000,0.453,0.000,0.0000,0.0454,0.0000,1.0000,0.5000,1.0000,0.0000
5.943,Upwind,10.692,0.000,10.692,0.000,3.691,3.691,10.347,0.001,0.000,0.454,0.000,0.0000,0.0454,0.0000,1.0000,0.5000,1.0000,0.0000
6.152,Upwind,11.839,0.000,11.839,0.000,3.691,3.691,11.659,0.001,0.000,0.454,0.000,0.0000,0.0455,0.0000,1.0000,0.5000,1.0000,0.0000
6.339,Upwind,13.004,0.000,13.004,0.000,3.692,3.692,12.836,0.001,0.000,0.455,0.000,0.0000,0.0454,0.0000,1.0000,0.5000,1.0000,0.0000
6.551,Upwind,14.524,0.000,14.524,0.000,3.692,3.692,14.225,0.001,0.000,0.454,0.000,0.0000,0.0454,0.0000,1.0000,0.5000,1.0000,0.0000
6.743,Upwind,16.065,0.000,16.065,0.000,3.692,3.692,15.400,0.001,0.000,0.454,0.000,0.0000,0.0454,0.0000,1.0000,0.5000,1.0000,0.0000
6.953,Upwind,17.737,0.000,17.737,0.000,3.692,3.692,16.787,0.001,0.000,0.454,0.000,0.0000,0.0453,0.0000,1.0000,0.5000,1.0000,0.0000
7.146,Upwind,19.541,0.000,19.541,0.000,3.692,3.692,17.960,0.001,0.000,0.453,0.000,0.0000,0.0453,0.0000,1.0000,0.5000,1.0000,0.0000
7.352,Upwind,21.477,0.000,21.477,0.000,3.693,3.693,19.344,0.002,0.000,0.453,0.000,0.0000,0.0452,0.0000,1.0000,0.5000,1.0000,0.0000
7.540,Upwind,23.366,0.000,23.366,0.000,3.693,3.693,20.515,0.002,0.000,0.452,0.000,0.0000,0.0452,0.0000,1.0000,0.5000,1.0000,0.0000
7.744,Upwind,25.742,0.000,25.742,0.000,3.693,3.693,21.897,0.002,0.000,0.452,0.000,0.0000,0.0451,0.0000,1.0000,0.5000,1.0000,0.0000
8.073,Upwind,29.491,0.000,29.491,0.000,3.694,3.694,23.065,0.002,0.000,0.452,0.000,0.0000,0.0451,0.0000,1.0000,0.5000,1.0000,0.0000
8.147,Upwind,30.532,0.000,30.532,0.000,3.694,3.694,24.339,0.002,0.000,0.451,0.000,0.0000,0.0450,0.0000,1.0000,0.5000,1.0000,0.0000
8.340,Upwind,32.903,0.000,32.903,0.000,3.695,3.695,25.611,0.002,0.000,0.450,0.000,0.0000,0.0450,0.0000,1.0000,0.5000,1.0000,0.0000
8.558,Upwind,35.846,0.000,35.846,0.000,3.695,3.695,26.988,0.002,0.000,0.450,0.000,0.0000,0.0449,0.0000,1.0000,0.5000,1.0000,0.0000
8.746,Upwind,38.699,0.000,38.699,0.000,3.695,3.696,28.258,0.003,0.000,0.449,0.000,0.0000,0.0448,0.0000,1.0000,0.5000,1.0000,0.0000
8.940,Upwind,41.429,0.000,41.429,0.000,3.696,3.696,29.420,0.003,0.000,0.448,0.000,0.0000,0.0448,0.0000,1.0000,0.5000,1.0000,0.0000
9.145,Upwind,44.797,0.000,44.797,0.000,3.697,3.697,30.793,0.003,0.000,0.448,0.000,0.0000,0.0447,0.0000,1.0000,0.5000,1.0000,0.0000
9.340,Upwind,47.766,0.000,47.766,0.000,3.697,3.697,31.953,0.003,0.000,0.447,0.000,0.0000,0.0446,0.0000,1.0000,0.5000,1.0000,0.0000
9.548,Upwind,51.416,0.001,51.416,0.001,3.698,3.698,33.323,0.003,0.000,0.446,0.000,0.0000,0.0445,0.0000,1.0000,0.5000,1.0000,0.0000
9.761,Upwind,55.218,0.001,55.218,0.001,3.698,3.698,34.586,0.003,0.000,0.445,0.000,0.0000,0.0444,0.0000,1.0000,0.5000,1.0000,0.0000
9.954,Upwind,58.555,0.001,58.555,0.001,3.699,3.699,35.848,0.004,0.000,0.444,0.000,0.0000,0.0443,0.0000,1.0000,0.5000,1.0000,0.0000
10.155,Upwind,62.319,0.001,62.319,0.001,3.700,3.700,37.108,0.004,0.000,0.443,0.000,0.0000,0.0442,0.0000,1.0000,0.5000,1.0000,0.0000
10.340,Upwind,65.883,0.001,65.883,0.001,3.701,3.701,38.262,0.004,0.000,0.442,0.000,0.0000,0.0441,0.0000,1.0000,0.5000,1.0000,0.0000
10.551,Upwind,70.236,0.001,70.236,0.001,3.702,3.702,39.623,0.004,0.000,0.441,0.000,0.0000,0.0440,0.0000,1.0000,0.5000,1.0000,0.0000
10.756,Upwind,74.388,0.001,74.388,0.001,3.702,3.702,40.879,0.004,0.000,0.440,0.000,0.0000,0.0439,0.0000,1.0000,0.5000,1.0000,0.0000
10.950,Upwind,78.670,0.001,78.670,0.001,3.703,3.703,42.133,0.005,0.000,0.439,0.000,0.0000,0.0438,0.0000,1.0000,0.5000,1.0000,0.0000
11.146,Upwind,83.080,0.001,83.080,0.001,3.704,3.704,43.281,0.005,0.000,0.438,0.000,0.0000,0.0436,0.0000,1.0000,0.5000,1.0000,0.0000
11.362,Upwind,88.003,0.001,88.003,0.001,3.705,3.705,44.636,0.005,0.000,0.436,0.000,0.0000,0.0435,0.0000,1.0000,0.5000,1.0000,0.0000
11.554,Upwind,92.287,0.002,92.287,0.002,3.706,3.706,45.885,0.006,0.000,0.435,0.000,0.0000,0.0433,0.0000,1.0000,0.5000,1.0000,0.0000
11.746,Upwind,97.083,0.002,97.083,0.002,3.707,3.708,47.132,0.006,0.000,0.433,0.000,0.0000,0.0432,0.0000,1.0000,0.5000,1.0000,0.0000
11.956,Upwind,102.008,0.002,102.008,0.002,3.709,3.709,48.378,0.006,0.000,0.432,0.000,0.0000,0.0430,0.0000,1.0000,0.5000,1.0000,0.0000
12.148,Upwind,107.060,0.002,107.060,0.002,3.710,3.710,49.622,0.006,0.000,0.430,0.000,0.0000,0.0429,0.0000,1.0000,0.5000,1.0000,0.0000
12.351,Upwind,112.240,0.002,112.240,0.002,3.711,3.711,50.863,0.007,0.001,0.429,0.000,0.0000,0.0427,0.0000,1.0000,0.5000,1.0000,0.0000
12.542,Upwind,117.101,0.002,117.101,0.002,3.712,3.712,52.000,0.007,0.001,0.427,0.000,0.0000,0.0425,0.0000,1.0000,0.5000,1.0000,0.0000
12.752,Upwind,122.984,0.003,122.984,0.003,3.714,3.714,53.341,0.007,0.001,0.425,0.000,0.0000,0.0423,0.0000,1.0000,0.5000,1.0000,0.0000
12.941,Upwind,128.078,0.003,128.078,0.003,3.715,3.715,54.475,0.008,0.001,0.423,0.000,0.0000,0.0421,0.0000,1.0000,0.5000,1.0000,0.0000
13.170,Upwind,134.716,0.003,134.716,0.003,3.717,3.717,55.812,0.008,0.001,0.421,0.000,0.0000,0.0419,0.0000,1.0000,0.5000,1.0000,0.0000
13.346,Upwind,140.053,0.003,140.053,0.003,3.719,3.719,57.044,0.008,0.001,0.419,0.000,0.0000,0.0417,0.0000,1.0000,0.5000,1.0000,0.0000
13.549,Upwind,145.996,0.004,145.996,0.004,3.720,3.720,58.274,0.008,0.001,0.417,0.000,0.0000,0.0415,0.0000,1.0000,0.5000,1.0000,0.0000
13.749,Upwind,152.066,0.004,152.066,0.004,3.722,3.722,59.501,0.009,0.001,0.415,0.000,0.0000,0.0413,0.0000,1.0000,0.5000,1.0000,0.0000
13.953,Upwind,158.261,0.004,158.261,0.004,3.724,3.724,60.727,0.009,0.001,0.413,0.000,0.0000,0.0410,0.0000,1.0000,0.5000,1.0000,0.0000
14.140,Upwind,164.052,0.004,164.052,0.004,3.725,3.725,61.849,0.010,0.001,0.410,0.000,-0.0001,0.0408,0.0000,1.0000,0.5000,1.0000,0.0000
14.342,Upwind,170.489,0.005,170.489,0.005,3.727,3.727,63.070,0.011,0.001,0.408,0.000,-0.0001,0.0405,0.0000,1.0000,0.5000,1.0000,0.0000
14.554,Upwind,177.604,0.005,177.604,0.005,3.730,3.730,64.390,0.011,0.001,0.405,0.000,-0.0001,0.0402,0.0000,1.0000,0.5000,1.0000,0.0000
14.741,Upwind,183.739,0.006,183.739,0.006,3.732,3.732,65.505,0.012,0.001,0.402,0.000,-0.0001,0.0399,0.0000,1.0000,0.5000,1.0000,0.0000
14.941,Upwind,190.552,0.006,190.552,0.006,3.734,3.734,66.718,0.012,0.002,0.399,0.000,-0.0001,0.0396,0.0000,1.0000,0.5000,1.0000,0.0000
15.146,Upwind,198.073,0.006,198.073,0.006,3.737,3.737,67.929,0.012,0.002,0.396,0.000,-0.0001,0.0393,0.0000,1.0000,0.5000,1.0000,0.0000
15.349,Upwind,205.146,0.007,205.146,0.007,3.739,3.739,69.238,0.013,0.002,0.393,0.000,-0.0001,0.0389,0.0000,1.0000,0.5000,1.0000,0.0000
15.539,Upwind,211.738,0.007,211.738,0.007,3.741,3.741,70.042,0.013,0.002,0.390,0.000,-0.0001,0.0387,0.0000,1.0000,0.5000,1.0000,0.0000
15.747,Upwind,219.663,0.008,219.663,0.008,3.745,3.745,71.646,0.014,0.002,0.386,0.000,-0.0001,0.0382,0.0000,1.0000,0.5000,1.0000,0.0000
15.939,Upwind,226.482,0.008,226.482,0.008,3.747,3.747,72.745,0.014,0.002,0.383,0.000,-0.0001,0.0379,0.0000,1.0000,0.5000,1.0000,0.0000
16.140,Upwind,234.038,0.009,234.038,0.009,3.750,3.750,74.042,0.012,0.002,0.379,0.000,-0.0001,0.0375,0.0000,1.0000,0.5000,1.0000,0.0000
16.347,Upwind,242.364,0.010,242.364,0.010,3.752,3.752,75.236,0.010,0.003,0.376,0.000,-0.0001,0.0373,0.0000,1.0000,0.5000,1.0000,0.0000
16.542,Upwind,249.521,0.010,249.521,0.010,3.754,3.754,76.428,0.010,0.003,0.373,0.000,-0.0001,0.0371,0.0000,1.0000,0.5000,1.0000,0.0000
16.741,Upwind,257.446,0.011,257.446,0.011,3.756,3.756,77.618,0.010,0.003,0.371,0.000,-0.0001,0.0368,0.0000,1.0000,0.5000,1.0000,0.0000
16.941,Upwind,265.494,0.012,265.494,0.012,3.758,3.758,78.706,0.010,0.003,0.369,0.000,-0.0001,0.0366,0.0000,1.0000,0.5000,1.0000,0.0000
17.143,Upwind,273.663,0.012,273.663,0.012,3.760,3.760,79.990,0.010,0.003,0.366,0.000,-0.0001,0.0363,0.0000,1.0000,0.5000,1.0000,0.0000
17.348,Upwind,282.651,0.013,282.651,0.013,3.762,3.762,81.172,0.011,0.003,0.363,0.000,-0.0001,0.0360,0.0000,1.0000,0.5000,1.0000,0.0000
17.545,Upwind,291.074,0.014,291.074,0.014,3.764,3.764,82.352,0.011,0.004,0.360,0.000,-0.0001,0.0358,0.0000,1.0000,0.5000,1.0000,0.0000
17.744,Upwind,299.618,0.015,299.618,0.015,3.767,3.767,83.530,0.011,0.004,0.358,0.000,-0.0001,0.0355,0.0000,1.0000,0.5000,1.0000,0.0000
17.940,Upwind,307.557,0.016,307.557,0.016,3.769,3.769,84.704,0.011,0.004,0.355,0.000,-0.0002,0.0352,0.0000,1.0000,0.5000,1.0000,0.0000
18.142,Upwind,316.332,0.017,316.332,0.017,3.771,3.771,85.877,0.011,0.004,0.352,0.000,-0.0002,0.0349,0.0000,1.0000,0.5000,1.0000,0.0000
18.348,Upwind,325.976,0.018,325.976,0.018,3.773,3.773,87.047,0.011,0.005,0.349,0.000,-0.0002,0.0347,0.0000,1.0000,0.5000,1.0000,0.0000
18.549,Upwind,335.002,0.019,335.002,0.019,3.775,3.775,88.214,0.011,0.005,0.347,0.000,-0.0002,0.0344,0.0000,1.0000,0.5000,1.0000,0.0000
18.745,Upwind,344.149,0.020,344.149,0.020,3.778,3.778,89.379,0.011,0.005,0.344,0.000,-0.0002,0.0341,0.0000,1.0000,0.5000,1.0000,0.0000
18.946,Upwind,353.415,0.021,353.415,0.021,3.780,3.780,90.541,0.012,0.005,0.341,0.000,-0.0002,0.0338,0.0000,1.0000,0.5000,1.0000,0.0000
19.149,Upwind,362.801,0.023,362.801,0.023,3.782,3.782,91.700,0.012,0.006,0.338,0.000,-0.0002,0.0335,0.0000,1.0000,0.5000,1.0000,0.0000
19.342,Upwind,371.509,0.024,371.509,0.024,3.784,3.785,92.857,0.012,0.006,0.335,0.000,-0.0002,0.0332,0.0000,1.0000,0.5000,1.0000,0.0000
19.544,Upwind,381.929,0.025,381.929,0.025,3.787,3.787,94.012,0.012,0.006,0.332,0.000,-0.0002,0.0329,0.0000,1.0000,0.5000,1.0000,0.0000
19.740,Upwind,390.855,0.027,390.855,0.027,3.789,3.789,95.163,0.012,0.006,0.329,0.000,-0.0002,0.0326,0.0000,1.0000,0.5000,1.0000,0.0000
19.943,Upwind,401.532,0.028,401.532,0.028,3.792,3.792,96.312,0.012,0.007,0.326,0.000,-0.0002,0.0323,0.0000,1.0000,0.5000,1.0000,0.0000
20.143,Upwind,411.511,0.030,411.511,0.030,3.794,3.794,97.458,0.012,0.007,0.323,0.000,-0.0003,0.0320,0.0000,1.0000,0.5000,1.0000,0.0000
20.349,Upwind,421.608,0.032,421.608,0.032,3.796,3.796,98.602,0.012,0.007,0.320,0.000,-0.0003,0.0317,0.0000,1.0000,0.5000,1.0000,0.0000
20.552,Upwind,431.822,0.034,431.822,0.034,3.799,3.799,99.743,0.012,0.008,0.317,0.000,-0.0003,0.0314,0.0000,1.0000,0.5000,1.0000,0.0000
20.748,Upwind,442.153,0.035,442.153,0.035,3.801,3.801,100.881,0.012,0.008,0.314,0.000,-0.0003,0.0310,0.0000,1.0000,0.5000,1.0000,0.0000
20.949,Upwind,452.601,0.037,452.601,0.037,3.804,3.804,102.016,0.013,0.008,0.310,0.000,-0.0003,0.0307,0.0000,1.0000,0.5000,1.0000,0.0000
21.150,Upwind,463.166,0.039,463.166,0.039,3.806,3.806,103.149,0.013,0.009,0.307,0.000,-0.0003,0.0304,0.0000,1.0000,0.5000,1.0000,0.0000
21.339,Upwind,472.953,0.041,472.953,0.041,3.809,3.809,104.278,0.013,0.009,0.304,0.000,-0.0003,0.0301,0.0000,1.0000,0.5000,1.0000,0.0000
21.546,Upwind,484.644,0.044,484.644,0.044,3.811,3.811,105.405,0.013,0.009,0.301,0.000,-0.0004,0.0298,0.0000,1.0000,0.5000,1.0000,0.0000
21.741,Upwind,494.644,0.046,494.644,0.046,3.814,3.814,106.529,0.013,0.010,0.298,0.000,-0.0004,0.0294,0.0000,1.0000,0.5000,1.0000,0.0000
21.949,Upwind,506.586,0.049,506.586,0.049,3.817,3.817,107.651,0.013,0.010,0.294,0.000,-0.0004,0.0291,0.0000,1.0000,0.5000,1.0000,0.0000
22.140,Upwind,516.797,0.051,516.797,0.051,3.819,3.819,108.769,0.013,0.011,0.291,0.000,-0.0004,0.0288,0.0000,1.0000,0.5000,1.0000,0.0000
22.339,Upwind,528.046,0.053,528.046,0.053,3.822,3.822,109.885,0.013,0.011,0.288,0.000,-0.0004,0.0285,0.0000,1.0000,0.5000,1.0000,0.0000
22.549,Upwind,540.362,0.056,540.362,0.056,3.824,3.824,110.997,0.013,0.011,0.284,0.000,-0.0004,0.0281,0.0000,1.0000,0.5000,1.0000,0.0000
22.744,Upwind,551.849,0.059,551.849,0.059,3.827,3.827,112.107,0.013,0.012,0.281,0.000,-0.0004,0.0278,0.0000,1.0000,0.5000,1.0000,0.0000
22.945,Upwind,563.451,0.062,563.451,0.062,3.830,3.830,113.214,0.014,0.012,0.278,0.000,-0.0005,0.0274,0.0000,1.0000,0.5000,1.0000,0.0000
23.143,Upwind,574.186,0.065,574.186,0.065,3.832,3.832,114.318,0.014,0.013,0.274,0.000,-0.0005,0.0271,0.0000,1.0000,0.5000,1.0000,0.0000
23.342,Upwind,586.995,0.069,586.995,0.069,3.835,3.835,115.419,0.014,0.013,0.271,0.000,-0.0005,0.0268,0.0000,1.0000,0.5000,1.0000,0.0000
23.547,Upwind,598.937,0.072,598.937,0.072,3.838,3.838,116.517,0.014,0.014,0.268,0.000,-0.0005,0.0264,0.0000,1.0000,0.5000,1.0000,0.0000
23.746,Upwind,610.991,0.075,610.991,0.075,3.841,3.841,117.613,0.014,0.014,0.264,0.000,-0.0005,0.0261,0.0000,1.0000,0.5000,1.0000,0.0000
23.942,Upwind,622.140,0.079,622.140,0.079,3.843,3.843,118.705,0.014,0.015,0.261,0.000,-0.0005,0.0257,0.0000,1.0000,0.5000,1.0000,0.0000
24.140,Upwind,634.410,0.082,634.410,0.082,3.846,3.846,119.794,0.014,0.015,0.257,0.000,-0.0006,0.0254,0.0000,1.0000,0.5000,1.0000,0.0000
24.349,Upwind,647.829,0.087,647.829,0.087,3.849,3.849,120.880,0.014,0.016,0.254,0.000,-0.0006,0.0250,0.0000,1.0000,0.5000,1.0000,0.0000
24.549,Upwind,660.332,0.091,660.332,0.091,3.852,3.852,121.963,0.014,0.016,0.250,0.000,-0.0006,0.0247,0.0000,1.0000,0.5000,1.0000,0.0000
24.748,Upwind,672.946,0.095,672.946,0.095,3.855,3.855,123.044,0.014,0.017,0.247,0.000,-0.0006,0.0243,0.0000,1.0000,0.5000,1.0000,0.0000
24.951,Upwind,685.671,0.099,685.671,0.099,3.857,3.857,124.121,0.014,0.017,0.243,0.000,-0.0006,0.0240,0.0000,1.0000,0.5000,1.0000,0.0000
25.148,Upwind,698.507,0.104,698.507,0.104,3.860,3.860,125.195,0.014,0.018,0.240,0.000,-0.0007,0.0236,0.0000,1.0000,0.5000,1.0000,0.0000
25.345,Upwind,711.453,0.108,711.453,0.108,3.863,3.863,126.266,0.014,0.018,0.236,0.000,-0.0007,0.0232,0.0000,1.0000,0.5000,1.0000,0.0000
25.549,Upwind,724.509,0.113,724.509,0.113,3.866,3.866,127.334,0.014,0.019,0.232,0.000,-0.0007,0.0229,0.0000,1.0000,0.5000,1.0000,0.0000
25.742,Upwind,736.574,0.118,736.574,0.118,3.869,3.869,128.399,0.015,0.019,0.229,0.000,-0.0007,0.0225,0.0000,1.0000,0.5000,1.0000,0.0000
25.943,Upwind,750.951,0.123,750.951,0.123,3.872,3.872,129.461,0.015,0.020,0.225,0.000,-0.0008,0.0222,0.0000,1.0000,0.5000,1.0000,0.0000
26.148,Upwind,764.335,0.128,764.335,0.128,3.875,3.875,130.520,0.015,0.020,0.222,0.000,-0.0008,0.0218,0.0000,1.0000,0.5000,1.0000,0.0000
26.344,Upwind,777.828,0.134,777.828,0.134,3.878,3.878,131.576,0.015,0.021,0.218,0.000,-0.0008,0.0214,0.0000,1.0000,0.5000,1.0000,0.0000
26.550,Upwind,791.430,0.139,791.430,0.139,3.880,3.881,132.628,0.015,0.022,0.214,0.000,-0.0008,0.0211,0.0000,1.0000,0.5000,1.0000,0.0000
26.744,Upwind,805.139,0.145,805.139,0.145,3.883,3.883,133.678,0.015,0.022,0.211,0.000,-0.0009,0.0207,0.0000,1.0000,0.5000,1.0000,0.0000
26.947,Upwind,818.957,0.151,818.957,0.151,3.886,3.886,134.726,0.015,0.023,0.207,-0.001,-0.0009,0.0203,0.0000,1.0000,0.5000,1.0000,0.0000
27.145,Upwind,832.882,0.158,832.882,0.158,3.889,3.889,135.770,0.015,0.023,0.203,-0.001,-0.0009,0.0200,0.0000,1.0000,0.5000,1.0000,0.0000
27.350,Upwind,846.915,0.164,846.915,0.164,3.892,3.892,136.812,0.015,0.024,0.200,-0.001,-0.0009,0.0196,0.0000,1.0000,0.5000,1.0000,0.0000
27.542,Upwind,859.872,0.170,859.872,0.170,3.895,3.895,137.852,0.015,0.024,0.196,-0.001,-0.0010,0.0192,0.0000,1.0000,0.5000,1.0000,0.0000
27.746,Upwind,875.300,0.177,875.300,0.177,3.898,3.898,138.888,0.015,0.025,0.192,-0.001,-0.0010,0.0188,0.0000,1.0000,0.5000,1.0000,0.0000
27.941,Upwind,888.453,0.184,888.453,0.184,3.901,3.901,139.922,0.015,0.026,0.188,-0.001,-0.0010,0.0185,0.0000,1.0000,0.5000,1.0000,0.0000
28.150,Upwind,904.112,0.191,904.112,0.191,3.904,3.904,140.954,0.015,0.026,0.185,-0.001,-0.0010,0.0181,0.0000,1.0000,0.5000,1.0000,0.0000
28.350,Upwind,918.677,0.199,918.677,0.199,3.907,3.907,141.982,0.015,0.027,0.181,-0.001,-0.0011,0.0177,0.0000,1.0000,0.5000,1.0000,0.0000
28.547,Upwind,933.348,0.207,933.348,0.207,3.911,3.911,143.008,0.015,0.028,0.177,-0.001,-0.0011,0.0173,0.0000,1.0000,0.5000,1.0000,0.0000
28.752,Upwind,948.124,0.214,948.124,0.214,3.914,3.914,144.032,0.015,0.028,0.173,-0.001,-0.0011,0.0170,0.0000,1.0000,0.5000,1.0000,0.0000
28.953,Upwind,963.006,0.222,963.006,0.222,3.917,3.917,145.052,0.016,0.029,0.170,-0.001,-0.0011,0.0166,0.0000,1.0000,0.5000,1.0000,0.0000
29.152,Upwind,977.992,0.231,977.992,0.231,3.920,3.920,146.070,0.016,0.029,0.166,-0.001,-0.0012,0.0162,0.0000,1.0000,0.5000,1.0000,0.0000
29.351,Upwind,993.082,0.239,993.082,0.239,3.923,3.923,147.085,0.016,0.030,0.162,-0.001,-0.0012,0.0158,0.0000,1.0000,0.5000,1.0000,0.0000
29.546,Upwind,1008.277,0.248,1008.277,0.248,3.926,3.926,148.097,0.016,0.031,0.158,-0.001,-0.0012,0.0154,0.0000,1.0000,0.5000,1.0000,0.0000
29.748,Upwind,1023.576,0.257,1023.576,0.257,3.929,3.929,149.107,0.016,0.031,0.154,-0.001,-0.0013,0.0151,0.0000,1.0000,0.5000,1.0000,0.0000
29.943,Upwind,1038.979,0.266,1038.979,0.266,3.932,3.932,150.113,0.016,0.032,0.150,-0.001,-0.0013,0.0147,0.0000,1.0000,0.5000,1.0000,0.0000
30.141,Upwind,1053.189,0.275,1053.189,0.275,3.935,3.935,151.034,0.016,0.033,0.147,-0.001,-0.0013,0.0143,0.0000,1.0000,0.5000,1.0000,0.0000
30.350,Upwind,1070.094,0.285,1070.094,0.285,3.938,3.938,152.118,0.016,0.033,0.143,-0.001,-0.0014,0.0139,0.0000,1.0000,0.5000,1.0000,0.0000
30.542,Upwind,1084.493,0.294,1084.493,0.294,3.942,3.942,153.117,0.016,0.034,0.139,-0.001,-0.0014,0.0135,0.0000,1.0000,0.5000,1.0000,0.0000
30.747,Upwind,1101.621,0.305,1101.621,0.305,3.945,3.945,154.112,0.016,0.035,0.135,-0.001,-0.0014,0.0131,0.0000,1.0000,0.5000,1.0000,0.0000
30.951,Upwind,1117.537,0.316,1117.537,0.316,3.948,3.948,155.105,0.016,0.035,0.131,-0.001,-0.0015,0.0127,0.0000,1.0000,0.5000,1.0000,0.0000
31.142,Upwind,1132.217,0.326,1132.217,0.326,3.951,3.951,156.095,0.016,0.036,0.127,-0.001,-0.0015,0.0123,0.0000,1.0000,0.5000,1.0000,0.0000
31.344,Upwind,1149.677,0.337,1149.677,0.337,3.954,3.954,156.999,0.016,0.037,0.124,-0.002,-0.0015,0.0120,0.0000,1.0000,0.5000,1.0000,0.0000
31.542,Upwind,1164.543,0.348,1164.543,0.348,3.958,3.958,158.066,0.016,0.038,0.119,-0.002,-0.0016,0.0116,0.0000,1.0000,0.5000,1.0000,0.0000
31.740,Upwind,1180.857,0.359,1180.857,0.359,3.961,3.961,159.047,0.016,0.038,0.116,-0.002,-0.0016,0.0112,0.0000,1.0000,0.5000,1.0000,0.0000
31.943,Upwind,1197.273,0.371,1197.273,0.371,3.964,3.964,160.026,0.016,0.039,0.112,-0.002,-0.0016,0.0108,0.0000,1.0000,0.5000,1.0000,0.0000
32.144,Upwind,1215.169,0.384,1215.169,0.384,3.967,3.967,161.001,0.016,0.040,0.108,-0.002,-0.0017,0.0104,0.0000,1.0000,0.5000,1.0000,0.0000
32.344,Upwind,1231.794,0.396,1231.794,0.396,3.970,3.970,161.974,0.016,0.040,0.104,-0.002,-0.0017,0.0100,0.0000,1.0000,0.5000,1.0000,0.0000
32.549,Upwind,1248.518,0.409,1248.518,0.409,3.974,3.974,162.944,0.016,0.041,0.100,-0.002,-0.0017,0.0096,0.0000,1.0000,0.5000,1.0000,0.0000
32.745,Upwind,1265.342,0.422,1265.342,0.422,3.977,3.977,163.911,0.016,0.042,0.096,-0.002,-0.0018,0.0092,0.0000,1.0000,0.5000,1.0000,0.0000
32.946,Upwind,1282.266,0.435,1282.266,0.435,3.980,3.980,164.875,0.016,0.042,0.092,-0.002,-0.0018,0.0088,0.0000,1.0000,0.5000,1.0000,0.0000
33.148,Upwind,1299.288,0.448,1299.288,0.448,3.983,3.983,165.836,0.016,0.043,0.088,-0.002,-0.0018,0.0084,0.0000,1.0000,0.5000,1.0000,0.0000
33.339,Upwind,1314.978,0.461,1314.978,0.461,3.987,3.987,166.794,0.016,0.044,0.084,-0.002,-0.0019,0.0080,0.0000,1.0000,0.5000,1.0000,0.0000
33.547,Upwind,1333.628,0.476,1333.628,0.476,3.990,3.990,167.749,0.016,0.045,0.080,-0.002,-0.0019,0.0076,0.0000,1.0000,0.5000,1.0000,0.0000
33.740,Upwind,1349.499,0.489,1349.499,0.489,3.993,3.993,168.702,0.016,0.045,0.076,-0.002,-0.0020,0.0072,0.0000,1.0000,0.5000,1.0000,0.0000
33.949,Upwind,1368.361,0.505,1368.361,0.505,3.996,3.996,169.651,0.016,0.046,0.072,-0.002,-0.0020,0.0068,0.0000,1.0000,0.5000,1.0000,0.0000
34.144,Upwind,1385.874,0.520,1385.874,0.520,4.000,4.000,170.598,0.016,0.047,0.068,-0.002,-0.0020,0.0064,0.0000,1.0000,0.5000,1.0000,0.0000
34.349,Upwind,1403.484,0.535,1403.484,0.535,4.003,4.003,171.541,0.016,0.047,0.064,-0.003,-0.0021,0.0060,0.0000,1.0000,0.5000,1.0000,0.0000
34.546,Upwind,1421.191,0.551,1421.191,0.551,4.006,4.006,172.482,0.016,0.048,0.060,-0.003,-0.0021,0.0056,0.0000,1.0000,0.5000,1.0000,0.0000
34.743,Upwind,1438.995,0.567,1438.995,0.567,4.009,4.009,173.419,0.017,0.049,0.056,-0.003,-0.0022,0.0052,0.0000,1.0000,0.5000,1.0000,0.0000
34.943,Upwind,1456.895,0.583,1456.895,0.583,4.013,4.013,174.354,0.017,0.050,0.052,-0.003,-0.0022,0.0048,0.0000,1.0000,0.5000,1.0000,0.0000
35.140,Upwind,1473.388,0.598,1473.388,0.598,4.016,4.016,175.280,-0.018,0.050,0.050,-0.003,-0.0022,-0.7908,0.0000,1.0000,0.5000,1.0000,0.0000
35.348,Upwind,1492.979,0.616,1492.979,0.616,4.001,4.001,176.152,-0.005,0.051,0.289,-0.003,-0.0023,-0.7283,0.0000,1.0000,0.5000,1.0000,0.0000
35.549,Upwind,1511.155,0.633,1511.155,0.633,4.035,4.035,177.015,0.318,0.052,0.840,-0.003,-0.0023,-0.6493,0.0000,1.0000,0.5000,1.0000,0.0000
35.742,Upwind,1527.895,0.649,1527.895,0.649,4.113,4.113,177.868,0.439,0.053,1.608,-0.003,-0.0024,-0.5572,0.0000,0.9899,0.5000,1.0000,0.0000
35.940,Upwind,1546.239,0.667,1546.239,0.667,4.218,4.218,178.682,0.714,0.053,2.509,-0.004,-0.0022,-0.4597,0.0000,0.9620,0.5000,1.0000,0.0000
36.150,Upwind,1566.198,0.686,1566.198,0.686,4.441,4.441,179.336,1.616,0.054,3.431,-0.008,-0.0020,-0.3720,0.0000,0.8570,0.5000,1.0000,0.0000
36.342,Upwind,1583.136,0.703,1583.136,0.703,4.898,4.898,179.746,3.023,0.055,4.270,-0.014,-0.0017,-0.2993,0.0000,0.7610,0.5000,1.0000,0.0000
36.546,Upwind,1603.184,0.723,1603.184,0.723,5.672,5.672,179.932,4.752,0.056,4.956,-0.021,-0.0014,-0.2490,0.0000,0.6810,0.5000,1.0000,0.0000
36.744,Upwind,1621.699,0.742,1621.699,0.742,6.808,6.808,180.003,6.618,0.056,5.457,-0.028,-0.0012,-0.2173,0.0000,0.6801,0.5000,1.0000,0.0000
36.942,Upwind,1640.218,0.761,1640.218,0.761,8.318,8.318,180.045,8.461,0.057,5.771,-0.035,-0.0010,-0.2016,0.0000,0.6795,0.5000,1.0000,0.0000
37.148,Upwind,1658.737,0.779,1658.737,0.779,10.182,10.182,180.060,10.147,0.057,5.919,-0.042,-0.0008,-0.2020,0.0000,0.6793,0.5000,1.0000,0.0000
37.348,Upwind,1677.254,0.798,1677.254,0.798,12.363,12.363,180.055,11.624,0.057,5.938,-0.048,-0.0006,-0.2102,0.0000,0.6794,0.5000,1.0000,0.0000
37.545,Upwind,1695.767,0.816,1695.767,0.816,14.815,14.815,180.035,12.855,0.058,5.866,-0.053,-0.0005,-0.1937,0.0000,0.6797,0.5000,1.0000,0.0000
37.742,Upwind,1712.733,0.833,1712.733,0.833,17.488,17.488,180.007,13.831,0.057,5.727,-0.057,-0.0004,-0.1872,0.0000,0.6801,0.5000,1.0000,0.0000
37.944,Upwind,1732.778,0.853,1732.778,0.853,20.330,20.330,179.975,14.545,0.057,5.544,-0.061,-0.0003,-0.1901,0.0000,0.6806,0.5000,1.0000,0.0000
38.140,Upwind,1749.736,0.870,1749.736,0.870,23.289,23.289,179.943,15.003,0.057,5.340,-0.063,-0.0003,-0.1989,0.0000,0.6810,0.5000,1.0000,0.0000
38.340,Upwind,1768.232,0.888,1768.232,0.888,26.316,26.316,179.911,15.236,0.056,5.137,-0.066,-0.0002,-0.2111,0.0000,0.6815,0.5000,1.0000,0.0000
38.540,Upwind,1786.725,0.906,1786.725,0.906,29.371,29.371,179.882,15.287,0.056,4.957,-0.067,-0.0002,-0.2241,0.0000,0.6819,0.5000,1.0000,0.0000
38.747,Upwind,1806.757,0.925,1806.757,0.925,32.421,32.421,179.856,15.195,0.055,4.812,-0.069,-0.0002,-0.2355,0.0000,0.6823,0.5000,1.0000,0.0000
38.947,Upwind,1825.247,0.942,1825.247,0.942,35.442,35.442,179.834,15.007,0.054,4.713,-0.070,-0.0001,-0.2446,0.0000,0.6826,0.5000,1.0000,0.0000
39.145,Upwind,1843.736,0.960,1843.736,0.960,38.421,38.421,179.814,14.774,0.053,4.662,-0.071,-0.0001,-0.2501,0.0000,0.6829,0.5000,1.0000,0.0000
39.341,Upwind,1860.684,0.975,1860.684,0.975,41.351,41.351,179.796,14.531,0.052,4.656,-0.071,-0.0001,-0.2522,0.0000,0.6831,0.5000,1.0000,0.0000
39.542,Upwind,1879.173,0.993,1879.173,0.993,44.234,44.235,179.779,14.307,0.051,4.690,-0.072,-0.0001,-0.2503,0.0000,0.6834,0.5000,1.0000,0.0000
39.750,Upwind,1899.201,1.011,1899.201,1.011,47.077,47.077,179.761,14.125,0.050,4.752,-0.072,0.0000,-0.2455,0.0000,0.6836,0.5000,1.0000,0.0000
39.946,Upwind,1917.688,1.027,1917.688,1.027,49.888,49.888,179.743,13.995,0.049,4.831,-0.073,0.0000,-0.2389,0.0000,0.6839,0.5000,1.0000,0.0000
40.146,Upwind,1936.175,1.044,1936.175,1.044,52.678,52.679,179.723,13.918,0.049,4.918,-0.073,0.0000,-0.2313,0.0000,0.6841,0.5000,1.0000,0.0000
40.340,Upwind,1953.119,1.059,1953.119,1.059,55.459,55.459,179.701,13.892,0.048,5.000,-0.073,0.0000,-0.2236,0.0000,0.6845,0.5000,1.0000,0.0000
40.541,Upwind,1971.603,1.075,1971.603,1.075,58.238,58.238,179.677,13.905,0.047,5.071,-0.073,0.0000,-0.2168,0.0000,0.6848,0.5000,1.0000,0.0000
40.745,Upwind,1991.625,1.092,1991.625,1.092,61.022,61.023,179.651,13.945,0.046,5.124,-0.073,0.0000,-0.2117,0.0000,0.6852,0.5000,1.0000,0.0000
40.942,Upwind,2008.564,1.106,2008.564,1.106,63.817,63.817,179.624,13.998,0.046,5.158,-0.073,0.0000,-0.2079,0.0000,0.6855,0.5000,1.0000,0.0000
41.145,Upwind,2028.581,1.123,2028.581,1.123,66.622,66.622,179.597,14.055,0.045,5.171,-0.073,0.0000,-0.2064,0.0000,0.6859,0.5000,1.0000,0.0000
41.349,Upwind,2047.056,1.138,2047.056,1.138,69.438,69.438,179.569,14.102,0.045,5.166,-0.073,-0.0001,-0.2065,0.0000,0.6863,0.5000,1.0000,0.0000
41.549,Upwind,2065.528,1.153,2065.528,1.153,72.261,72.262,179.542,14.130,0.044,5.146,-0.073,-0.0001,-0.2081,0.0000,0.6867,0.5000,1.0000,0.0000
41.748,Upwind,2083.999,1.168,2083.999,1.168,75.088,75.089,179.516,14.133,0.044,5.115,-0.073,-0.0001,-0.2110,0.0000,0.6870,0.5000,1.0000,0.0000
41.940,Upwind,2100.929,1.181,2100.929,1.181,77.913,77.913,179.493,14.108,0.043,5.079,-0.073,-0.0001,-0.2146,0.0000,0.6874,0.5000,1.0000,0.0000
42.143,Upwind,2120.935,1.197,2120.935,1.197,80.730,80.730,179.471,14.056,0.043,5.043,-0.073,-0.0001,-0.2185,0.0000,0.6877,0.5000,1.0000,0.0000
42.346,Upwind,2139.402,1.211,2139.402,1.211,83.534,83.534,179.451,13.984,0.042,5.009,-0.073,-0.0001,-0.2223,0.0000,0.6879,0.5000,1.0000,0.0000
42.546,Upwind,2157.867,1.225,2157.867,1.225,86.322,86.323,179.434,13.897,0.042,4.983,-0.073,-0.0001,-0.2255,0.0000,0.6882,0.5000,1.0000,0.0000
42.748,Upwind,2176.331,1.238,2176.331,1.238,89.092,89.093,179.418,13.803,0.041,4.964,-0.073,-0.0001,-0.2281,0.0000,0.6884,0.5000,1.0000,0.0000
42.949,Upwind,2194.795,1.252,2194.795,1.252,91.843,91.844,179.403,13.707,0.040,4.954,-0.073,-0.0001,-0.2298,0.0000,0.6886,0.5000,1.0000,0.0000
43.140,Upwind,2211.720,1.264,2211.720,1.264,94.575,94.576,179.390,13.613,0.040,4.953,-0.073,-0.0001,-0.2308,0.0000,0.6888,0.5000,1.0000,0.0000
43.340,Upwind,2230.184,1.277,2230.184,1.277,97.064,97.064,179.378,13.533,0.039,4.958,-0.073,-0.0001,-0.2309,0.0000,0.6890,0.5000,1.0000,0.0000
43.543,Upwind,2250.185,1.291,2250.185,1.291,99.986,99.987,179.366,13.449,0.038,4.970,-0.073,-0.0001,-0.2305,0.0000,0.6891,0.5000,1.0000,0.0000
43.741,Upwind,2267.109,1.303,2267.109,1.303,102.670,102.670,179.355,13.387,0.038,4.985,-0.073,-0.0001,-0.2296,0.0000,0.6893,0.5000,1.0000,0.0000
43.944,Upwind,2287.110,1.316,2287.110,1.316,105.342,105.343,179.344,13.340,0.037,5.000,-0.073,-0.0001,-0.2284,0.0000,0.6894,0.5000,1.0000,0.0000
44.144,Upwind,2305.572,1.329,2305.572,1.329,108.007,108.007,179.334,13.306,0.036,5.015,-0.074,0.0000,-0.2271,0.0000,0.6896,0.5000,1.0000,0.0000
44.345,Upwind,2324.034,1.341,2324.034,1.341,110.665,110.666,179.323,13.283,0.036,5.028,-0.074,-0.0001,-0.2260,0.0000,0.6897,0.5000,1.0000,0.0000
44.543,Upwind,2342.496,1.353,2342.496,1.353,113.320,113.321,179.313,13.269,0.035,5.036,-0.074,0.0000,-0.2250,0.0000,0.6899,0.5000,1.0000,0.0000
44.745,Upwind,2360.957,1.364,2360.957,1.364,115.973,115.974,179.303,13.260,0.034,5.041,-0.073,-0.0001,-0.2244,0.0000,0.6900,0.5000,1.0000,0.0000
44.949,Upwind,2379.418,1.376,2379.418,1.376,118.624,118.625,179.293,13.252,0.034,5.041,-0.073,0.0000,-0.2242,0.0000,0.6902,0.5000,1.0000,0.0000
45.148,Upwind,2397.878,1.387,2397.878,1.387,121.274,121.275,179.283,13.244,0.033,5.038,-0.073,-0.0001,-0.2243,0.0000,0.6903,0.5000,1.0000,0.0000
45.347,Upwind,2416.339,1.398,2416.339,1.398,123.922,123.922,179.274,13.234,0.032,5.031,-0.073,-0.0001,-0.2246,0.0000,0.6904,0.5000,1.0000,0.0000
45.545,Upwind,2434.799,1.409,2434.799,1.409,126.567,126.568,179.265,13.219,0.032,5.023,-0.073,0.0000,-0.2252,0.0000,0.6906,0.5000,1.0000,0.0000
45.741,Upwind,2451.720,1.419,2451.720,1.419,129.209,129.210,179.257,13.200,0.031,5.013,-0.073,-0.0001,-0.2260,0.0000,0.6907,0.5000,1.0000,0.0000
45.943,Upwind,2471.719,1.430,2471.719,1.430,131.847,131.847,179.250,13.176,0.030,5.003,-0.073,-0.0001,-0.2268,0.0000,0.6908,0.5000,1.0000,0.0000
46.143,Upwind,2490.179,1.440,2490.179,1.440,134.479,134.480,179.243,13.148,0.030,4.993,-0.073,-0.0001,-0.2275,0.0000,0.6909,0.5000,1.0000,0.0000
46.349,Upwind,2508.639,1.450,2508.639,1.450,137.106,137.106,179.237,13.118,0.029,4.985,-0.073,-0.0001,-0.2282,0.0000,0.6910,0.5000,1.0000,0.0000
46.540,Upwind,2525.561,1.459,2525.561,1.459,139.726,139.727,179.231,13.086,0.028,4.978,-0.073,0.0000,-0.2287,0.0000,0.6910,0.5000,1.0000,0.0000
46.746,Upwind,2545.560,1.470,2545.560,1.470,142.340,142.341,179.226,13.054,0.028,4.973,-0.073,-0.0001,-0.2290,0.0000,0.6911,0.5000,1.0000,0.0000
46.951,Upwind,2564.020,1.479,2564.020,1.479,144.948,144.948,179.221,13.022,0.027,4.970,-0.072,-0.0001,-0.2292,0.0000,0.6912,0.5000,1.0000,0.0000
47.145,Upwind,2582.481,1.489,2582.481,1.489,147.549,147.550,179.217,12.993,0.027,4.968,-0.072,-0.0001,-0.2292,0.0000,0.6912,0.5000,1.0000,0.0000
47.358,Upwind,2600.943,1.498,2600.943,1.498,150.145,150.146,179.213,12.965,0.026,4.968,-0.072,0.0000,-0.2291,0.0000,0.6913,0.5000,0.0000,0.0000
47.546,Upwind,2619.405,1.506,2619.405,1.506,152.735,152.736,179.210,12.941,0.025,4.968,-0.072,-0.0001,-0.2289,0.0000,0.6913,0.5000,0.0000,0.0000
47.746,Upwind,2637.867,1.515,2637.867,1.515,155.321,155.322,179.210,12.919,0.025,4.968,-0.072,0.0000,-0.2287,0.0000,0.6913,0.5000,0.0000,0.0000
47.941,Upwind,2654.792,1.523,2654.792,1.523,157.903,157.904,179.213,12.900,0.024,4.967,-0.072,0.0000,-0.2287,0.0000,0.6913,0.5000,0.0000,0.0000
48.143,Upwind,2674.795,1.532,2674.795,1.532,160.481,160.482,179.219,12.882,0.024,4.964,-0.072,-0.0001,-0.2288,0.0000,0.6912,0.5000,0.0000,0.0000
48.348,Upwind,2693.261,1.540,2693.261,1.540,163.056,163.057,179.227,12.865,0.023,4.960,-0.071,0.0000,-0.2290,0.0000,0.6911,0.5000,0.0000,0.0000
48.542,Upwind,2710.190,1.547,2710.190,1.547,165.627,165.628,179.238,12.848,0.022,4.954,-0.071,0.0000,-0.2294,0.0000,0.6909,0.5000,0.0000,0.0000
48.741,Upwind,2728.659,1.555,2728.659,1.555,168.195,168.196,179.252,12.829,0.022,4.946,-0.071,0.0000,-0.2300,0.0000,0.6907,0.5000,0.0000,0.0000
48.947,Upwind,2748.671,1.563,2748.671,1.563,170.759,170.760,179.269,12.810,0.021,4.938,-0.071,-0.0001,-0.2307,0.0000,0.6905,0.5000,0.0000,0.0000
49.145,Upwind,2767.145,1.570,2767.145,1.570,173.319,173.320,179.288,12.788,0.021,4.928,-0.071,-0.0001,-0.2315,0.0000,0.6902,0.5000,0.0000,0.0000
49.341,Upwind,2784.083,1.577,2784.083,1.577,175.874,175.875,179.309,12.764,0.020,4.918,-0.071,0.0000,-0.2324,0.0000,0.6899,0.5000,0.0000,0.0000
49.545,Upwind,2804.104,1.584,2804.104,1.584,178.424,178.425,179.333,12.738,0.019,4.907,-0.070,-0.0001,-0.2333,0.0000,0.6896,0.5000,0.0000,0.0000
49.739,Upwind,2821.047,1.590,2821.047,1.590,180.969,180.970,179.359,12.711,0.019,4.897,-0.070,0.0000,-0.2341,0.0000,0.6892,0.5000,0.0000,0.0000
49.940,Upwind,2839.534,1.597,2839.534,1.597,183.297,183.298,179.386,12.686,0.018,4.889,-0.070,0.0000,-0.2349,0.0000,0.6889,0.5000,0.0000,0.0000
50.139,Upwind,2858.026,1.603,2858.026,1.603,186.042,186.043,179.419,12.656,0.018,4.879,-0.070,0.0000,-0.2357,0.0000,0.6884,0.5000,0.0000,0.0000
50.348,Upwind,2878.062,1.610,2878.062,1.610,188.571,188.572,179.453,12.628,0.017,4.871,-0.070,-0.0001,-0.2363,0.0000,0.6879,0.5000,0.0000,0.0000
50.543,Upwind,2896.562,1.616,2896.562,1.616,191.094,191.095,179.488,12.602,0.017,4.864,-0.069,0.0000,-0.2369,0.0000,0.6874,0.5000,0.0000,0.0000
50.749,Upwind,2915.066,1.622,2915.066,1.622,193.612,193.612,179.526,12.577,0.016,4.857,-0.069,-0.0001,-0.2374,0.0000,0.6869,0.5000,0.0000,0.0000
50.942,Upwind,2932.033,1.627,2932.033,1.627,196.125,196.126,179.565,12.554,0.016,4.851,-0.069,0.0000,-0.2378,0.0000,0.6863,0.5000,0.0000,0.0000
51.151,Upwind,2952.090,1.633,2952.090,1.633,198.633,198.634,179.606,12.533,0.015,4.845,-0.069,0.0000,-0.2382,0.0000,0.6858,0.5000,0.0000,0.0000
51.346,Upwind,2970.609,1.639,2970.609,1.639,201.138,201.139,179.650,12.513,0.014,4.839,-0.069,0.0000,-0.2385,0.0000,0.6852,0.5000,0.0000,0.0000
51.551,Upwind,2989.133,1.644,2989.133,1.644,203.639,203.640,179.694,12.496,0.014,4.833,-0.068,-0.0001,-0.2389,0.0000,0.6845,0.5000,0.0000,0.0000
51.740,Upwind,3006.119,1.648,3006.119,1.648,206.136,206.137,179.741,12.480,0.013,4.826,-0.068,0.0000,-0.2392,0.0000,0.6839,0.5000,0.0000,0.0000
51.950,Upwind,3026.198,1.653,3026.198,1.653,208.631,208.632,179.789,12.465,0.013,4.819,-0.068,0.0000,-0.2395,0.0000,0.6832,0.5000,0.0000,0.0000
52.154,Upwind,3044.740,1.658,3044.740,1.658,211.123,211.124,179.839,12.452,0.012,4.812,-0.068,0.0000,-0.2399,0.0000,0.6825,0.5000,0.0000,0.0000
52.351,Upwind,3063.287,1.663,3063.287,1.663,213.612,213.613,179.891,12.439,0.012,4.804,-0.068,0.0000,-0.2403,0.0000,0.6818,0.5000,0.0000,0.0000
52.549,Upwind,3081.840,1.667,3081.840,1.667,216.098,216.099,179.943,12.427,0.011,4.796,-0.067,-0.0001,-0.2407,0.0000,0.6810,0.5000,0.0000,0.0000
52.744,Upwind,3100.399,1.671,3100.399,1.671,218.582,218.584,179.994,12.415,0.011,4.788,-0.067,0.0000,-0.2410,0.0000,0.6803,0.5000,0.0000,0.0000
52.948,Upwind,3118.964,1.675,3118.964,1.675,221.064,221.065,180.044,12.404,0.010,4.781,-0.067,0.0000,-0.2412,0.0000,0.6796,0.5000,0.0000,0.0000
53.145,Upwind,3137.535,1.679,3137.535,1.679,223.544,223.545,180.093,12.393,0.010,4.774,-0.067,0.0000,-0.2413,0.0000,0.6789,0.5000,0.0000,0.0000
53.347,Upwind,3156.112,1.682,3156.112,1.682,226.022,226.023,180.140,12.383,0.009,4.768,-0.066,0.0000,-0.2413,0.0000,0.6783,0.5000,0.0000,0.0000
53.552,Upwind,3174.694,1.686,3174.694,1.686,228.497,228.498,180.187,12.375,0.009,4.763,-0.066,0.0000,-0.2412,0.0000,0.6776,0.5000,0.0000,0.0000
53.748,Upwind,3193.281,1.689,3193.281,1.689,230.972,230.973,180.232,12.368,0.008,4.759,-0.066,0.0000,-0.2409,0.0000,0.6770,0.5000,0.0000,0.0000
53.943,Upwind,3210.325,1.692,3210.325,1.692,233.445,233.446,180.277,12.364,0.008,4.756,-0.066,0.0000,-0.2406,0.0000,0.6764,0.5000,0.0000,0.0000
54.140,Upwind,3228.922,1.695,3228.922,1.695,235.917,235.918,180.320,12.361,0.007,4.753,-0.065,0.0000,-0.2402,0.0000,0.6758,0.5000,0.0000,0.0000
54.339,Upwind,3247.525,1.698,3247.525,1.698,238.389,238.390,180.362,12.361,0.007,4.750,-0.065,0.0000,-0.2397,0.0000,0.6752,0.5000,0.0000,0.0000
54.540,Upwind,3266.132,1.701,3266.132,1.701,240.862,240.863,180.403,12.362,0.006,4.748,-0.065,0.0000,-0.2393,0.0000,0.6746,0.5000,0.0000,0.0000
54.745,Upwind,3286.296,1.704,3286.296,1.704,243.334,243.335,180.443,12.364,0.006,4.744,-0.065,0.0000,-0.2388,0.0000,0.6740,0.5000,0.0000,0.0000
54.943,Upwind,3303.362,1.706,3303.362,1.706,245.807,245.808,180.482,12.368,0.006,4.741,-0.064,0.0000,-0.2384,0.0000,0.6735,0.5000,0.0000,0.0000
55.146,Upwind,3323.536,1.708,3323.536,1.708,248.281,248.282,180.520,12.371,0.005,4.736,-0.064,0.0000,-0.2380,0.0000,0.6730,0.5000,0.0000,0.0000
55.350,Upwind,3342.162,1.711,3342.162,1.711,250.756,250.757,180.557,12.375,0.005,4.732,-0.064,0.0000,-0.2377,0.0000,0.6724,0.5000,0.0000,0.0000
55.539,Upwind,3359.241,1.712,3359.241,1.712,253.231,253.232,180.593,12.378,0.004,4.727,-0.064,0.0000,-0.2374,0.0000,0.6719,0.5000,0.0000,0.0000
55.739,Upwind,3377.876,1.714,3377.876,1.714,255.707,255.708,180.629,12.380,0.004,4.721,-0.063,0.0000,-0.2372,0.0000,0.6714,0.5000,0.0000,0.0000
55.952,Upwind,3398.069,1.716,3398.069,1.716,258.183,258.184,180.663,12.382,0.003,4.716,-0.063,0.0000,-0.2370,0.0000,0.6709,0.5000,0.0000,0.0000
56.143,Upwind,3416.713,1.718,3416.713,1.718,260.660,260.661,180.697,12.383,0.003,4.710,-0.063,0.0000,-0.2368,0.0000,0.6705,0.5000,0.0000,0.0000
56.345,Upwind,3435.361,1.719,3435.361,1.719,263.136,263.137,180.730,12.383,0.003,4.704,-0.063,0.0000,-0.2366,0.0000,0.6700,0.5000,0.0000,0.0000
56.541,Upwind,3452.458,1.720,3452.458,1.720,265.613,265.614,180.762,12.382,0.002,4.698,-0.062,0.0000,-0.2365,0.0000,0.6696,0.5000,0.0000,0.0000
56.745,Upwind,3472.669,1.722,3472.669,1.722,268.089,268.090,180.794,12.380,0.002,4.693,-0.062,0.0000,-0.2363,0.0000,0.6691,0.5000,0.0000,0.0000
56.939,Upwind,3489.773,1.723,3489.773,1.723,270.565,270.566,180.825,12.378,0.001,4.688,-0.062,0.0000,-0.2361,0.0000,0.6687,0.5000,0.0000,0.0000
57.148,Upwind,3509.992,1.724,3509.992,1.724,273.040,273.042,180.855,12.376,0.001,4.683,-0.062,0.0000,-0.2359,0.0000,0.6683,0.5000,0.0000,0.0000
57.341,Upwind,3527.104,1.724,3527.104,1.724,275.515,275.516,180.884,12.373,0.001,4.678,-0.061,0.0000,-0.2357,0.0000,0.6678,0.5000,0.0000,0.0000
57.544,Upwind,3547.331,1.725,3547.331,1.725,277.989,277.991,180.913,12.370,0.000,4.673,-0.061,0.0000,-0.2354,0.0000,0.6674,0.5000,0.0000,0.0000
57.747,Upwind,3566.005,1.726,3566.005,1.726,280.463,280.464,180.941,12.367,360.000,4.669,-0.061,0.0000,-0.2352,0.0000,0.6670,0.5000,0.0000,0.0000
57.946,Upwind,3584.684,1.726,3584.684,1.726,282.936,282.938,180.969,12.364,359.999,4.665,-0.061,0.0000,-0.2349,0.0000,0.6667,0.5000,0.0000,0.0000
58.142,Upwind,3601.808,1.726,3601.808,1.726,285.409,285.410,180.996,12.361,359.999,4.661,-0.060,0.0000,-0.2347,0.0000,0.6663,0.5000,0.0000,0.0000
58.339,Upwind,3620.493,1.726,3620.493,1.726,287.881,287.882,181.022,12.358,359.999,4.657,-0.060,0.0000,-0.2344,0.0000,0.6659,0.5000,0.0000,0.0000
58.547,Upwind,3640.739,1.726,3640.739,1.726,290.352,290.353,181.048,12.355,359.998,4.652,-0.060,0.0000,-0.2342,0.0000,0.6655,0.5000,0.0000,0.0000
58.740,Upwind,3657.873,1.726,3657.873,1.726,292.823,292.824,181.073,12.352,359.998,4.648,-0.060,0.0000,-0.2340,0.0000,0.6652,0.5000,0.0000,0.0000
58.945,Upwind,3678.126,1.726,3678.126,1.726,295.293,295.294,181.098,12.349,359.998,4.644,-0.059,0.0000,-0.2338,0.0000,0.6648,0.5000,0.0000,0.0000
59.141,Upwind,3695.266,1.726,3695.266,1.726,297.762,297.764,181.122,12.345,359.997,4.639,-0.059,0.0000,-0.2335,0.0000,0.6645,0.5000,0.0000,0.0000
59.344,Upwind,3715.526,1.725,3715.526,1.725,300.231,300.232,181.146,12.341,359.997,4.635,-0.059,0.0000,-0.2334,0.0000,0.6642,0.5000,0.0000,0.0000
59.544,Upwind,3734.230,1.725,3734.230,1.725,302.699,302.700,181.169,12.337,359.997,4.630,-0.059,0.0000,-0.2332,0.0000,0.6638,0.5000,0.0000,0.0000
59.748,Upwind,3752.938,1.724,3752.938,1.724,305.166,305.167,181.192,12.332,359.996,4.626,-0.059,0.0000,-0.2330,0.0000,0.6635,0.5000,0.0000,0.0000
59.942,Upwind,3770.089,1.724,3770.089,1.724,307.632,307.633,181.214,12.327,359.996,4.621,-0.058,0.0000,-0.2328,0.0000,0.6632,0.5000,0.0000,0.0000
60.150,Upwind,3790.362,1.723,3790.362,1.723,310.097,310.098,181.236,12.322,359.996,4.617,-0.058,0.0000,-0.2327,0.0000,0.6629,0.5000,0.0000,0.0000
60.350,Upwind,3809.078,1.722,3809.078,1.722,312.560,312.562,181.257,12.316,359.995,4.612,-0.058,0.0000,-0.2325,0.0000,0.6626,0.5000,0.0000,0.0000
60.543,Upwind,3827.797,1.721,3827.797,1.721,315.023,315.025,181.278,12.310,359.995,4.608,-0.058,0.0000,-0.2324,0.0000,0.6623,0.5000,0.0000,0.0000
60.746,Upwind,3846.519,1.720,3846.519,1.720,317.484,317.486,181.299,12.304,359.995,4.604,-0.058,0.0000,-0.2322,0.0000,0.6620,0.5000,0.0000,0.0000
60.940,Upwind,3863.684,1.718,3863.684,1.718,319.945,319.946,181.319,12.298,359.994,4.599,-0.057,0.0000,-0.2321,0.0000,0.6617,0.5000,0.0000,0.0000
61.147,Upwind,3883.972,1.717,3883.972,1.717,322.403,322.405,181.339,12.291,359.994,4.595,-0.057,0.0000,-0.2319,0.0000,0.6615,0.5000,0.0000,0.0000
61.348,Upwind,3902.702,1.716,3902.702,1.716,324.861,324.863,181.358,12.284,359.994,4.591,-0.057,0.0000,-0.2317,0.0000,0.6612,0.5000,0.0000,0.0000
61.550,Upwind,3921.435,1.714,3921.435,1.714,327.317,327.319,181.377,12.277,359.994,4.587,-0.057,0.0000,-0.2316,0.0000,0.6609,0.5000,0.0000,0.0000
61.744,Upwind,3940.170,1.712,3940.170,1.712,329.772,329.773,181.396,12.270,359.993,4.583,-0.057,0.0000,-0.2314,0.0000,0.6607,0.5000,0.0000,0.0000
61.950,Upwind,3958.909,1.711,3958.909,1.711,332.225,332.227,181.414,12.263,359.993,4.579,-0.056,0.0000,-0.2313,0.0000,0.6604,0.5000,0.0000,0.0000
62.149,Upwind,3977.649,1.709,3977.649,1.709,334.677,334.678,181.432,12.256,359.993,4.575,-0.056,0.0000,-0.2311,0.0000,0.6602,0.5000,0.0000,0.0000
62.354,Upwind,3996.392,1.707,3996.392,1.707,337.127,337.129,181.450,12.248,359.992,4.571,-0.056,0.0000,-0.2309,0.0000,0.6599,0.5000,0.0000,0.0000
62.546,Upwind,4015.138,1.705,4015.138,1.705,339.576,339.578,181.467,12.241,359.992,4.567,-0.056,0.0000,-0.2308,0.0000,0.6597,0.5000,0.0000,0.0000
62.742,Upwind,4032.324,1.703,4032.324,1.703,342.023,342.025,181.484,12.233,359.992,4.563,-0.056,0.0000,-0.2307,0.0000,0.6594,0.5000,0.0000,0.0000
62.943,Upwind,4052.637,1.701,4052.637,1.701,344.469,344.471,181.501,12.225,359.992,4.559,-0.055,0.0000,-0.2305,0.0000,0.6592,0.5000,0.0000,0.0000
63.146,Upwind,4071.390,1.698,4071.390,1.698,346.913,346.915,181.518,12.217,359.991,4.555,-0.055,0.0000,-0.2304,0.0000,0.6590,0.5000,0.0000,0.0000
63.339,Upwind,4088.582,1.696,4088.582,1.696,349.356,349.358,181.534,12.209,359.991,4.551,-0.055,0.0000,-0.2303,0.0000,0.6587,0.5000,0.0000,0.0000
63.544,Upwind,4108.903,1.693,4108.903,1.693,351.797,351.799,181.550,12.200,359.991,4.547,-0.055,0.0000,-0.2301,0.0000,0.6585,0.5000,0.0000,0.0000
63.746,Upwind,4127.663,1.691,4127.663,1.691,354.236,354.238,181.565,12.192,359.991,4.543,-0.055,0.0000,-0.2300,0.0000,0.6583,0.5000,0.0000,0.0000
63.949,Upwind,4146.425,1.688,4146.425,1.688,356.674,356.675,181.581,12.183,359.990,4.539,-0.055,0.0000,-0.2299,0.0000,0.6581,0.5000,0.0000,0.0000
64.147,Upwind,4165.189,1.686,4165.189,1.686,359.109,359.111,181.596,12.174,359.990,4.535,-0.054,0.0001,-0.2298,0.0000,0.6579,0.5000,0.0000,0.0000
64.339,Upwind,4182.392,1.683,4182.392,1.683,361.543,361.545,181.611,12.165,359.990,4.531,-0.054,0.0000,-0.2297,0.0000,0.6576,0.5000,0.0000,0.0000
64.540,Upwind,4201.161,1.680,4201.161,1.680,363.976,363.977,181.625,12.156,359.990,4.528,-0.054,0.0000,-0.2295,0.0000,0.6574,0.5000,0.0000,0.0000
64.739,Upwind,4219.932,1.677,4219.932,1.677,366.406,366.408,181.640,12.147,359.989,4.524,-0.054,0.0000,-0.2294,0.0000,0.6572,0.5000,0.0000,0.0000
64.945,Upwind,4240.269,1.674,4240.269,1.674,368.834,368.836,181.654,12.138,359.989,4.520,-0.053,0.0000,-0.2293,0.0000,0.6570,0.5000,0.0000,0.0000
65.149,Upwind,4259.045,1.671,4259.045,1.671,371.261,371.263,181.668,12.128,359.989,4.516,-0.053,0.0000,-0.2292,0.0000,0.6568,0.5000,0.0000,0.0000
65.346,Upwind,4277.822,1.668,4277.822,1.668,373.686,373.687,181.682,12.119,359.989,4.512,-0.053,0.0000,-0.2291,0.0000,0.6566,0.5000,0.0000,0.0000
65.546,Upwind,4296.602,1.665,4296.602,1.665,376.108,376.110,181.695,12.109,359.988,4.508,-0.053,0.0001,-0.2290,0.0000,0.6565,0.5000,0.0000,0.0000
65.743,Upwind,4315.383,1.661,4315.383,1.661,378.529,378.531,181.709,12.100,359.988,4.505,-0.052,0.0000,-0.2289,0.0000,0.6563,0.5000,0.0000,0.0000
65.942,Upwind,4332.602,1.658,4332.602,1.658,380.948,380.950,181.722,12.090,359.988,4.501,-0.052,0.0000,-0.2287,0.0000,0.6561,0.5000,0.0000,0.0000
66.142,Upwind,4351.387,1.655,4351.387,1.655,383.365,383.367,181.735,12.080,359.988,4.497,-0.052,0.0000,-0.2286,0.0000,0.6559,0.5000,0.0000,0.0000
66.346,Upwind,4371.740,1.651,4371.740,1.651,385.780,385.782,181.748,12.070,359.988,4.494,-0.052,0.0000,-0.2285,0.0000,0.6557,0.5000,0.0000,0.0000
66.548,Upwind,4390.530,1.647,4390.530,1.647,388.193,388.195,181.760,12.060,359.988,4.490,-0.051,0.0000,-0.2284,0.0000,0.6555,0.5000,0.0000,0.0000
66.739,Upwind,4407.756,1.644,4407.756,1.644,390.604,390.606,181.773,12.050,359.987,4.486,-0.051,0.0000,-0.2283,0.0000,0.6554,0.5000,0.0000,0.0000
66.957,Upwind,4428.115,1.640,4428.115,1.640,393.013,393.015,181.785,12.040,359.987,4.482,-0.051,0.0000,-0.2282,0.0000,0.6552,0.5000,0.0000,0.0000
67.151,Upwind,4446.911,1.637,4446.911,1.637,395.420,395.422,181.797,12.030,359.987,4.479,-0.050,0.0001,-0.2281,0.0000,0.6550,0.5000,0.0000,0.0000
67.339,Upwind,4464.142,1.633,4464.142,1.633,397.825,397.827,181.809,12.019,359.987,4.475,-0.050,0.0000,-0.2280,0.0000,0.6549,0.5000,0.0000,0.0000
67.540,Upwind,4482.941,1.629,4482.941,1.629,400.228,400.230,181.821,12.009,359.987,4.471,-0.050,0.0000,-0.2279,0.0000,0.6547,0.5000,0.0000,0.0000
67.743,Upwind,4503.309,1.625,4503.309,1.625,402.628,402.630,181.832,11.998,359.987,4.468,-0.050,0.0001,-0.2279,0.0000,0.6545,0.5000,0.0000,0.0000
67.944,Upwind,4522.112,1.621,4522.112,1.621,405.027,405.029,181.844,11.988,359.986,4.464,-0.049,0.0001,-0.2278,0.0000,0.6544,0.5000,0.0000,0.0000
68.146,Upwind,4540.917,1.617,4540.917,1.617,407.424,407.425,181.855,11.977,359.986,4.460,-0.049,0.0001,-0.2277,0.0000,0.6542,0.5000,0.0000,0.0000
68.340,Upwind,4558.156,1.613,4558.156,1.613,409.818,409.820,181.866,11.967,359.986,4.457,-0.049,0.0000,-0.2276,0.0000,0.6541,0.5000,0.0000,0.0000
68.542,Upwind,4576.965,1.609,4576.965,1.609,412.210,412.212,181.877,11.956,359.986,4.453,-0.049,0.0000,-0.2275,0.0000,0.6539,0.5000,0.0000,0.0000
68.746,Upwind,4597.343,1.605,4597.343,1.605,414.600,414.602,181.888,11.945,359.986,4.450,-0.048,0.0001,-0.2274,0.0000,0.6537,0.5000,0.0000,0.0000
68.939,Upwind,4614.587,1.601,4614.587,1.601,416.789,416.791,181.898,11.935,359.986,4.446,-0.048,0.0000,-0.2273,0.0000,0.6536,0.5000,0.0000,0.0000
69.146,Upwind,4634.969,1.597,4634.969,1.597,419.374,419.376,181.910,11.923,359.986,4.442,-0.048,0.0000,-0.2272,0.0000,0.6534,0.5000,0.0000,0.0000
69.345,Upwind,4653.784,1.592,4653.784,1.592,421.757,421.759,181.920,11.912,359.985,4.439,-0.048,0.0001,-0.2271,0.0000,0.6533,0.5000,0.0000,0.0000
69.551,Upwind,4672.602,1.588,4672.602,1.588,424.139,424.141,181.931,11.901,359.985,4.435,-0.047,0.0000,-0.2270,0.0000,0.6531,0.5000,0.0000,0.0000
69.743,Upwind,4691.421,1.584,4691.421,1.584,426.518,426.520,181.941,11.890,359.985,4.432,-0.047,0.0000,-0.2270,0.0000,0.6530,0.5000,0.0000,0.0000
69.949,Upwind,4710.242,1.580,4710.242,1.580,428.895,428.897,181.951,11.879,359.985,4.428,-0.047,0.0000,-0.2269,0.0000,0.6529,0.5000,0.0000,0.0000
70.150,Upwind,4729.065,1.575,4729.065,1.575,431.270,431.272,181.961,11.868,359.985,4.425,-0.047,0.0001,-0.2268,0.0000,0.6527,0.5000,0.0000,0.0000
70.348,Upwind,4747.889,1.571,4747.889,1.571,433.642,433.644,181.971,11.857,359.985,4.421,-0.047,0.0000,-0.2267,0.0000,0.6526,0.5000,0.0000,0.0000
70.547,Upwind,4766.715,1.566,4766.715,1.566,436.013,436.015,181.981,11.846,359.985,4.418,-0.046,0.0000,-0.2266,0.0000,0.6524,0.5000,0.0000,0.0000
70.742,Upwind,4783.974,1.562,4783.974,1.562,438.381,438.383,181.991,11.835,359.985,4.414,-0.046,0.0000,-0.2266,0.0000,0.6523,0.5000,0.0000,0.0000
70.944,Upwind,4804.372,1.557,4804.372,1.557,440.746,440.748,182.001,11.823,359.985,4.411,-0.046,0.0000,-0.2265,0.0000,0.6522,0.5000,0.0000,0.0000
71.141,Upwind,4821.634,1.553,4821.634,1.553,443.110,443.112,182.010,11.812,359.985,4.407,-0.046,0.0001,-0.2264,0.0000,0.6520,0.5000,0.0000,0.0000
71.352,Upwind,4842.036,1.548,4842.036,1.548,445.471,445.473,182.020,11.801,359.985,4.404,-0.045,0.0000,-0.2263,0.0000,0.6519,0.5000,0.0000,0.0000
71.547,Upwind,4860.870,1.544,4860.870,1.544,447.830,447.832,182.029,11.789,359.985,4.400,-0.045,0.0000,-0.2262,0.0000,0.6518,0.5000,0.0000,0.0000
71.747,Upwind,4879.706,1.539,4879.706,1.539,450.187,450.189,182.038,11.778,359.985,4.397,-0.045,0.0000,-0.2262,0.0000,0.6516,0.5000,0.0000,0.0000
71.942,Upwind,4898.544,1.535,4898.544,1.535,452.541,452.543,182.048,11.766,359.984,4.393,-0.045,0.0000,-0.2261,0.0000,0.6515,0.5000,0.0000,0.0000
72.143,Upwind,4917.383,1.530,4917.383,1.530,454.893,454.896,182.057,11.755,359.984,4.390,-0.045,0.0001,-0.2260,0.0000,0.6514,0.5000,0.0000,0.0000
72.352,Upwind,4936.224,1.526,4936.224,1.526,457.243,457.245,182.066,11.743,359.984,4.386,-0.044,0.0001,-0.2259,0.0000,0.6512,0.5000,0.0000,0.0000
72.542,Upwind,4953.496,1.521,4953.496,1.521,459.591,459.593,182.075,11.732,359.984,4.383,-0.044,0.0000,-0.2259,0.0000,0.6511,0.5000,0.0000,0.0000
72.750,Upwind,4973.910,1.516,4973.910,1.516,461.936,461.938,182.084,11.720,359.984,4.380,-0.044,0.0000,-0.2258,0.0000,0.6510,0.5000,0.0000,0.0000
72.950,Upwind,4992.756,1.512,4992.756,1.512,464.279,464.281,182.092,11.709,359.984,4.376,-0.044,0.0000,-0.2257,0.0000,0.6509,0.5000,0.0000,0.0000
73.152,Upwind,5011.603,1.507,5011.603,1.507,466.619,466.622,182.101,11.697,359.984,4.373,-0.044,0.0000,-0.2257,0.0000,0.6507,0.5000,0.0000,0.0000
73.344,Upwind,5030.452,1.502,5030.452,1.502,468.958,468.960,182.110,11.686,359.984,4.369,-0.043,0.0000,-0.2256,0.0000,0.6506,0.5000,0.0000,0.0000
73.542,Upwind,5047.731,1.498,5047.731,1.498,471.294,471.296,182.118,11.674,359.984,4.366,-0.043,0.0000,-0.2255,0.0000,0.6505,0.5000,0.0000,0.0000
73.744,Upwind,5068.154,1.493,5068.154,1.493,473.627,473.629,182.127,11.662,359.984,4.363,-0.043,0.0000,-0.2254,0.0000,0.6504,0.5000,0.0000,0.0000
73.943,Upwind,5087.007,1.488,5087.007,1.488,475.958,475.961,182.135,11.651,359.984,4.359,-0.043,0.0000,-0.2254,0.0000,0.6503,0.5000,0.0000,0.0000
74.140,Upwind,5104.290,1.484,5104.290,1.484,478.287,478.290,182.144,11.639,359.984,4.356,-0.043,0.0000,-0.2253,0.0000,0.6501,0.5000,0.0000,0.0000
74.340,Upwind,5123.147,1.479,5123.147,1.479,480.614,480.616,182.152,11.627,359.984,4.352,-0.043,0.0000,-0.2252,0.0000,0.6500,0.5000,0.0000,0.0000
74.548,Upwind,5143.576,1.474,5143.576,1.474,482.938,482.941,182.161,11.615,359.984,4.349,-0.042,0.0000,-0.2252,0.0000,0.6499,0.5000,0.0000,0.0000
74.740,Upwind,5160.864,1.470,5160.864,1.470,485.260,485.262,182.169,11.604,359.984,4.346,-0.042,0.0000,-0.2251,0.0000,0.6498,0.5000,0.0000,0.0000
74.948,Upwind,5181.296,1.465,5181.296,1.465,487.580,487.582,182.177,11.592,359.984,4.342,-0.042,0.0001,-0.2250,0.0000,0.6497,0.5000,0.0000,0.0000
75.139,Upwind,5198.587,1.461,5198.587,1.461,489.897,489.899,182.185,11.580,359.984,4.339,-0.042,0.0000,-0.2250,0.0000,0.6496,0.5000,0.0000,0.0000
75.349,Upwind,5219.023,1.456,5219.023,1.456,492.212,492.214,182.193,11.568,359.984,4.336,-0.042,0.0001,-0.2249,0.0000,0.6494,0.5000,0.0000,0.0000
75.551,Upwind,5237.888,1.451,5237.888,1.451,494.524,494.526,182.201,11.556,359.984,4.332,-0.042,0.0000,-0.2248,0.0000,0.6493,0.5000,0.0000,0.0000
75.745,Upwind,5256.755,1.446,5256.755,1.446,496.834,496.837,182.209,11.545,359.984,4.329,-0.041,0.0000,-0.2248,0.0000,0.6492,0.5000,0.0000,0.0000
75.960,Upwind,5277.196,1.441,5277.196,1.441,499.142,499.144,182.217,11.533,359.984,4.326,-0.041,0.0001,-0.2247,0.0000,0.6491,0.5000,0.0000,0.0000
76.147,Crosswind,5294.493,1.437,5294.493,1.437,501.448,501.450,182.215,11.529,359.984,4.320,-0.050,-0.1137,-0.1701,0.0000,0.5925,0.5000,0.0000,0.0000
76.356,Crosswind,5313.358,1.432,5313.358,1.432,503.753,503.755,182.141,11.516,359.985,4.283,-0.177,-0.1006,-0.1772,0.0000,0.5907,0.5000,0.0000,0.0000
76.545,Crosswind,5332.216,1.426,5332.216,1.426,506.051,506.054,182.068,11.465,359.987,4.216,-0.414,-0.0862,-0.1860,0.0000,0.5926,0.5000,0.0000,0.0000
76.749,Crosswind,5351.068,1.418,5351.068,1.418,508.335,508.338,181.999,11.366,359.988,4.132,-0.716,-0.0716,-0.1953,0.0000,0.5946,0.5000,0.0000,0.0000
76.942,Crosswind,5368.344,1.407,5368.344,1.407,510.594,510.597,181.937,11.218,359.987,4.044,-1.045,-0.0579,-0.2039,0.0001,0.5967,0.5000,0.0000,0.0000
77.140,Crosswind,5387.185,1.388,5387.185,1.388,512.636,512.638,181.885,11.045,359.982,3.968,-1.347,-0.0465,-0.2106,0.0002,0.5985,0.5000,0.0000,0.0000
77.340,Crosswind,5406.022,1.362,5406.022,1.362,515.003,515.006,181.831,10.805,359.971,3.891,-1.684,-0.0347,-0.2169,0.0003,0.6005,0.5000,0.0000,0.0000
77.548,Crosswind,5426.424,1.323,5426.424,1.323,517.140,517.143,181.786,10.564,359.954,3.836,-1.962,-0.0261,-0.2206,0.0005,0.6021,0.5000,0.0000,0.0000
77.749,Crosswind,5445.253,1.275,5445.253,1.275,519.228,519.231,181.747,10.317,359.929,3.798,-2.200,-0.0191,-0.2228,0.0007,0.6035,0.5000,0.0000,0.0000
77.945,Crosswind,5464.080,1.214,5464.080,1.214,521.267,521.270,181.712,10.074,359.897,3.775,-2.396,-0.0138,-0.2237,0.0008,0.6048,0.5000,0.0000,0.0000
78.152,Crosswind,5482.904,1.140,5482.904,1.140,523.259,523.262,181.680,9.845,359.856,3.766,-2.552,-0.0100,-0.2236,0.0010,0.6058,0.5000,0.0000,0.0000
78.339,Crosswind,5500.158,1.058,5500.158,1.058,525.046,525.049,181.654,9.653,359.811,3.765,-2.661,-0.0076,-0.2229,0.0011,0.6065,0.5000,0.0000,0.0000
78.549,Crosswind,5520.546,0.945,5520.546,0.945,527.115,527.118,181.627,9.449,359.752,3.771,-2.755,-0.0059,-0.2219,0.0013,0.6072,0.5000,0.0000,0.0000
78.753,Crosswind,5539.364,0.823,5539.364,0.823,528.988,528.991,181.603,9.285,359.691,3.780,-2.813,-0.0050,-0.2209,0.0014,0.6078,0.5000,0.0000,0.0000
78.943,Crosswind,5558.181,0.685,5558.181,0.685,530.830,530.833,181.581,9.142,359.625,3.788,-2.851,-0.0045,-0.2202,0.0015,0.6082,0.5000,0.0000,0.0000
79.147,Crosswind,5576.996,0.529,5576.996,0.529,532.646,532.649,181.561,9.018,359.557,3.794,-2.872,-0.0045,-0.2199,0.0015,0.6086,0.5000,0.0000,0.0000
79.343,Crosswind,5594.242,0.371,5594.242,0.371,534.438,534.441,181.543,8.909,359.487,3.797,-2.883,-0.0046,-0.2199,0.0015,0.6089,0.5000,0.0000,0.0000
79.544,Crosswind,5614.622,0.165,5614.622,0.165,536.210,536.213,181.526,8.811,359.416,3.796,-2.887,-0.0047,-0.2204,0.0015,0.6091,0.5000,0.0000,0.0000
79.753,Crosswind,5633.433,0.044,5633.433,0.044,537.963,537.966,181.510,8.721,359.346,3.791,-2.888,-0.0048,-0.2211,0.0015,0.6094,0.5000,0.0000,0.0000
79.945,Crosswind,5652.242,0.271,5652.242,0.271,539.699,539.702,181.495,8.636,359.278,3.784,-2.887,-0.0048,-0.2221,0.0015,0.6096,0.5000,0.0000,0.0000
80.147,Crosswind,5671.051,0.516,5671.051,0.516,541.418,541.421,181.482,8.554,359.211,3.774,-2.888,-0.0047,-0.2233,0.0014,0.6098,0.5000,0.0000,0.0000
80.348,Crosswind,5689.859,0.780,5689.859,0.780,543.121,543.123,181.470,8.474,359.147,3.764,-2.889,-0.0046,-0.2244,0.0014,0.6099,0.5000,0.0000,0.0000
80.546,Crosswind,5708.666,1.062,5708.666,1.062,544.808,544.810,181.459,8.395,359.086,3.752,-2.892,-0.0044,-0.2256,0.0013,0.6101,0.5000,0.0000,0.0000
80.748,Crosswind,5727.472,1.362,5727.472,1.362,546.479,546.481,181.449,8.317,359.027,3.741,-2.896,-0.0041,-0.2266,0.0013,0.6102,0.5000,0.0000,0.0000
80.949,Crosswind,5746.277,1.681,5746.277,1.681,548.134,548.137,181.440,8.240,358.971,3.731,-2.900,-0.0039,-0.2275,0.0012,0.6104,0.5000,0.0000,0.0000
81.146,Crosswind,5765.082,2.019,5765.082,2.019,549.775,549.777,181.433,8.165,358.917,3.723,-2.905,-0.0038,-0.2282,0.0012,0.6105,0.5000,0.0000,0.0000
81.340,Crosswind,5782.320,2.345,5782.320,2.345,551.400,551.403,181.426,8.093,358.864,3.716,-2.908,-0.0037,-0.2288,0.0011,0.6106,0.5000,0.0000,0.0000
81.544,Crosswind,5802.690,2.750,5802.690,2.750,553.012,553.015,181.420,8.023,358.812,3.710,-2.911,-0.0037,-0.2293,0.0011,0.6107,0.5000,0.0000,0.0000
81.743,Crosswind,5821.494,3.143,5821.494,3.143,554.610,554.613,181.414,7.958,358.761,3.705,-2.912,-0.0037,-0.2296,0.0011,0.6108,0.5000,0.0000,0.0000
81.945,Crosswind,5840.297,3.555,5840.297,3.555,556.195,556.198,181.409,7.897,358.710,3.702,-2.911,-0.0039,-0.2299,0.0011,0.6109,0.5000,0.0000,0.0000
82.148,Crosswind,5859.099,3.985,5859.099,3.985,557.769,557.772,181.405,7.840,358.659,3.699,-2.909,-0.0041,-0.2301,0.0011,0.6109,0.5000,0.0000,0.0000
82.341,Crosswind,5876.335,4.396,5876.335,4.396,559.332,559.334,181.401,7.787,358.607,3.697,-2.905,-0.0043,-0.2303,0.0011,0.6110,0.5000,0.0000,0.0000
82.544,Crosswind,5896.704,4.901,5896.704,4.901,560.884,560.887,181.397,7.739,358.555,3.695,-2.899,-0.0046,-0.2305,0.0012,0.6110,0.5000,0.0000,0.0000
82.751,Crosswind,5915.505,5.386,5915.505,5.386,562.427,562.430,181.394,7.694,358.502,3.693,-2.892,-0.0050,-0.2307,0.0012,0.6110,0.5000,0.0000,0.0000
82.952,Crosswind,5934.307,5.890,5934.307,5.890,563.962,563.965,181.391,7.652,358.448,3.691,-2.885,-0.0053,-0.2309,0.0012,0.6110,0.5000,0.0000,0.0000
83.146,Crosswind,5953.108,6.412,5953.108,6.412,565.488,565.491,181.389,7.614,358.392,3.689,-2.877,-0.0056,-0.2311,0.0012,0.6110,0.5000,0.0000,0.0000
83.350,Crosswind,5971.908,6.952,5971.908,6.952,567.007,567.010,181.387,7.578,358.337,3.686,-2.870,-0.0058,-0.2313,0.0012,0.6110,0.5000,0.0000,0.0000
83.547,Crosswind,5990.709,7.510,5990.709,7.510,568.520,568.522,181.385,7.544,358.280,3.684,-2.864,-0.0060,-0.2316,0.0012,0.6110,0.5000,0.0000,0.0000
83.745,Crosswind,6009.509,8.086,6009.509,8.086,570.025,570.028,181.383,7.513,358.223,3.682,-2.859,-0.0062,-0.2318,0.0012,0.6110,0.5000,0.0000,0.0000
83.942,Crosswind,6026.742,8.630,6026.742,8.630,571.525,571.528,181.382,7.483,358.166,3.679,-2.855,-0.0062,-0.2321,0.0012,0.6110,0.5000,0.0000,0.0000
84.149,Crosswind,6047.109,9.293,6047.109,9.293,573.019,573.022,181.381,7.455,358.109,3.677,-2.852,-0.0063,-0.2323,0.0012,0.6110,0.5000,0.0000,0.0000
84.353,Crosswind,6065.908,9.923,6065.908,9.923,574.507,574.510,181.380,7.429,358.051,3.674,-2.851,-0.0062,-0.2325,0.0012,0.6110,0.5000,0.0000,0.0000
84.549,Crosswind,6084.707,10.572,6084.707,10.572,575.990,575.993,181.379,7.404,357.994,3.672,-2.850,-0.0062,-0.2328,0.0012,0.6111,0.5000,0.0000,0.0000
84.747,Crosswind,6103.506,11.238,6103.506,11.238,577.469,577.472,181.379,7.380,357.937,3.670,-2.851,-0.0061,-0.2329,0.0012,0.6111,0.5000,0.0000,0.0000
84.950,Crosswind,6122.305,11.923,6122.305,11.923,578.943,578.945,181.379,7.358,357.881,3.668,-2.853,-0.0060,-0.2331,0.0012,0.6111,0.5000,0.0000,0.0000
85.148,Crosswind,6141.103,12.626,6141.103,12.626,580.412,580.415,181.380,7.337,357.825,3.666,-2.855,-0.0059,-0.2333,0.0012,0.6111,0.5000,0.0000,0.0000
85.342,Crosswind,6158.335,13.286,6158.335,13.286,581.878,581.880,181.380,7.318,357.769,3.665,-2.858,-0.0058,-0.2334,0.0012,0.6111,0.5000,0.0000,0.0000
85.541,Crosswind,6177.133,14.024,6177.133,14.024,583.339,583.342,181.381,7.299,357.713,3.664,-2.860,-0.0056,-0.2335,0.0012,0.6111,0.5000,0.0000,0.0000
85.748,Crosswind,6197.497,14.844,6197.497,14.844,584.797,584.800,181.381,7.283,357.658,3.663,-2.863,-0.0056,-0.2336,0.0012,0.6111,0.5000,0.0000,0.0000
85.945,Crosswind,6216.295,15.620,6216.295,15.620,586.252,586.255,181.382,7.267,357.603,3.662,-2.865,-0.0055,-0.2337,0.0012,0.6111,0.5000,0.0000,0.0000
86.139,Crosswind,6233.526,16.347,6233.526,16.347,587.583,587.586,181.383,7.253,357.552,3.661,-2.867,-0.0054,-0.2338,0.0012,0.6111,0.5000,0.0000,0.0000
86.351,Crosswind,6253.889,17.227,6253.889,17.227,589.153,589.156,181.384,7.239,357.493,3.660,-2.868,-0.0054,-0.2338,0.0012,0.6111,0.5000,0.0000,0.0000
