time_s,leg,north_m,east_m,along_m,cross_m,agl_ft,altitude_ft,speed_kts,vertical_speed_fps,heading_deg,pitch_deg,roll_deg,aileron_cmd,elevator_cmd,rudder_cmd,throttle_cmd,flaps_cmd,gear_cmd,brake_cmd
0.000,Upwind,0.365,0.000,0.000,0.000,3.691,3.691,0.000,0.000,0.000,0.449,0.000,0.0000,0.0022,0.0000,0.1253,0.5000,1.0000,1.0000
0.196,Upwind,0.365,0.000,0.000,0.000,3.691,3.691,0.000,0.000,0.000,0.449,0.000,0.0000,0.0316,0.0000,0.0273,0.5000,1.0000,1.0000
0.396,Upwind,0.365,0.000,0.000,0.000,3.691,3.691,0.000,0.000,0.000,0.449,0.000,0.0000,0.0617,0.0000,0.0000,0.5000,1.0000,1.0000
0.592,Upwind,0.365,0.000,0.000,0.000,3.691,3.691,0.000,0.000,0.000,0.450,0.000,0.0000,0.0630,0.0000,0.0000,0.5000,1.0000,1.0000
0.800,Upwind,0.365,0.000,0.000,0.000,3.691,3.691,0.000,0.000,0.000,0.450,0.000,0.0000,0.0630,0.0000,0.0216,0.5000,1.0000,0.0000
0.993,Upwind,0.365,0.000,0.000,0.000,3.691,3.691,0.000,0.000,0.000,0.450,0.000,0.0000,0.0629,0.0000,0.1182,0.5000,1.0000,0.0000
1.193,Upwind,0.365,0.000,0.000,0.000,3.691,3.691,0.000,0.000,0.000,0.450,0.000,0.0000,0.0629,0.0000,0.2183,0.5000,1.0000,0.0000
1.400,Upwind,0.365,0.000,0.000,0.000,3.691,3.691,0.000,0.000,0.000,0.450,0.000,0.0000,0.0629,0.0000,0.3218,0.5000,1.0000,0.0000
1.586,Upwind,0.365,0.000,0.000,0.000,3.691,3.691,0.000,0.000,0.000,0.449,0.000,0.0000,0.0629,0.0000,0.4148,0.5000,1.0000,0.0000
1.798,Upwind,0.365,0.000,0.000,0.000,3.691,3.691,0.000,0.000,0.000,0.449,0.000,0.0000,0.0629,0.0000,0.5206,0.5000,1.0000,0.0000
1.985,Upwind,0.365,0.000,0.000,0.000,3.691,3.691,0.000,0.000,0.000,0.449,0.000,0.0000,0.0628,0.0000,0.6145,0.5000,1.0000,0.0000
2.200,Upwind,0.365,0.000,0.000,0.000,3.691,3.691,0.002,0.000,0.000,0.449,0.000,0.0000,0.0628,0.0000,0.7217,0.5000,1.0000,0.0000
2.394,Upwind,0.366,0.000,0.001,0.000,3.691,3.691,0.011,0.000,0.000,0.449,0.000,0.0000,0.0628,0.0000,0.8185,0.5000,1.0000,0.0000
2.589,Upwind,0.368,0.000,0.003,0.000,3.691,3.691,0.028,0.000,0.000,0.449,0.000,0.0000,0.0629,0.0000,0.9162,0.5000,1.0000,0.0000
2.796,Upwind,0.372,0.000,0.007,0.000,3.691,3.691,0.056,0.000,0.000,0.449,0.000,0.0000,0.0629,0.0000,1.0000,0.5000,1.0000,0.0000
2.986,Upwind,0.380,0.000,0.015,0.000,3.691,3.691,0.097,0.000,0.000,0.449,0.000,0.0000,0.0629,0.0000,1.0000,0.5000,1.0000,0.0000
3.187,Upwind,0.394,0.000,0.029,0.000,3.691,3.691,0.153,0.000,0.000,0.449,0.000,0.0000,0.0629,0.0000,1.0000,0.5000,1.0000,0.0000
3.396,Upwind,0.414,0.000,0.049,0.000,3.691,3.691,0.227,0.000,0.000,0.449,0.000,0.0000,0.0629,0.0000,1.0000,0.5000,1.0000,0.0000
3.593,Upwind,0.443,0.000,0.078,0.000,3.691,3.691,0.323,0.000,0.000,0.449,0.000,0.0000,0.0629,0.0000,1.0000,0.5000,1.0000,0.0000
3.796,Upwind,0.483,0.000,0.118,0.000,3.691,3.691,0.443,0.000,0.000,0.449,0.000,0.0000,0.0629,0.0000,1.0000,0.5000,1.0000,0.0000
3.995,Upwind,0.537,0.000,0.172,0.000,3.691,3.691,0.593,0.000,0.000,0.450,0.000,0.0000,0.0630,0.0000,1.0000,0.5000,1.0000,0.0000
4.190,Upwind,0.609,0.000,0.244,0.000,3.691,3.691,0.777,0.000,0.000,0.450,0.000,0.0000,0.0630,0.0000,1.0000,0.5000,1.0000,0.0000
4.400,Upwind,0.702,0.000,0.337,0.000,3.691,3.691,1.001,0.000,0.000,0.450,0.000,0.0000,0.0630,0.0000,1.0000,0.5000,1.0000,0.0000
4.590,Upwind,0.821,0.000,0.456,0.000,3.691,3.691,1.272,0.000,0.000,0.450,0.000,0.0000,0.0631,0.0000,1.0000,0.5000,1.0000,0.0000
4.796,Upwind,0.971,0.000,0.606,0.000,3.691,3.691,1.596,0.000,0.000,0.450,0.000,0.0000,0.0631,0.0000,1.0000,0.5000,1.0000,0.0000
4.999,Upwind,1.157,0.000,0.792,0.000,3.691,3.691,1.982,0.000,0.000,0.451,0.000,0.0000,0.0631,0.0000,1.0000,0.5000,1.0000,0.0000
5.186,Upwind,1.388,0.000,1.023,0.000,3.691,3.691,2.436,0.000,0.000,0.451,0.000,0.0000,0.0632,0.0000,1.0000,0.5000,1.0000,0.0000
5.396,Upwind,1.670,0.000,1.305,0.000,3.691,3.691,2.968,0.000,0.000,0.452,0.000,0.0000,0.0633,0.0000,1.0000,0.5000,1.0000,0.0000
5.597,Upwind,2.011,0.000,1.646,0.000,3.691,3.691,3.585,0.000,0.000,0.452,0.000,0.0000,0.0633,0.0000,1.0000,0.5000,1.0000,0.0000
5.800,Upwind,2.422,0.000,2.057,0.000,3.691,3.691,4.295,0.000,0.000,0.452,0.000,0.0000,0.0634,0.0000,1.0000,0.5000,1.0000,0.0000
5.998,Upwind,2.912,0.000,2.547,0.000,3.691,3.691,5.106,0.000,0.000,0.453,0.000,0.0000,0.0634,0.0000,1.0000,0.5000,1.0000,0.0000
6.194,Upwind,3.492,0.000,3.127,0.000,3.691,3.691,5.944,0.000,0.000,0.453,0.000,0.0000,0.0635,0.0000,1.0000,0.5000,1.0000,0.0000
6.394,Upwind,4.173,0.000,3.808,0.000,3.691,3.691,7.059,0.000,0.000,0.454,0.000,0.0000,0.0636,0.0000,1.0000,0.5000,1.0000,0.0000
6.587,Upwind,4.967,0.000,4.602,0.000,3.691,3.691,8.213,0.001,0.000,0.454,0.000,0.0000,0.0637,0.0000,1.0000,0.5000,1.0000,0.0000
6.788,Upwind,5.888,0.000,5.523,0.000,3.691,3.691,9.480,0.001,0.000,0.455,0.000,0.0000,0.0637,0.0000,1.0000,0.5000,1.0000,0.0000
6.998,Upwind,6.940,0.000,6.575,0.000,3.691,3.691,10.765,0.001,0.000,0.455,0.000,0.0000,0.0636,0.0000,1.0000,0.5000,1.0000,0.0000
7.185,Upwind,8.125,0.000,7.760,0.000,3.691,3.692,12.049,0.001,0.000,0.454,0.000,0.0000,0.0636,0.0000,1.0000,0.5000,1.0000,0.0000
7.389,Upwind,9.442,0.000,9.077,0.000,3.692,3.692,13.332,0.001,0.000,0.454,0.000,0.0000,0.0635,0.0000,1.0000,0.5000,1.0000,0.0000
7.590,Upwind,10.890,0.000,10.525,0.000,3.692,3.692,14.615,0.001,0.000,0.454,0.000,0.0000,0.0635,0.0000,1.0000,0.5000,1.0000,0.0000
7.798,Upwind,12.471,0.000,12.106,0.000,3.692,3.692,15.896,0.001,0.000,0.453,0.000,0.0000,0.0634,0.0000,1.0000,0.5000,1.0000,0.0000
7.991,Upwind,14.183,0.000,13.818,0.000,3.693,3.693,17.176,0.002,0.000,0.453,0.000,0.0000,0.0634,0.0000,1.0000,0.5000,1.0000,0.0000
8.193,Upwind,16.027,0.000,15.662,0.000,3.693,3.693,18.454,0.002,0.000,0.453,0.000,0.0000,0.0633,0.0000,1.0000,0.5000,1.0000,0.0000
8.391,Upwind,18.003,0.000,17.638,0.000,3.693,3.693,19.732,0.002,0.000,0.452,0.000,0.0000,0.0632,0.0000,1.0000,0.5000,1.0000,0.0000
8.597,Upwind,20.110,0.000,19.745,0.000,3.694,3.694,21.008,0.002,0.000,0.452,0.000,0.0000,0.0632,0.0000,1.0000,0.5000,1.0000,0.0000
8.797,Upwind,22.348,0.000,21.983,0.000,3.694,3.694,22.283,0.002,0.000,0.451,0.000,0.0000,0.0631,0.0000,1.0000,0.5000,1.0000,0.0000
8.992,Upwind,24.717,0.000,24.352,0.000,3.694,3.694,23.557,0.002,0.000,0.450,0.000,0.0000,0.0630,0.0000,1.0000,0.5000,1.0000,0.0000
9.186,Upwind,27.217,0.000,26.852,0.000,3.695,3.695,24.830,0.003,0.000,0.450,0.000,0.0000,0.0629,0.0000,1.0000,0.5000,1.0000,0.0000
9.393,Upwind,29.849,0.000,29.484,0.000,3.695,3.696,26.101,0.003,0.000,0.449,0.000,0.0000,0.0628,0.0000,1.0000,0.5000,1.0000,0.0000
9.591,Upwind,32.610,0.000,32.245,0.000,3.696,3.696,27.371,0.003,0.000,0.448,0.000,0.0000,0.0627,0.0000,1.0000,0.5000,1.0000,0.0000
9.789,Upwind,35.503,0.000,35.138,0.000,3.697,3.697,28.640,0.003,0.000,0.447,0.000,0.0000,0.0625,0.0000,1.0000,0.5000,1.0000,0.0000
9.993,Upwind,38.526,0.000,38.161,0.000,3.697,3.697,29.907,0.004,0.000,0.446,0.000,0.0000,0.0624,0.0000,1.0000,0.5000,1.0000,0.0000
10.190,Upwind,41.679,0.000,41.314,0.000,3.698,3.698,31.173,0.004,0.000,0.446,0.000,0.0000,0.0623,0.0000,1.0000,0.5000,1.0000,0.0000
10.397,Upwind,44.962,0.001,44.597,0.001,3.699,3.699,32.438,0.004,0.000,0.445,0.000,0.0000,0.0621,0.0000,1.0000,0.5000,1.0000,0.0000
10.590,Upwind,48.376,0.001,48.011,0.001,3.700,3.700,33.701,0.004,0.000,0.444,0.000,0.0000,0.0620,0.0000,1.0000,0.5000,1.0000,0.0000
10.789,Upwind,51.919,0.001,51.554,0.001,3.700,3.701,34.962,0.004,0.000,0.442,0.000,0.0000,0.0618,0.0000,1.0000,0.5000,1.0000,0.0000
10.986,Upwind,55.592,0.001,55.227,0.001,3.701,3.701,36.222,0.005,0.000,0.441,0.000,0.0000,0.0616,0.0000,1.0000,0.5000,1.0000,0.0000
11.193,Upwind,59.395,0.001,59.030,0.001,3.702,3.702,37.480,0.005,0.000,0.440,0.000,0.0000,0.0615,0.0000,1.0000,0.5000,1.0000,0.0000
11.401,Upwind,63.327,0.001,62.962,0.001,3.703,3.703,38.737,0.005,0.000,0.439,0.000,0.0000,0.0613,0.0000,1.0000,0.5000,1.0000,0.0000
11.595,Upwind,67.388,0.001,67.023,0.001,3.704,3.704,39.992,0.005,0.000,0.437,0.000,0.0000,0.0611,0.0000,1.0000,0.5000,1.0000,0.0000
11.786,Upwind,71.578,0.001,71.213,0.001,3.705,3.705,41.245,0.006,0.000,0.436,0.000,0.0000,0.0609,0.0000,1.0000,0.5000,1.0000,0.0000
11.995,Upwind,75.897,0.001,75.532,0.001,3.707,3.707,42.497,0.006,0.000,0.434,0.000,0.0000,0.0607,0.0000,1.0000,0.5000,1.0000,0.0000
12.195,Upwind,80.345,0.001,79.980,0.001,3.708,3.708,43.747,0.006,0.000,0.433,0.000,0.0000,0.0604,0.0000,1.0000,0.5000,1.0000,0.0000
12.385,Upwind,84.921,0.001,84.556,0.001,3.709,3.709,44.995,0.007,0.000,0.431,0.000,0.0000,0.0602,0.0000,1.0000,0.5000,1.0000,0.0000
12.590,Upwind,89.625,0.002,89.260,0.002,3.711,3.711,46.241,0.007,0.000,0.429,0.000,-0.0001,0.0599,0.0000,1.0000,0.5000,1.0000,0.0000
12.787,Upwind,94.458,0.002,94.093,0.002,3.712,3.712,47.485,0.008,0.000,0.427,0.000,-0.0001,0.0596,0.0000,1.0000,0.5000,1.0000,0.0000
12.988,Upwind,99.418,0.002,99.053,0.002,3.714,3.714,48.727,0.008,0.000,0.425,0.000,-0.0001,0.0593,0.0000,1.0000,0.5000,1.0000,0.0000
13.188,Upwind,104.507,0.002,104.141,0.002,3.715,3.715,49.967,0.009,0.000,0.423,0.000,-0.0001,0.0590,0.0000,1.0000,0.5000,1.0000,0.0000
13.391,Upwind,109.722,0.002,109.357,0.002,3.717,3.717,51.205,0.009,0.001,0.421,0.000,-0.0001,0.0587,0.0000,1.0000,0.5000,1.0000,0.0000
13.587,Upwind,115.065,0.002,114.700,0.002,3.719,3.719,52.440,0.009,0.001,0.419,0.000,-0.0001,0.0584,0.0000,1.0000,0.5000,1.0000,0.0000
13.792,Upwind,120.535,0.003,120.170,0.003,3.721,3.721,53.674,0.010,0.001,0.416,0.000,-0.0001,0.0580,0.0000,1.0000,0.5000,1.0000,0.0000
13.992,Upwind,126.131,0.003,125.766,0.003,3.723,3.723,54.905,0.010,0.001,0.414,0.000,-0.0001,0.0577,0.0000,1.0000,0.5000,1.0000,0.0000
14.189,Upwind,131.854,0.003,131.489,0.003,3.725,3.725,56.134,0.009,0.001,0.411,0.000,-0.0001,0.0573,0.0000,1.0000,0.5000,1.0000,0.0000
14.387,Upwind,137.704,0.003,137.339,0.003,3.726,3.726,57.360,0.008,0.001,0.409,0.000,-0.0001,0.0570,0.0000,1.0000,0.5000,1.0000,0.0000
14.594,Upwind,143.679,0.004,143.314,0.004,3.728,3.728,58.585,0.008,0.001,0.407,0.000,-0.0001,0.0568,0.0000,1.0000,0.5000,1.0000,0.0000
14.788,Upwind,149.781,0.004,149.416,0.004,3.729,3.729,59.808,0.008,0.001,0.405,0.000,-0.0001,0.0565,0.0000,1.0000,0.5000,1.0000,0.0000
15.000,Upwind,156.008,0.004,155.643,0.004,3.731,3.731,61.028,0.008,0.001,0.403,0.000,-0.0001,0.0562,0.0000,1.0000,0.5000,1.0000,0.0000
15.192,Upwind,162.360,0.005,161.995,0.005,3.733,3.733,62.247,0.008,0.001,0.401,0.000,-0.0001,0.0559,0.0000,1.0000,0.5000,1.0000,0.0000
15.396,Upwind,168.838,0.005,168.473,0.005,3.734,3.734,63.463,0.009,0.001,0.398,0.000,-0.0002,0.0556,0.0000,1.0000,0.5000,1.0000,0.0000
15.593,Upwind,175.441,0.005,175.076,0.005,3.736,3.736,64.677,0.009,0.001,0.396,0.000,-0.0002,0.0552,0.0000,1.0000,0.5000,1.0000,0.0000
15.793,Upwind,182.169,0.006,181.804,0.006,3.738,3.738,65.889,0.009,0.001,0.394,0.000,-0.0002,0.0549,0.0000,1.0000,0.5000,1.0000,0.0000
15.996,Upwind,189.021,0.006,188.656,0.006,3.740,3.740,67.099,0.009,0.002,0.392,0.000,-0.0002,0.0546,0.0000,1.0000,0.5000,1.0000,0.0000
16.193,Upwind,195.997,0.007,195.632,0.007,3.741,3.741,68.306,0.009,0.002,0.389,0.000,-0.0002,0.0543,0.0000,1.0000,0.5000,1.0000,0.0000
16.387,Upwind,203.098,0.007,202.733,0.007,3.743,3.743,69.512,0.009,0.002,0.387,0.000,-0.0002,0.0539,0.0000,1.0000,0.5000,1.0000,0.0000
16.595,Upwind,210.323,0.007,209.958,0.007,3.745,3.745,70.715,0.009,0.002,0.385,0.000,-0.0002,0.0536,0.0000,1.0000,0.5000,1.0000,0.0000
16.786,Upwind,217.671,0.008,217.306,0.008,3.747,3.747,71.915,0.010,0.002,0.382,0.000,-0.0003,0.0533,0.0000,1.0000,0.5000,1.0000,0.0000
16.999,Upwind,225.142,0.009,224.777,0.009,3.749,3.749,73.114,0.010,0.002,0.380,0.000,-0.0003,0.0529,0.0000,1.0000,0.5000,1.0000,0.0000
17.193,Upwind,232.737,0.009,232.372,0.009,3.751,3.751,74.310,0.010,0.002,0.377,0.000,-0.0003,0.0526,0.0000,1.0000,0.5000,1.0000,0.0000
17.390,Upwind,240.455,0.010,240.090,0.010,3.753,3.753,75.503,0.010,0.003,0.375,0.000,-0.0003,0.0522,0.0000,1.0000,0.5000,1.0000,0.0000
17.589,Upwind,248.295,0.010,247.930,0.010,3.755,3.755,76.695,0.010,0.003,0.372,0.000,-0.0003,0.0518,0.0000,1.0000,0.5000,1.0000,0.0000
17.794,Upwind,256.258,0.011,255.893,0.011,3.757,3.757,77.884,0.010,0.003,0.370,0.000,-0.0003,0.0515,0.0000,1.0000,0.5000,1.0000,0.0000
17.990,Upwind,264.343,0.012,263.978,0.012,3.759,3.759,79.070,0.010,0.003,0.367,0.000,-0.0004,0.0511,0.0000,1.0000,0.5000,1.0000,0.0000
18.193,Upwind,272.550,0.013,272.185,0.013,3.761,3.761,80.254,0.010,0.003,0.364,0.000,-0.0004,0.0507,0.0000,1.0000,0.5000,1.0000,0.0000
18.392,Upwind,280.878,0.013,280.513,0.013,3.763,3.763,81.436,0.011,0.003,0.362,0.000,-0.0004,0.0504,0.0000,1.0000,0.5000,1.0000,0.0000
18.590,Upwind,289.328,0.014,288.963,0.014,3.765,3.765,82.615,0.011,0.004,0.359,0.000,-0.0004,0.0500,0.0000,1.0000,0.5000,1.0000,0.0000
18.791,Upwind,297.900,0.015,297.535,0.015,3.767,3.767,83.792,0.011,0.004,0.356,0.000,-0.0005,0.0496,0.0000,1.0000,0.5000,1.0000,0.0000
18.990,Upwind,306.592,0.016,306.227,0.016,3.769,3.769,84.966,0.011,0.004,0.353,0.000,-0.0005,0.0492,0.0000,1.0000,0.5000,1.0000,0.0000
19.194,Upwind,315.405,0.017,315.040,0.017,3.772,3.772,86.138,0.011,0.004,0.351,0.000,-0.0005,0.0488,0.0000,1.0000,0.5000,1.0000,0.0000
19.391,Upwind,324.338,0.018,323.973,0.018,3.774,3.774,87.307,0.011,0.004,0.348,0.000,-0.0005,0.0484,0.0000,1.0000,0.5000,1.0000,0.0000
19.596,Upwind,333.391,0.019,333.026,0.019,3.776,3.776,88.474,0.011,0.005,0.345,0.000,-0.0006,0.0480,0.0000,1.0000,0.5000,1.0000,0.0000
19.798,Upwind,342.564,0.020,342.199,0.020,3.778,3.778,89.637,0.011,0.005,0.342,0.000,-0.0006,0.0476,0.0000,1.0000,0.5000,1.0000,0.0000
19.991,Upwind,351.858,0.022,351.492,0.022,3.781,3.781,90.799,0.012,0.005,0.339,0.000,-0.0006,0.0472,0.0000,1.0000,0.5000,1.0000,0.0000
20.190,Upwind,361.269,0.023,360.904,0.023,3.783,3.783,91.958,0.012,0.005,0.336,0.000,-0.0007,0.0468,0.0000,1.0000,0.5000,1.0000,0.0000
20.415,Upwind,371.601,0.024,371.236,0.024,3.785,3.785,93.114,0.012,0.006,0.333,0.000,-0.0007,0.0463,0.0000,1.0000,0.5000,1.0000,0.0000
20.591,Upwind,380.451,0.026,380.086,0.026,3.787,3.788,94.267,0.012,0.006,0.330,0.000,-0.0007,0.0459,0.0000,1.0000,0.5000,1.0000,0.0000
20.790,Upwind,390.220,0.027,389.855,0.027,3.790,3.790,95.418,0.012,0.006,0.327,0.000,-0.0008,0.0455,0.0000,1.0000,0.5000,1.0000,0.0000
20.990,Upwind,400.106,0.029,399.741,0.029,3.792,3.792,96.566,0.012,0.007,0.324,0.000,-0.0008,0.0451,0.0000,1.0000,0.5000,1.0000,0.0000
21.195,Upwind,410.111,0.030,409.746,0.030,3.795,3.795,97.712,0.012,0.007,0.321,0.000,-0.0008,0.0446,0.0000,1.0000,0.5000,1.0000,0.0000
21.394,Upwind,420.234,0.032,419.869,0.032,3.797,3.797,98.854,0.012,0.007,0.318,0.000,-0.0009,0.0442,0.0000,1.0000,0.5000,1.0000,0.0000
21.588,Upwind,430.474,0.034,430.109,0.034,3.800,3.800,99.994,0.012,0.008,0.315,0.000,-0.0009,0.0438,0.0000,1.0000,0.5000,1.0000,0.0000
21.793,Upwind,440.831,0.036,440.466,0.036,3.802,3.802,101.132,0.013,0.008,0.312,0.000,-0.0010,0.0433,0.0000,1.0000,0.5000,1.0000,0.0000
21.988,Upwind,451.305,0.037,450.940,0.037,3.805,3.805,102.266,0.013,0.008,0.309,0.000,-0.0010,0.0429,0.0000,1.0000,0.5000,1.0000,0.0000
22.194,Upwind,461.895,0.039,461.530,0.039,3.807,3.807,103.398,0.013,0.009,0.305,0.000,-0.0010,0.0424,0.0000,1.0000,0.5000,1.0000,0.0000
22.385,Upwind,472.602,0.042,472.237,0.042,3.810,3.810,104.527,0.013,0.009,0.302,0.000,-0.0011,0.0420,0.0000,1.0000,0.5000,1.0000,0.0000
22.597,Upwind,483.425,0.044,483.060,0.044,3.812,3.812,105.653,0.013,0.009,0.299,0.000,-0.0011,0.0415,0.0000,1.0000,0.5000,1.0000,0.0000
22.800,Upwind,494.363,0.046,493.998,0.046,3.815,3.815,106.776,0.013,0.010,0.296,0.000,-0.0012,0.0411,0.0000,1.0000,0.5000,1.0000,0.0000
22.993,Upwind,505.417,0.048,505.052,0.048,3.817,3.817,107.896,0.013,0.010,0.292,0.000,-0.0012,0.0406,0.0000,1.0000,0.5000,1.0000,0.0000
23.194,Upwind,516.586,0.051,516.221,0.051,3.820,3.820,109.014,0.013,0.010,0.289,0.000,-0.0013,0.0401,0.0000,1.0000,0.5000,1.0000,0.0000
23.388,Upwind,527.870,0.054,527.505,0.054,3.823,3.823,110.129,0.013,0.011,0.286,0.000,-0.0013,0.0397,0.0000,1.0000,0.5000,1.0000,0.0000
23.596,Upwind,539.268,0.056,538.903,0.056,3.825,3.825,111.240,0.013,0.011,0.282,0.000,-0.0014,0.0392,0.0000,1.0000,0.5000,1.0000,0.0000
23.787,Upwind,550.780,0.059,550.415,0.059,3.828,3.828,112.257,0.013,0.012,0.279,0.000,-0.0014,0.0388,0.0000,1.0000,0.5000,1.0000,0.0000
23.988,Upwind,562.407,0.062,562.042,0.062,3.830,3.831,113.455,0.014,0.012,0.276,-0.001,-0.0015,0.0383,0.0000,1.0000,0.5000,1.0000,0.0000
24.191,Upwind,574.147,0.065,573.782,0.065,3.833,3.833,114.558,0.014,0.012,0.272,-0.001,-0.0015,0.0378,0.0000,1.0000,0.5000,1.0000,0.0000
24.388,Upwind,586.000,0.068,585.635,0.068,3.836,3.836,115.659,0.014,0.013,0.269,-0.001,-0.0016,0.0373,0.0000,1.0000,0.5000,1.0000,0.0000
24.597,Upwind,597.967,0.072,597.602,0.072,3.839,3.839,116.756,0.014,0.013,0.265,-0.001,-0.0017,0.0368,0.0000,1.0000,0.5000,1.0000,0.0000
24.788,Upwind,610.046,0.075,609.681,0.075,3.841,3.841,117.850,0.014,0.014,0.262,-0.001,-0.0017,0.0363,0.0000,1.0000,0.5000,1.0000,0.0000
24.993,Upwind,622.238,0.079,621.873,0.079,3.844,3.844,118.941,0.014,0.014,0.259,-0.001,-0.0018,0.0359,0.0000,1.0000,0.5000,1.0000,0.0000
25.186,Upwind,634.541,0.082,634.176,0.082,3.847,3.847,120.030,0.014,0.015,0.255,-0.001,-0.0018,0.0354,0.0000,1.0000,0.5000,1.0000,0.0000
25.390,Upwind,646.957,0.086,646.592,0.086,3.850,3.850,121.115,0.014,0.015,0.252,-0.001,-0.0019,0.0349,0.0000,1.0000,0.5000,1.0000,0.0000
25.590,Upwind,659.484,0.090,659.119,0.090,3.853,3.853,122.197,0.014,0.016,0.248,-0.001,-0.0020,0.0344,0.0000,1.0000,0.5000,1.0000,0.0000
25.789,Upwind,672.122,0.094,671.757,0.094,3.855,3.855,123.276,0.014,0.016,0.245,-0.001,-0.0020,0.0339,0.0000,1.0000,0.5000,1.0000,0.0000
25.999,Upwind,684.871,0.098,684.506,0.098,3.858,3.858,124.353,0.014,0.017,0.241,-0.001,-0.0021,0.0334,0.0000,1.0000,0.5000,1.0000,0.0000
26.188,Upwind,697.731,0.103,697.366,0.103,3.861,3.861,125.426,0.014,0.017,0.237,-0.001,-0.0022,0.0329,0.0000,1.0000,0.5000,1.0000,0.0000
26.390,Upwind,710.700,0.107,710.335,0.107,3.864,3.864,126.496,0.014,0.018,0.234,-0.001,-0.0022,0.0324,0.0000,1.0000,0.5000,1.0000,0.0000
26.597,Upwind,723.780,0.112,723.415,0.112,3.867,3.867,127.563,0.014,0.018,0.230,-0.001,-0.0023,0.0319,0.0000,1.0000,0.5000,1.0000,0.0000
26.795,Upwind,736.969,0.117,736.604,0.117,3.870,3.870,128.627,0.015,0.019,0.227,-0.001,-0.0024,0.0314,0.0000,1.0000,0.5000,1.0000,0.0000
26.987,Upwind,750.268,0.122,749.903,0.122,3.873,3.873,129.688,0.015,0.019,0.223,-0.002,-0.0024,0.0309,0.0000,1.0000,0.5000,1.0000,0.0000
27.191,Upwind,763.676,0.127,763.311,0.127,3.875,3.875,130.746,0.015,0.020,0.219,-0.002,-0.0025,0.0304,0.0000,1.0000,0.5000,1.0000,0.0000
27.392,Upwind,777.192,0.132,776.827,0.132,3.878,3.878,131.801,0.015,0.020,0.216,-0.002,-0.0026,0.0299,0.0000,1.0000,0.5000,1.0000,0.0000
27.586,Upwind,790.817,0.138,790.452,0.138,3.881,3.881,132.853,0.015,0.021,0.212,-0.002,-0.0027,0.0293,0.0000,1.0000,0.5000,1.0000,0.0000
27.801,Upwind,804.549,0.144,804.184,0.144,3.884,3.884,133.902,0.015,0.021,0.209,-0.002,-0.0027,0.0288,0.0000,1.0000,0.5000,1.0000,0.0000
27.987,Upwind,818.390,0.149,818.025,0.149,3.887,3.887,134.948,0.015,0.022,0.205,-0.002,-0.0028,0.0283,0.0000,1.0000,0.5000,1.0000,0.0000
28.195,Upwind,832.338,0.156,831.973,0.156,3.890,3.890,135.992,0.015,0.023,0.201,-0.002,-0.0029,0.0278,0.0000,1.0000,0.5000,1.0000,0.0000
28.390,Upwind,846.393,0.162,846.028,0.162,3.893,3.893,137.033,0.015,0.023,0.198,-0.002,-0.0030,0.0273,0.0000,1.0000,0.5000,1.0000,0.0000
28.586,Upwind,860.555,0.168,860.190,0.168,3.896,3.896,138.072,0.015,0.024,0.194,-0.002,-0.0031,0.0268,0.0000,1.0000,0.5000,1.0000,0.0000
28.798,Upwind,874.825,0.175,874.459,0.175,3.899,3.899,139.108,0.015,0.024,0.190,-0.002,-0.0032,0.0262,0.0000,1.0000,0.5000,1.0000,0.0000
28.989,Upwind,889.200,0.182,888.835,0.182,3.902,3.902,140.141,0.015,0.025,0.186,-0.002,-0.0032,0.0257,0.0000,1.0000,0.5000,1.0000,0.0000
29.191,Upwind,903.681,0.189,903.316,0.189,3.905,3.905,141.171,0.015,0.025,0.183,-0.003,-0.0033,0.0252,0.0000,1.0000,0.5000,1.0000,0.0000
29.389,Upwind,918.269,0.196,917.903,0.196,3.908,3.908,142.199,0.015,0.026,0.179,-0.003,-0.0034,0.0247,0.0000,1.0000,0.5000,1.0000,0.0000
29.598,Upwind,932.962,0.203,932.597,0.203,3.911,3.911,143.224,0.015,0.027,0.175,-0.003,-0.0035,0.0241,0.0000,1.0000,0.5000,1.0000,0.0000
29.791,Upwind,947.760,0.211,947.395,0.211,3.914,3.914,144.247,0.015,0.027,0.171,-0.003,-0.0036,0.0236,0.0000,1.0000,0.5000,1.0000,0.0000
29.995,Upwind,962.663,0.219,962.298,0.219,3.917,3.917,145.266,0.015,0.028,0.168,-0.003,-0.0037,0.0231,0.0000,1.0000,0.5000,1.0000,0.0000
30.186,Upwind,977.671,0.227,977.306,0.227,3.921,3.921,146.283,0.016,0.028,0.164,-0.003,-0.0038,0.0225,0.0000,1.0000,0.5000,1.0000,0.0000
30.397,Upwind,992.784,0.235,992.419,0.235,3.924,3.924,147.297,0.016,0.029,0.160,-0.003,-0.0039,0.0220,0.0000,1.0000,0.5000,1.0000,0.0000
30.589,Upwind,1008.000,0.243,1007.635,0.243,3.927,3.927,148.309,0.016,0.029,0.156,-0.003,-0.0040,0.0215,0.0000,1.0000,0.5000,1.0000,0.0000
30.795,Upwind,1023.321,0.252,1022.956,0.252,3.930,3.930,149.317,0.016,0.030,0.152,-0.004,-0.0041,0.0209,0.0000,1.0000,0.5000,1.0000,0.0000
30.988,Upwind,1038.745,0.261,1038.380,0.261,3.933,3.933,150.323,0.015,0.031,0.149,-0.004,-0.0042,-0.0091,0.0000,1.0000,0.5000,1.0000,0.0000
31.193,Upwind,1054.273,0.270,1053.908,0.270,3.935,3.935,151.325,0.005,0.031,0.152,-0.004,-0.0043,-0.1012,0.0000,1.0000,0.5000,1.0000,0.0000
31.398,Upwind,1069.903,0.279,1069.538,0.279,3.935,3.935,152.320,-0.007,0.032,0.169,-0.004,-0.0043,-0.1934,0.0000,1.0000,0.5000,1.0000,0.0000
31.593,Upwind,1085.635,0.289,1085.270,0.289,3.933,3.933,153.306,-0.007,0.033,0.188,-0.004,-0.0045,-0.2811,0.0000,1.0000,0.5000,1.0000,0.0000
31.787,Upwind,1101.468,0.299,1101.103,0.299,3.932,3.932,154.284,-0.002,0.033,0.205,-0.004,-0.0046,-0.3684,0.0000,1.0000,0.5000,1.0000,0.0000
31.992,Upwind,1117.401,0.309,1117.036,0.309,3.932,3.932,155.253,0.005,0.034,0.222,-0.005,-0.0047,-0.4607,0.0000,1.0000,0.5000,1.0000,0.0000
32.189,Upwind,1133.434,0.319,1133.069,0.319,3.935,3.935,156.214,0.030,0.035,0.269,-0.005,-0.0048,-0.5494,0.0000,1.0000,0.5000,1.0000,0.0000
32.390,Upwind,1149.565,0.329,1149.200,0.329,3.944,3.944,157.086,0.064,0.035,0.381,-0.005,-0.0049,-0.6398,0.0000,1.0000,0.5000,1.0000,0.0000
32.591,Upwind,1165.792,0.340,1165.427,0.340,3.964,3.964,158.107,0.127,0.036,0.640,-0.005,-0.0050,-0.6500,0.0000,1.0000,0.5000,1.0000,0.0000
32.785,Upwind,1180.753,0.350,1180.388,0.350,3.996,3.996,159.042,0.191,0.037,1.010,-0.005,-0.0051,-0.6500,0.0000,1.0000,0.5000,1.0000,0.0000
32.986,Upwind,1198.537,0.362,1198.172,0.362,4.040,4.040,159.969,0.246,0.038,1.496,-0.005,-0.0053,-0.6500,0.0000,1.0000,0.5000,1.0000,0.0000
33.191,Upwind,1215.052,0.374,1214.687,0.374,4.094,4.094,160.887,0.293,0.038,2.089,-0.006,-0.0054,-0.6500,0.0000,1.0000,0.5000,1.0000,0.0000
33.394,Upwind,1231.661,0.386,1231.296,0.386,4.157,4.157,161.794,0.335,0.039,2.780,-0.006,-0.0055,-0.6500,0.0000,1.0000,0.5000,1.0000,0.0000
33.598,Upwind,1248.362,0.398,1247.997,0.398,4.227,4.227,162.688,0.372,0.040,3.558,-0.006,-0.0056,-0.6500,0.0000,1.0000,0.5000,1.0000,0.0000
33.792,Upwind,1265.155,0.410,1264.790,0.410,4.319,4.319,163.563,0.632,0.041,4.408,-0.009,-0.0053,-0.6500,0.0000,1.0000,0.5000,1.0000,0.0000
33.988,Upwind,1282.035,0.423,1281.670,0.423,4.515,4.515,164.408,1.406,0.041,5.297,-0.017,-0.0048,-0.6500,0.0000,1.0000,0.5000,1.0000,0.0000
34.195,Upwind,1299.001,0.436,1298.636,0.436,4.913,4.913,165.217,2.649,0.042,6.190,-0.029,-0.0043,-0.6500,0.0000,1.0000,0.5000,1.0000,0.0000
34.391,Upwind,1316.046,0.449,1315.681,0.449,5.601,5.601,165.984,4.293,0.042,7.060,-0.043,-0.0037,-0.6500,0.0000,1.0000,0.5000,1.0000,0.0000
34.592,Upwind,1333.166,0.461,1332.801,0.461,6.651,6.651,166.706,6.256,0.042,7.889,-0.058,-0.0031,-0.6500,0.0000,1.0000,0.5000,1.0000,0.0000
34.798,Upwind,1350.354,0.474,1349.990,0.474,8.119,8.119,167.378,8.451,0.041,8.666,-0.074,-0.0026,-0.6500,0.0000,1.0000,0.5000,1.0000,0.0000
34.990,Upwind,1367.606,0.487,1367.241,0.487,10.041,10.041,167.999,10.794,0.040,9.387,-0.088,-0.0020,-0.6500,0.0000,1.0000,0.5000,1.0000,0.0000
35.193,Upwind,1384.912,0.499,1384.547,0.499,12.444,12.444,168.569,13.251,0.038,10.054,-0.101,-0.0015,-0.6500,0.0000,1.0000,0.5000,1.0000,0.0000
35.385,Upwind,1400.820,0.509,1400.455,0.509,15.347,15.347,169.088,15.780,0.036,10.669,-0.112,-0.0010,-0.6500,0.0000,1.0000,0.5000,1.0000,0.0000
35.592,Upwind,1419.666,0.521,1419.301,0.521,18.758,18.758,169.558,18.342,0.033,11.240,-0.121,-0.0005,-0.6243,0.0000,1.0000,0.5000,1.0000,0.0000
35.787,Upwind,1437.102,0.531,1436.737,0.531,22.337,22.337,169.950,20.691,0.030,11.719,-0.127,-0.0001,-0.5951,0.0001,1.0000,0.5000,1.0000,0.0000
35.991,Upwind,1454.568,0.540,1454.203,0.540,27.117,27.117,170.367,23.426,0.025,12.223,-0.132,0.0003,-0.5644,0.0001,1.0000,0.5000,1.0000,0.0000
36.201,Upwind,1472.060,0.549,1471.695,0.549,32.050,32.050,170.713,25.892,0.021,12.622,-0.135,0.0007,-0.5329,0.0001,1.0000,0.5000,1.0000,0.0000
36.396,Upwind,1489.573,0.556,1489.208,0.556,37.468,37.468,171.024,28.273,0.016,12.955,-0.135,0.0010,-0.5037,0.0001,1.0000,0.5000,1.0000,0.0000
36.589,Upwind,1507.105,0.563,1506.740,0.563,43.353,43.353,171.304,30.561,0.011,13.221,-0.134,0.0013,-0.4748,0.0001,1.0000,0.5000,1.0000,0.0000
36.789,Upwind,1524.651,0.569,1524.286,0.569,49.684,49.685,171.558,32.736,0.007,13.421,-0.131,0.0015,-0.4447,0.0001,1.0000,0.5000,1.0000,0.0000
36.986,Upwind,1542.209,0.574,1541.844,0.574,56.438,56.438,171.790,34.777,0.003,13.558,-0.126,0.0017,-0.4152,0.0001,1.0000,0.5000,1.0000,0.0000
37.189,Upwind,1559.777,0.578,1559.412,0.578,63.585,63.585,172.002,36.665,359.999,13.634,-0.121,0.0018,-0.3848,0.0001,1.0000,0.5000,1.0000,0.0000
37.387,Upwind,1577.354,0.581,1576.989,0.581,71.094,71.094,172.201,38.398,359.996,13.653,-0.115,0.0018,-0.3550,0.0001,1.0000,0.5000,1.0000,0.0000
37.597,Upwind,1594.940,0.584,1594.575,0.584,78.933,78.933,172.390,39.961,359.993,13.619,-0.109,0.0018,-0.3236,0.0001,1.0000,0.5000,1.0000,0.0000
37.792,Upwind,1612.536,0.585,1612.171,0.585,87.066,87.067,172.574,41.345,359.991,13.535,-0.102,0.0018,-0.2943,0.0000,1.0000,0.5000,1.0000,0.0000
37.988,Upwind,1630.141,0.587,1629.776,0.587,95.459,95.459,172.754,42.550,359.989,13.404,-0.095,0.0016,-0.2649,0.0000,1.0000,0.5000,1.0000,0.0000
38.189,Upwind,1647.757,0.587,1647.392,0.587,104.074,104.074,172.934,43.568,359.988,13.228,-0.088,0.0015,-0.2348,0.0000,0.9992,0.5000,1.0000,0.0000
38.388,Upwind,1665.385,0.588,1665.020,0.588,112.874,112.874,173.111,44.400,359.988,13.011,-0.081,0.0012,-0.2405,0.0000,0.9967,0.5000,1.0000,0.0000
38.589,Upwind,1683.028,0.587,1682.663,0.587,121.819,121.820,173.282,45.022,359.988,12.771,-0.075,0.0010,-0.2927,0.0000,0.9943,0.5000,1.0000,0.0000
38.788,Upwind,1700.685,0.587,1700.320,0.587,130.869,130.870,173.448,45.450,359.989,12.557,-0.069,0.0008,-0.3347,0.0000,0.9919,0.5000,1.0000,0.0000
38.986,Upwind,1718.359,0.586,1717.994,0.586,139.990,139.990,173.609,45.734,359.989,12.407,-0.064,0.0006,-0.3603,0.0000,0.9896,0.5000,1.0000,0.0000
39.192,Upwind,1736.049,0.585,1735.684,0.585,149.158,149.158,173.764,45.935,359.990,12.338,-0.060,0.0004,-0.3676,0.0000,0.9875,0.5000,1.0000,0.0000
39.393,Upwind,1753.756,0.583,1753.391,0.583,158.362,158.363,173.913,46.112,359.991,12.348,-0.056,0.0002,-0.3585,0.0000,0.9854,0.5000,1.0000,0.0000
39.592,Upwind,1771.478,0.582,1771.113,0.582,167.604,167.605,174.055,46.313,359.991,12.421,-0.053,0.0000,-0.3379,0.0000,0.9834,0.5000,1.0000,0.0000
39.795,Upwind,1789.215,0.580,1788.850,0.580,176.891,176.892,174.188,46.567,359.992,12.534,-0.050,-0.0001,-0.3105,0.0000,0.9815,0.5000,1.0000,0.0000
39.989,Upwind,1806.965,0.578,1806.600,0.578,186.235,186.236,174.311,46.882,359.992,12.660,-0.048,-0.0002,-0.2833,0.0000,0.9798,0.5000,1.0000,0.0000
40.186,Upwind,1824.726,0.577,1824.361,0.577,195.647,195.648,174.424,47.252,359.993,12.775,-0.047,-0.0002,-0.2598,0.0000,0.9782,0.5000,1.0000,0.0000
40.394,Upwind,1842.497,0.575,1842.132,0.575,205.138,205.139,174.529,47.656,359.993,12.863,-0.046,-0.0002,-0.2437,0.0000,0.9767,0.5000,1.0000,0.0000
40.588,Upwind,1860.277,0.573,1859.912,0.572,214.711,214.712,174.625,48.071,359.993,12.915,-0.045,-0.0003,-0.2358,0.0000,0.9754,0.5000,1.0000,0.0000
40.786,Upwind,1878.064,0.570,1877.699,0.570,224.365,224.366,174.713,48.471,359.993,12.932,-0.044,-0.0002,-0.2352,0.0000,0.9741,0.5000,1.0000,0.0000
40.990,Upwind,1895.860,0.568,1895.495,0.568,234.096,234.098,174.795,48.836,359.993,12.919,-0.044,-0.0002,-0.2402,0.0000,0.9730,0.5000,1.0000,0.0000
41.187,Upwind,1913.663,0.566,1913.298,0.566,243.896,243.897,174.872,49.155,359.992,12.888,-0.044,-0.0002,-0.2482,0.0000,0.9719,0.5000,1.0000,0.0000
41.386,Upwind,1931.473,0.563,1931.108,0.563,253.755,253.756,174.944,49.424,359.992,12.850,-0.044,-0.0001,-0.2567,0.0000,0.9709,0.5000,1.0000,0.0000
41.591,Upwind,1949.291,0.561,1948.926,0.561,263.663,263.664,175.013,49.648,359.991,12.815,-0.044,-0.0001,-0.2636,0.0000,0.9699,0.5000,1.0000,0.0000
41.796,Upwind,1967.115,0.558,1966.750,0.558,273.612,273.613,175.078,49.835,359.991,12.790,-0.044,0.0000,-0.2677,0.0000,0.9690,0.5000,1.0000,0.0000
41.991,Upwind,1984.948,0.556,1984.583,0.556,283.595,283.597,175.140,49.999,359.990,12.780,-0.044,0.0000,-0.2685,0.0000,0.9682,0.5000,1.0000,0.0000
42.191,Upwind,2002.788,0.553,2002.423,0.553,293.610,293.612,175.198,50.149,359.990,12.785,-0.043,0.0001,-0.2662,0.0000,0.9673,0.5000,1.0000,0.0000
42.388,Upwind,2020.635,0.550,2020.270,0.550,303.655,303.656,175.253,50.296,359.989,12.801,-0.043,0.0001,-0.2617,0.0000,0.9666,0.5000,1.0000,0.0000
42.587,Upwind,2038.488,0.548,2038.123,0.548,313.729,313.730,175.304,50.446,359.989,12.825,-0.043,0.0002,-0.2560,0.0000,0.9659,0.5000,1.0000,0.0000
42.793,Upwind,2056.348,0.545,2055.983,0.545,323.833,323.835,175.351,50.602,359.988,12.852,-0.042,0.0002,-0.2502,0.0000,0.9652,0.5000,1.0000,0.0000
42.987,Upwind,2074.213,0.542,2073.848,0.542,333.970,333.971,175.395,50.762,359.988,12.876,-0.042,0.0002,-0.2451,0.0000,0.9646,0.5000,1.0000,0.0000
43.191,Upwind,2092.084,0.539,2091.719,0.539,344.138,344.140,175.436,50.924,359.988,12.896,-0.041,0.0003,-0.2413,0.0000,0.9640,0.5000,1.0000,0.0000
43.396,Upwind,2109.960,0.536,2109.595,0.536,354.339,354.341,175.473,51.083,359.987,12.909,-0.040,0.0003,-0.2391,0.0000,0.9635,0.5000,1.0000,0.0000
43.591,Upwind,2127.841,0.532,2127.476,0.532,364.571,364.573,175.507,51.235,359.987,12.916,-0.039,0.0002,-0.2383,0.0000,0.9630,0.5000,1.0000,0.0000
43.801,Upwind,2145.726,0.529,2145.361,0.529,374.832,374.834,175.539,51.376,359.987,12.917,-0.038,0.0002,-0.2385,0.0000,0.9626,0.5000,1.0000,0.0000
43.995,Upwind,2163.616,0.526,2163.251,0.526,385.120,385.122,175.569,51.505,359.987,12.914,-0.037,0.0002,-0.2394,0.0000,0.9621,0.5000,1.0000,0.0000
44.190,Upwind,2181.510,0.523,2181.145,0.523,395.433,395.435,175.596,51.621,359.987,12.909,-0.036,0.0002,-0.2404,0.0000,0.9618,0.5000,1.0000,0.0000
44.386,Upwind,2199.409,0.519,2199.044,0.519,405.768,405.769,175.622,51.724,359.987,12.905,-0.035,0.0002,-0.2412,0.0000,0.9614,0.5000,1.0000,0.0000
44.589,Upwind,2217.312,0.516,2216.947,0.516,416.122,416.124,175.645,51.818,359.987,12.903,-0.035,0.0002,-0.2416,0.0000,0.9611,0.5000,1.0000,0.0000
44.794,Upwind,2235.219,0.513,2234.854,0.512,426.494,426.496,175.667,51.903,359.987,12.903,-0.034,0.0001,-0.2413,0.0000,0.9607,0.5000,1.0000,0.0000
44.986,Upwind,2253.130,0.509,2252.765,0.509,436.882,436.885,175.688,51.983,359.987,12.905,-0.033,0.0001,-0.2406,0.0000,0.9605,0.5000,1.0000,0.0000
45.187,Upwind,2271.045,0.506,2270.680,0.506,447.287,447.289,175.707,52.059,359.987,12.910,-0.032,0.0001,-0.2394,0.0000,0.9602,0.5000,1.0000,0.0000
45.391,Upwind,2288.964,0.502,2288.599,0.502,457.706,457.708,175.724,52.132,359.987,12.915,-0.031,0.0001,-0.2380,0.0000,0.9599,0.5000,1.0000,0.0000
45.594,Upwind,2306.886,0.499,2306.521,0.499,468.139,468.142,175.740,52.204,359.987,12.922,-0.030,0.0001,-0.2366,0.0000,0.9597,0.5000,1.0000,0.0000
45.810,Upwind,2326.307,0.495,2325.942,0.495,478.587,478.589,175.754,52.275,359.987,12.928,-0.030,0.0001,-0.2354,0.0000,0.9595,0.5000,1.0000,0.0000
45.991,Upwind,2342.742,0.492,2342.377,0.492,489.049,489.051,175.767,52.343,359.988,12.933,-0.029,0.0000,-0.2344,0.0000,0.9593,0.5000,1.0000,0.0000
46.187,Upwind,2360.676,0.488,2360.311,0.488,499.524,499.526,175.779,52.409,359.988,12.937,-0.029,0.0000,-0.2337,0.0000,0.9592,0.5000,1.0000,0.0000
46.395,Upwind,2378.612,0.485,2378.247,0.485,510.012,510.014,175.790,52.471,359.988,12.939,-0.028,0.0000,-0.2333,0.0000,0.9590,0.5000,1.0000,0.0000
46.596,Upwind,2396.552,0.482,2396.187,0.482,520.512,520.515,175.799,52.529,359.988,12.940,-0.028,0.0000,-0.2331,0.0000,0.9589,0.5000,1.0000,0.0000
46.785,Upwind,2414.494,0.478,2414.129,0.478,531.023,531.026,175.808,52.584,359.988,12.941,-0.028,0.0000,-0.2330,0.0000,0.9588,0.5000,1.0000,0.0000
46.993,Upwind,2432.440,0.475,2432.075,0.475,541.545,541.548,175.815,52.634,359.988,12.941,-0.028,0.0000,-0.2330,0.0000,0.9587,0.5000,1.0000,0.0000
47.186,Upwind,2450.389,0.472,2450.024,0.472,552.077,552.079,175.822,52.680,359.988,12.941,-0.028,0.0001,-0.2330,0.0000,0.9586,0.5000,1.0000,0.0000
47.391,Upwind,2468.341,0.468,2467.976,0.468,562.617,562.620,175.828,52.723,359.988,12.941,-0.027,0.0001,-0.2329,0.0000,0.9585,0.5000,1.0000,0.0000
47.604,Upwind,2487.792,0.465,2487.427,0.465,573.166,573.168,175.833,52.763,359.988,12.942,-0.027,0.0001,-0.2327,0.0000,0.9584,0.5000,1.0000,0.0000
47.788,Upwind,2504.253,0.462,2503.888,0.462,583.722,583.725,175.838,52.800,359.988,12.943,-0.027,0.0000,-0.2324,0.0000,0.9583,0.5000,1.0000,0.0000
47.989,Upwind,2522.213,0.459,2521.848,0.459,594.286,594.288,175.842,52.836,359.988,12.945,-0.027,0.0000,-0.2321,0.0000,0.9583,0.5000,1.0000,0.0000
48.189,Upwind,2540.177,0.456,2539.812,0.456,604.856,604.859,175.845,52.870,359.988,12.946,-0.027,0.0001,-0.2317,0.0000,0.9582,0.5000,1.0000,0.0000
48.396,Upwind,2558.143,0.453,2557.778,0.452,615.433,615.436,175.847,52.902,359.989,12.948,-0.027,0.0000,-0.2313,0.0000,0.9582,0.5000,1.0000,0.0000
48.598,Upwind,2576.112,0.449,2575.747,0.449,626.017,626.020,175.849,52.933,359.989,12.950,-0.026,0.0000,-0.2310,0.0000,0.9582,0.5000,1.0000,0.0000
48.794,Upwind,2594.083,0.446,2593.719,0.446,636.606,636.609,175.851,52.962,359.989,12.951,-0.026,0.0000,-0.2307,0.0000,0.9582,0.5000,1.0000,0.0000
48.986,Upwind,2612.058,0.443,2611.693,0.443,647.202,647.205,175.851,52.991,359.989,12.952,-0.026,0.0000,-0.2304,0.0000,0.9582,0.5000,1.0000,0.0000
49.197,Upwind,2630.034,0.440,2629.669,0.440,657.802,657.805,175.852,53.017,359.989,12.953,-0.026,0.0000,-0.2303,0.0000,0.9581,0.5000,1.0000,0.0000
49.395,Upwind,2648.014,0.437,2647.649,0.437,668.408,668.411,175.852,53.042,359.989,12.954,-0.026,0.0000,-0.2302,0.0000,0.9581,0.5000,1.0000,0.0000
49.588,Upwind,2665.995,0.434,2665.630,0.434,679.019,679.022,175.851,53.066,359.989,12.954,-0.026,0.0000,-0.2301,0.0000,0.9582,0.5000,1.0000,0.0000
49.785,Upwind,2683.980,0.432,2683.615,0.432,689.634,689.638,175.850,53.088,359.989,12.955,-0.026,0.0000,-0.2300,0.0000,0.9582,0.5000,1.0000,0.0000
49.986,Upwind,2701.967,0.429,2701.602,0.429,700.254,700.257,175.849,53.108,359.989,12.955,-0.026,0.0000,-0.2299,0.0000,0.9582,0.5000,1.0000,0.0000
50.189,Upwind,2719.956,0.426,2719.591,0.426,710.878,710.881,175.847,53.128,359.990,12.955,-0.026,0.0000,-0.2299,0.0000,0.9582,0.5000,1.0000,0.0000
50.389,Upwind,2737.948,0.423,2737.583,0.423,721.505,721.508,175.845,53.146,359.990,12.955,-0.026,0.0000,-0.2298,0.0000,0.9582,0.5000,1.0000,0.0000
50.592,Upwind,2755.942,0.420,2755.577,0.420,732.136,732.139,175.843,53.163,359.990,12.956,-0.026,0.0000,-0.2297,0.0000,0.9583,0.5000,1.0000,0.0000
50.787,Upwind,2773.938,0.418,2773.573,0.418,742.770,742.773,175.841,53.179,359.990,12.956,-0.026,0.0000,-0.2296,0.0000,0.9583,0.5000,1.0000,0.0000
50.993,Upwind,2791.938,0.415,2791.573,0.415,753.407,753.411,175.838,53.194,359.990,12.957,-0.026,0.0000,-0.2295,0.0000,0.9583,0.5000,1.0000,0.0000
51.197,Upwind,2809.939,0.412,2809.574,0.412,764.047,764.051,175.835,53.209,359.990,12.957,-0.026,0.0001,-0.2294,0.0000,0.9584,0.5000,1.0000,0.0000
51.392,Upwind,2827.943,0.410,2827.578,0.410,774.690,774.694,175.831,53.222,359.990,12.958,-0.026,0.0000,-0.2293,0.0000,0.9584,0.5000,1.0000,0.0000
51.589,Upwind,2845.948,0.407,2845.583,0.407,785.336,785.340,175.828,53.235,359.990,12.958,-0.026,0.0000,-0.2292,0.0000,0.9585,0.5000,1.0000,0.0000
51.797,Upwind,2863.957,0.405,2863.592,0.405,795.984,795.988,175.824,53.248,359.991,12.958,-0.026,0.0000,-0.2291,0.0000,0.9585,0.5000,1.0000,0.0000
51.998,Upwind,2881.968,0.402,2881.603,0.402,806.635,806.639,175.820,53.259,359.991,12.959,-0.026,0.0001,-0.2291,0.0000,0.9586,0.5000,1.0000,0.0000
52.190,Upwind,2899.981,0.400,2899.616,0.400,817.288,817.292,175.816,53.270,359.991,12.959,-0.026,0.0000,-0.2290,0.0000,0.9586,0.5000,1.0000,0.0000
52.393,Upwind,2917.996,0.397,2917.631,0.397,827.943,827.947,175.812,53.281,359.991,12.959,-0.026,0.0000,-0.2290,0.0000,0.9587,0.5000,1.0000,0.0000
52.598,Upwind,2936.014,0.395,2935.649,0.395,838.600,838.604,175.807,53.291,359.991,12.959,-0.026,0.0000,-0.2290,0.0000,0.9588,0.5000,1.0000,0.0000
52.789,Upwind,2954.033,0.393,2953.668,0.393,849.259,849.263,175.802,53.300,359.991,12.959,-0.026,0.0000,-0.2290,0.0000,0.9588,0.5000,1.0000,0.0000
52.992,Upwind,2972.056,0.390,2971.691,0.390,859.920,859.924,175.798,53.309,359.991,12.959,-0.026,0.0000,-0.2289,0.0000,0.9589,0.5000,1.0000,0.0000
53.197,Upwind,2990.080,0.388,2989.715,0.388,870.583,870.587,175.793,53.317,359.991,12.959,-0.026,0.0000,-0.2289,0.0000,0.9590,0.5000,1.0000,0.0000
53.394,Upwind,3008.107,0.386,3007.742,0.386,881.247,881.251,175.788,53.325,359.992,12.960,-0.026,0.0000,-0.2289,0.0000,0.9590,0.5000,1.0000,0.0000
53.587,Upwind,3026.136,0.384,3025.771,0.384,891.912,891.917,175.782,53.332,359.992,12.960,-0.026,0.0000,-0.2289,0.0000,0.9591,0.5000,1.0000,0.0000
53.789,Upwind,3044.167,0.382,3043.802,0.382,902.579,902.584,175.777,53.339,359.992,12.960,-0.026,0.0000,-0.2289,0.0000,0.9592,0.5000,1.0000,0.0000
53.994,Upwind,3062.201,0.380,3061.836,0.380,913.248,913.252,175.772,53.345,359.992,12.960,-0.026,0.0000,-0.2289,0.0000,0.9593,0.5000,1.0000,0.0000
54.190,Upwind,3080.236,0.378,3079.871,0.377,923.917,923.922,175.766,53.352,359.992,12.960,-0.026,0.0000,-0.2288,0.0000,0.9593,0.5000,1.0000,0.0000
54.396,Upwind,3098.274,0.375,3097.909,0.375,934.588,934.593,175.760,53.358,359.992,12.960,-0.026,0.0000,-0.2288,0.0000,0.9594,0.5000,1.0000,0.0000
54.585,Upwind,3116.315,0.374,3115.950,0.373,945.260,945.265,175.755,53.363,359.992,12.960,-0.026,0.0000,-0.2288,0.0000,0.9595,0.5000,1.0000,0.0000
54.787,Upwind,3134.356,0.372,3133.991,0.372,955.933,955.938,175.749,53.369,359.992,12.960,-0.026,0.0000,-0.2289,0.0000,0.9596,0.5000,1.0000,0.0000
54.991,Upwind,3152.400,0.370,3152.035,0.370,966.608,966.612,175.743,53.374,359.993,12.960,-0.026,0.0000,-0.2289,0.0000,0.9597,0.5000,1.0000,0.0000
55.196,Upwind,3170.448,0.368,3170.083,0.368,977.283,977.288,175.737,53.378,359.993,12.960,-0.026,0.0000,-0.2289,0.0000,0.9598,0.5000,1.0000,0.0000
55.392,Upwind,3188.495,0.366,3188.130,0.366,987.959,987.964,175.731,53.383,359.993,12.960,-0.026,0.0000,-0.2289,0.0000,0.9598,0.5000,1.0000,0.0000
55.596,Upwind,3206.545,0.364,3206.180,0.364,998.636,998.641,175.725,53.387,359.993,12.960,-0.026,0.0000,-0.2289,0.0000,0.9599,0.5000,1.0000,0.0000
55.794,Upwind,3224.598,0.362,3224.233,0.362,1009.314,1009.319,175.719,53.391,359.993,12.960,-0.026,0.0000,-0.2289,0.0000,0.9600,0.5000,1.0000,0.0000
55.992,Upwind,3242.655,0.361,3242.290,0.361,1019.992,1019.997,175.713,53.395,359.993,12.960,-0.027,0.0000,-0.2289,0.0000,0.9601,0.5000,1.0000,0.0000
56.197,Upwind,3260.711,0.359,3260.346,0.359,1030.672,1030.677,175.706,53.399,359.993,12.960,-0.027,0.0000,-0.2289,0.0000,0.9602,0.5000,1.0000,0.0000
56.397,Upwind,3278.770,0.357,3278.405,0.357,1041.352,1041.357,175.700,53.403,359.993,12.960,-0.027,0.0000,-0.2289,0.0000,0.9603,0.5000,1.0000,0.0000
56.597,Upwind,3296.833,0.356,3296.468,0.356,1052.033,1052.038,175.693,53.406,359.993,12.960,-0.027,0.0000,-0.2289,0.0000,0.9604,0.5000,1.0000,0.0000
56.794,Upwind,3314.898,0.354,3314.533,0.354,1062.714,1062.719,175.687,53.410,359.994,12.960,-0.027,0.0000,-0.2289,0.0000,0.9605,0.5000,1.0000,0.0000
56.991,Upwind,3332.964,0.352,3332.599,0.352,1073.396,1073.402,175.681,53.413,359.994,12.959,-0.027,0.0000,-0.2290,0.0000,0.9605,0.5000,1.0000,0.0000
57.196,Upwind,3351.032,0.351,3350.667,0.351,1084.079,1084.084,175.674,53.415,359.994,12.959,-0.027,0.0000,-0.2290,0.0000,0.9606,0.5000,1.0000,0.0000
57.388,Upwind,3369.101,0.349,3368.736,0.349,1094.763,1094.768,175.668,53.418,359.994,12.959,-0.027,0.0000,-0.2290,0.0000,0.9607,0.5000,1.0000,0.0000
57.587,Upwind,3387.176,0.348,3386.811,0.348,1105.446,1105.452,175.661,53.421,359.994,12.959,-0.027,0.0000,-0.2291,0.0000,0.9608,0.5000,1.0000,0.0000
57.794,Upwind,3405.250,0.347,3404.885,0.347,1116.131,1116.136,175.654,53.423,359.994,12.959,-0.027,0.0000,-0.2291,0.0000,0.9609,0.5000,1.0000,0.0000
57.994,Upwind,3423.328,0.345,3422.963,0.345,1126.816,1126.821,175.648,53.425,359.994,12.959,-0.027,0.0000,-0.2291,0.0000,0.9610,0.5000,1.0000,0.0000
58.192,Upwind,3441.406,0.344,3441.041,0.344,1137.501,1137.506,175.641,53.428,359.994,12.959,-0.027,0.0000,-0.2291,0.0000,0.9611,0.5000,1.0000,0.0000
58.388,Upwind,3459.486,0.342,3459.121,0.342,1148.187,1148.192,175.634,53.430,359.994,12.958,-0.027,0.0000,-0.2292,0.0000,0.9612,0.5000,1.0000,0.0000
58.592,Upwind,3477.570,0.341,3477.205,0.341,1158.873,1158.878,175.628,53.432,359.994,12.958,-0.027,0.0000,-0.2292,0.0000,0.9613,0.5000,1.0000,0.0000
58.788,Upwind,3495.657,0.340,3495.292,0.340,1169.559,1169.565,175.621,53.434,359.995,12.958,-0.027,0.0000,-0.2292,0.0000,0.9614,0.5000,1.0000,0.0000
58.990,Upwind,3513.744,0.339,3513.379,0.339,1180.246,1180.252,175.614,53.436,359.995,12.958,-0.027,0.0000,-0.2292,0.0000,0.9615,0.5000,1.0000,0.0000
59.194,Upwind,3531.833,0.337,3531.469,0.337,1190.933,1190.939,175.607,53.438,359.995,12.958,-0.027,0.0000,-0.2293,0.0000,0.9616,0.5000,1.0000,0.0000
59.388,Upwind,3549.924,0.336,3549.559,0.336,1201.621,1201.627,175.600,53.439,359.995,12.958,-0.027,0.0000,-0.2293,0.0000,0.9617,0.5000,1.0000,0.0000
59.596,Upwind,3568.019,0.335,3567.654,0.335,1212.309,1212.315,175.594,53.441,359.995,12.958,-0.027,0.0000,-0.2293,0.0000,0.9618,0.5000,1.0000,0.0000
59.794,Upwind,3586.115,0.334,3585.750,0.334,1222.997,1223.003,175.587,53.443,359.995,12.958,-0.027,0.0000,-0.2294,0.0000,0.9619,0.5000,1.0000,0.0000
59.985,Upwind,3604.214,0.333,3603.849,0.333,1233.686,1233.692,175.580,53.444,359.995,12.957,-0.028,0.0000,-0.2294,0.0000,0.9620,0.5000,1.0000,0.0000
60.190,Upwind,3622.313,0.332,3621.948,0.332,1244.375,1244.381,175.573,53.446,359.995,12.957,-0.028,0.0000,-0.2294,0.0000,0.9621,0.5000,1.0000,0.0000
60.400,Upwind,3640.416,0.331,3640.051,0.331,1255.955,1255.961,175.565,53.447,359.995,12.957,-0.028,0.0000,-0.2295,0.0000,0.9622,0.5000,0.0000,0.0000
60.593,Upwind,3658.521,0.330,3658.156,0.330,1265.754,1265.760,175.560,53.449,359.995,12.957,-0.028,0.0000,-0.2296,0.0000,0.9622,0.5000,0.0000,0.0000
60.789,Upwind,3676.629,0.329,3676.264,0.329,1276.444,1276.450,175.557,53.451,359.995,12.956,-0.028,0.0000,-0.2298,0.0000,0.9623,0.5000,0.0000,0.0000
60.992,Upwind,3694.740,0.328,3694.375,0.328,1287.134,1287.141,175.557,53.454,359.996,12.955,-0.028,0.0000,-0.2302,0.0000,0.9623,0.5000,0.0000,0.0000
61.196,Upwind,3712.851,0.327,3712.486,0.327,1297.826,1297.832,175.558,53.457,359.996,12.952,-0.028,0.0000,-0.2308,0.0000,0.9623,0.5000,0.0000,0.0000
61.397,Upwind,3730.969,0.326,3730.604,0.326,1308.517,1308.523,175.562,53.460,359.996,12.949,-0.028,0.0000,-0.2315,0.0000,0.9622,0.5000,0.0000,0.0000
61.586,Upwind,3749.086,0.325,3748.721,0.325,1319.209,1319.216,175.568,53.462,359.996,12.946,-0.028,0.0000,-0.2323,0.0000,0.9621,0.5000,0.0000,0.0000
61.793,Upwind,3767.209,0.324,3766.844,0.324,1329.902,1329.908,175.577,53.464,359.996,12.942,-0.028,0.0000,-0.2332,0.0000,0.9620,0.5000,0.0000,0.0000
61.992,Upwind,3785.339,0.323,3784.974,0.323,1340.595,1340.601,175.587,53.465,359.996,12.938,-0.028,0.0000,-0.2341,0.0000,0.9619,0.5000,0.0000,0.0000
62.191,Upwind,3803.468,0.323,3803.103,0.323,1351.288,1351.294,175.599,53.466,359.996,12.934,-0.028,0.0000,-0.2349,0.0000,0.9617,0.5000,0.0000,0.0000
62.394,Upwind,3821.604,0.322,3821.239,0.322,1361.981,1361.988,175.613,53.467,359.996,12.930,-0.028,0.0000,-0.2357,0.0000,0.9615,0.5000,0.0000,0.0000
62.594,Upwind,3839.742,0.321,3839.377,0.321,1372.675,1372.682,175.630,53.469,359.996,12.927,-0.028,0.0000,-0.2364,0.0000,0.9613,0.5000,0.0000,0.0000
62.786,Upwind,3857.887,0.320,3857.522,0.320,1383.369,1383.376,175.647,53.472,359.996,12.924,-0.028,0.0000,-0.2370,0.0000,0.9610,0.5000,0.0000,0.0000
62.998,Upwind,3876.038,0.320,3875.673,0.320,1394.064,1394.070,175.667,53.475,359.996,12.921,-0.028,0.0000,-0.2376,0.0000,0.9607,0.5000,0.0000,0.0000
63.188,Upwind,3894.192,0.319,3893.827,0.319,1404.759,1404.766,175.688,53.480,359.996,12.919,-0.028,0.0000,-0.2381,0.0000,0.9604,0.5000,0.0000,0.0000
63.388,Upwind,3912.352,0.318,3911.987,0.318,1415.456,1415.462,175.711,53.486,359.997,12.916,-0.028,0.0000,-0.2387,0.0000,0.9601,0.5000,0.0000,0.0000
63.594,Upwind,3930.518,0.318,3930.153,0.318,1426.154,1426.160,175.735,53.494,359.997,12.914,-0.028,0.0000,-0.2392,0.0000,0.9598,0.5000,0.0000,0.0000
63.793,Upwind,3948.687,0.317,3948.322,0.317,1436.853,1436.860,175.761,53.503,359.997,12.911,-0.028,0.0000,-0.2398,0.0000,0.9594,0.5000,0.0000,0.0000
63.990,Upwind,3966.865,0.317,3966.500,0.317,1447.555,1447.562,175.788,53.512,359.997,12.909,-0.028,0.0000,-0.2404,0.0000,0.9590,0.5000,0.0000,0.0000
64.188,Upwind,3985.047,0.316,3984.682,0.316,1458.258,1458.265,175.817,53.523,359.997,12.906,-0.028,-0.0001,-0.2411,0.0000,0.9586,0.5000,0.0000,0.0000
64.388,Upwind,4003.234,0.316,4002.869,0.316,1468.964,1468.971,175.847,53.535,359.997,12.903,-0.029,0.0000,-0.2417,0.0000,0.9582,0.5000,0.0000,0.0000
64.587,Upwind,4021.428,0.315,4021.063,0.315,1479.672,1479.679,175.878,53.548,359.997,12.900,-0.029,0.0000,-0.2424,0.0000,0.9578,0.5000,0.0000,0.0000
64.790,Upwind,4039.627,0.315,4039.262,0.315,1490.383,1490.390,175.910,53.562,359.997,12.897,-0.029,0.0000,-0.2430,0.0000,0.9573,0.5000,0.0000,0.0000
64.987,Upwind,4057.836,0.314,4057.471,0.314,1501.097,1501.104,175.943,53.577,359.997,12.894,-0.029,0.0000,-0.2436,0.0000,0.9569,0.5000,0.0000,0.0000
65.193,Upwind,4076.048,0.314,4075.683,0.314,1511.814,1511.821,175.978,53.593,359.997,12.891,-0.029,0.0000,-0.2443,0.0000,0.9564,0.5000,0.0000,0.0000
65.390,Upwind,4094.269,0.313,4093.904,0.313,1522.534,1522.542,176.014,53.610,359.997,12.888,-0.029,-0.0001,-0.2448,0.0000,0.9559,0.5000,0.0000,0.0000
65.587,Upwind,4112.493,0.313,4112.127,0.313,1533.258,1533.265,176.049,53.628,359.997,12.886,-0.029,-0.0001,-0.2454,0.0000,0.9554,0.5000,0.0000,0.0000
65.795,Upwind,4130.726,0.313,4130.361,0.313,1543.985,1543.993,176.083,53.646,359.997,12.884,-0.029,0.0000,-0.2457,0.0000,0.9549,0.5000,0.0000,0.0000
65.991,Upwind,4148.965,0.312,4148.600,0.312,1554.716,1554.724,176.115,53.664,359.998,12.883,-0.030,0.0000,-0.2459,0.0000,0.9545,0.5000,0.0000,0.0000
66.186,Upwind,4167.208,0.312,4166.842,0.312,1565.451,1565.458,176.146,53.684,359.998,12.882,-0.030,0.0000,-0.2459,0.0000,0.9540,0.5000,0.0000,0.0000
66.389,Upwind,4185.459,0.312,4185.094,0.312,1576.190,1576.197,176.175,53.706,359.998,12.883,-0.030,0.0000,-0.2457,0.0000,0.9536,0.5000,0.0000,0.0000
66.587,Upwind,4203.716,0.311,4203.351,0.311,1586.933,1586.941,176.203,53.728,359.998,12.884,-0.030,0.0000,-0.2455,0.0000,0.9532,0.5000,0.0000,0.0000
66.793,Upwind,4221.977,0.311,4221.612,0.311,1597.681,1597.689,176.230,53.753,359.998,12.885,-0.030,0.0000,-0.2451,0.0000,0.9529,0.5000,0.0000,0.0000
66.992,Upwind,4240.244,0.311,4239.878,0.311,1608.434,1608.442,176.255,53.778,359.998,12.887,-0.030,0.0000,-0.2448,0.0000,0.9525,0.5000,0.0000,0.0000
67.192,Upwind,4258.516,0.311,4258.151,0.311,1619.193,1619.200,176.279,53.805,359.998,12.888,-0.030,0.0000,-0.2446,0.0000,0.9522,0.5000,0.0000,0.0000
67.385,Upwind,4275.271,0.310,4274.906,0.310,1629.956,1629.964,176.302,53.833,359.998,12.889,-0.030,0.0000,-0.2444,0.0000,0.9518,0.5000,0.0000,0.0000
67.597,Upwind,4295.077,0.310,4294.712,0.310,1640.726,1640.734,176.324,53.861,359.998,12.890,-0.030,0.0000,-0.2442,0.0000,0.9515,0.5000,0.0000,0.0000
67.786,Upwind,4313.365,0.310,4313.000,0.310,1651.501,1651.508,176.344,53.889,359.998,12.890,-0.030,0.0000,-0.2442,0.0000,0.9513,0.5000,0.0000,0.0000
67.992,Upwind,4331.656,0.310,4331.291,0.310,1662.281,1662.289,176.364,53.916,359.998,12.890,-0.030,0.0000,-0.2441,0.0000,0.9510,0.5000,0.0000,0.0000
68.190,Upwind,4349.953,0.310,4349.588,0.310,1673.067,1673.075,176.382,53.944,359.998,12.890,-0.031,0.0000,-0.2441,0.0000,0.9507,0.5000,0.0000,0.0000
68.393,Upwind,4368.256,0.309,4367.891,0.309,1683.858,1683.866,176.399,53.971,359.998,12.891,-0.031,0.0000,-0.2441,0.0000,0.9505,0.5000,0.0000,0.0000
68.592,Upwind,4386.563,0.309,4386.198,0.309,1694.655,1694.663,176.415,53.997,359.998,12.891,-0.031,0.0000,-0.2440,0.0000,0.9503,0.5000,0.0000,0.0000
68.797,Upwind,4404.872,0.309,4404.507,0.309,1705.457,1705.465,176.430,54.023,359.998,12.891,-0.031,0.0000,-0.2440,0.0000,0.9501,0.5000,0.0000,0.0000
68.994,Upwind,4423.188,0.309,4422.822,0.309,1716.264,1716.272,176.445,54.048,359.998,12.891,-0.031,0.0000,-0.2438,0.0000,0.9499,0.5000,0.0000,0.0000
69.194,Upwind,4441.506,0.309,4441.141,0.309,1727.076,1727.084,176.458,54.073,359.998,12.892,-0.031,0.0000,-0.2437,0.0000,0.9497,0.5000,0.0000,0.0000
69.390,Upwind,4459.828,0.309,4459.462,0.309,1737.893,1737.902,176.471,54.098,359.998,12.893,-0.031,0.0000,-0.2435,0.0000,0.9495,0.5000,0.0000,0.0000
69.593,Upwind,4478.155,0.309,4477.790,0.309,1748.715,1748.724,176.482,54.123,359.998,12.894,-0.031,0.0000,-0.2434,0.0000,0.9493,0.5000,0.0000,0.0000
69.792,Upwind,4496.486,0.309,4496.121,0.309,1759.542,1759.551,176.493,54.147,359.998,12.894,-0.031,0.0000,-0.2432,0.0000,0.9492,0.5000,0.0000,0.0000
69.993,Upwind,4514.820,0.309,4514.455,0.309,1770.374,1770.383,176.503,54.171,359.998,12.895,-0.031,-0.0001,-0.2431,0.0000,0.9490,0.5000,0.0000,0.0000
70.193,Upwind,4533.160,0.309,4532.794,0.309,1781.211,1781.219,176.513,54.194,359.998,12.896,-0.031,0.0000,-0.2429,0.0000,0.9489,0.5000,0.0000,0.0000
70.399,Upwind,4551.502,0.308,4551.137,0.308,1792.052,1792.060,176.521,54.217,359.998,12.896,-0.031,-0.0001,-0.2428,0.0000,0.9488,0.5000,0.0000,0.0000
70.596,Upwind,4569.848,0.308,4569.483,0.308,1802.897,1802.906,176.529,54.240,359.998,12.897,-0.031,0.0000,-0.2427,0.0000,0.9487,0.5000,0.0000,0.0000
70.794,Upwind,4588.197,0.308,4587.832,0.308,1813.747,1813.756,176.537,54.261,359.998,12.897,-0.031,0.0000,-0.2426,0.0000,0.9486,0.5000,0.0000,0.0000
70.991,Upwind,4606.549,0.308,4606.184,0.308,1824.602,1824.610,176.543,54.282,359.998,12.897,-0.031,0.0000,-0.2426,0.0000,0.9485,0.5000,0.0000,0.0000
71.189,Upwind,4624.904,0.308,4624.539,0.308,1835.460,1835.469,176.549,54.303,359.998,12.898,-0.032,0.0000,-0.2425,0.0000,0.9484,0.5000,0.0000,0.0000
71.387,Upwind,4643.265,0.308,4642.900,0.308,1846.323,1846.332,176.555,54.323,359.998,12.898,-0.032,0.0000,-0.2424,0.0000,0.9483,0.5000,0.0000,0.0000
71.593,Upwind,4661.626,0.308,4661.261,0.308,1857.189,1857.198,176.560,54.342,359.998,12.898,-0.032,0.0000,-0.2423,0.0000,0.9482,0.5000,0.0000,0.0000
71.790,Upwind,4679.994,0.308,4679.628,0.308,1868.059,1868.068,176.564,54.361,359.998,12.899,-0.032,0.0000,-0.2422,0.0000,0.9482,0.5000,0.0000,0.0000
71.994,Upwind,4698.364,0.308,4697.999,0.308,1878.933,1878.942,176.568,54.379,359.998,12.899,-0.032,0.0000,-0.2422,0.0000,0.9481,0.5000,0.0000,0.0000
72.190,Upwind,4716.734,0.308,4716.369,0.308,1889.811,1889.820,176.571,54.397,359.999,12.900,-0.032,0.0000,-0.2421,0.0000,0.9481,0.5000,0.0000,0.0000
72.388,Upwind,4735.111,0.308,4734.746,0.308,1900.692,1900.701,176.574,54.414,359.999,12.900,-0.032,0.0000,-0.2420,0.0000,0.9481,0.5000,0.0000,0.0000
72.587,Upwind,4753.490,0.308,4753.125,0.308,1911.576,1911.586,176.576,54.431,359.999,12.900,-0.032,0.0000,-0.2419,0.0000,0.9480,0.5000,0.0000,0.0000
72.790,Upwind,4771.873,0.308,4771.507,0.308,1922.464,1922.473,176.578,54.447,359.999,12.901,-0.032,0.0000,-0.2418,0.0000,0.9480,0.5000,0.0000,0.0000
72.987,Upwind,4790.255,0.308,4789.890,0.308,1933.355,1933.364,176.580,54.462,359.999,12.901,-0.032,-0.0001,-0.2418,0.0000,0.9480,0.5000,0.0000,0.0000
73.196,Upwind,4808.644,0.308,4808.278,0.308,1944.249,1944.258,176.581,54.477,359.999,12.901,-0.032,0.0000,-0.2417,0.0000,0.9480,0.5000,0.0000,0.0000
73.387,Upwind,4827.036,0.308,4826.670,0.308,1955.146,1955.155,176.582,54.492,359.999,12.902,-0.032,0.0000,-0.2416,0.0000,0.9479,0.5000,0.0000,0.0000
73.595,Upwind,4845.427,0.308,4845.062,0.308,1966.046,1966.055,176.582,54.506,359.999,12.902,-0.032,0.0000,-0.2416,0.0000,0.9479,0.5000,0.0000,0.0000
73.794,Upwind,4863.825,0.308,4863.459,0.308,1976.948,1976.958,176.582,54.520,359.999,12.902,-0.032,0.0000,-0.2416,0.0000,0.9479,0.5000,0.0000,0.0000
73.992,Upwind,4882.223,0.308,4881.857,0.308,1987.853,1987.863,176.581,54.533,359.999,12.902,-0.032,0.0000,-0.2415,0.0000,0.9479,0.5000,0.0000,0.0000
74.185,Upwind,4900.626,0.308,4900.261,0.308,1998.761,1998.771,176.581,54.545,359.999,12.902,-0.032,0.0000,-0.2415,0.0000,0.9480,0.5000,0.0000,0.0000
74.387,Crosswind,4919.030,0.309,4918.665,0.309,2009.669,2009.679,176.531,54.509,359.998,12.906,0.082,0.4000,-0.3164,0.0001,0.8647,0.0000,0.0000,0.0000
74.589,Crosswind,4937.421,0.310,4937.056,0.310,2020.552,2020.562,176.296,54.294,359.993,12.948,0.653,0.4000,-0.4073,0.0001,0.7636,0.0000,0.0000,0.0000
74.797,Crosswind,4955.783,0.316,4955.417,0.316,2031.377,2031.387,175.887,53.936,359.991,13.080,1.607,0.4000,-0.5011,0.0001,0.7000,0.0000,0.0000,0.0000
74.992,Crosswind,4974.102,0.332,4973.736,0.331,2042.124,2042.134,175.421,53.538,359.999,13.339,2.853,0.4000,-0.5887,-0.0001,0.7000,0.0000,0.0000,0.0000
75.195,Crosswind,4992.377,0.365,4992.012,0.365,2052.795,2052.805,174.950,53.192,0.033,13.756,4.319,0.4000,-0.6804,-0.0003,0.7022,0.0000,0.0000,0.0000
75.395,Crosswind,5010.607,0.424,5010.242,0.424,2063.409,2063.419,174.476,52.976,0.110,14.348,5.948,0.4000,-0.7704,-0.0007,0.7132,0.0000,0.0000,0.0000
75.590,Crosswind,5028.792,0.520,5028.426,0.520,2074.000,2074.010,174.001,52.970,0.249,15.121,7.693,0.4000,-0.8000,-0.0013,0.7245,0.0000,0.0000,0.0000
75.794,Crosswind,5046.924,0.664,5046.559,0.664,2084.617,2084.627,173.523,53.256,0.468,16.047,9.516,0.4000,-0.8000,-0.0020,0.7361,0.0000,0.0000,0.0000
75.988,Crosswind,5065.002,0.871,5064.637,0.871,2095.323,2095.333,173.035,53.858,0.779,17.064,11.388,0.4000,-0.7902,-0.0030,0.7479,0.0000,0.0000,0.0000
76.190,Crosswind,5083.021,1.155,5082.656,1.155,2106.181,2106.191,172.534,54.769,1.187,18.111,13.281,0.4000,-0.7599,-0.0041,0.7599,0.0000,0.0000,0.0000
76.395,Crosswind,5100.975,1.532,5100.609,1.532,2117.249,2117.259,172.019,55.953,1.692,19.125,15.176,0.4000,-0.7292,-0.0055,0.7722,0.0000,0.0000,0.0000
76.588,Crosswind,5118.857,2.019,5118.492,2.019,2128.576,2128.587,171.489,57.354,2.288,20.051,17.055,0.4000,-0.7002,-0.0071,0.7846,0.0000,0.0000,0.0000
76.790,Crosswind,5136.661,2.633,5136.295,2.633,2140.199,2140.209,170.946,58.888,2.966,20.851,18.905,0.3489,-0.6699,-0.0089,0.7972,0.0000,0.0000,0.0000
76.993,Crosswind,5154.385,3.388,5154.020,3.388,2152.135,2152.145,170.396,60.469,3.714,21.496,20.672,0.2878,-0.6395,-0.0106,0.8096,0.0000,0.0000,0.0000
77.192,Crosswind,5172.023,4.300,5171.658,4.300,2164.385,2164.395,169.845,62.018,4.518,21.973,22.291,0.2351,-0.6096,-0.0124,0.8216,0.0000,0.0000,0.0000
77.395,Crosswind,5189.580,5.378,5189.214,5.377,2176.935,2176.945,169.300,63.465,5.360,22.278,23.724,0.1907,-0.5791,-0.0140,0.8331,0.0000,0.0000,0.0000
77.591,Crosswind,5207.048,6.631,5206.683,6.631,2189.760,2189.770,168.768,64.756,6.223,22.416,24.958,0.1539,-0.5498,-0.0155,0.8438,0.0000,0.0000,0.0000
77.786,Crosswind,5224.434,8.067,5224.068,8.066,2202.824,2202.835,168.254,65.849,7.089,22.398,25.995,0.1228,-0.5206,-0.0165,0.8538,0.0000,0.0000,0.0000
77.987,Crosswind,5241.740,9.688,5241.375,9.687,2216.084,2216.095,167.763,66.713,7.940,22.242,26.852,0.0989,-0.4904,-0.0173,0.8629,0.0000,0.0000,0.0000
78.196,Crosswind,5258.967,11.496,5258.602,11.496,2229.492,2229.503,167.300,67.325,8.762,21.967,27.552,0.0785,-0.4590,-0.0177,0.8713,0.0000,0.0000,0.0000
78.390,Crosswind,5276.122,13.491,5275.756,13.491,2242.996,2243.007,166.869,67.672,9.543,21.592,28.119,0.0616,-0.4299,-0.0178,0.8788,0.0000,0.0000,0.0000
78.596,Crosswind,5293.211,15.672,5292.846,15.672,2256.543,2256.554,166.473,67.748,10.271,21.138,28.579,0.0473,-0.3989,-0.0176,0.8856,0.0000,0.0000,0.0000
78.789,Crosswind,5310.238,18.036,5309.873,18.036,2270.077,2270.088,166.113,67.553,10.940,20.623,28.954,0.0352,-0.3701,-0.0170,0.8916,0.0000,0.0000,0.0000
78.989,Crosswind,5327.212,20.579,5326.847,20.579,2283.546,2283.557,165.791,67.089,11.546,20.062,29.260,0.0248,-0.3401,-0.0163,0.8970,0.0000,0.0000,0.0000
79.187,Crosswind,5344.138,23.297,5343.772,23.297,2296.895,2296.906,165.508,66.365,12.085,19.468,29.512,0.0161,-0.3103,-0.0155,0.9016,0.0000,0.0000,0.0000
79.396,Crosswind,5361.021,26.186,5360.655,26.186,2310.075,2310.086,165.264,65.391,12.560,18.851,29.717,0.0089,-0.3284,-0.0146,0.9055,0.0000,0.0000,0.0000
79.591,Crosswind,5377.870,29.241,5377.504,29.241,2323.034,2323.046,165.056,64.161,12.983,18.235,29.886,0.0031,-0.4163,-0.0137,0.9089,0.0000,0.0000,0.0000
79.790,Crosswind,5394.695,32.455,5394.330,32.455,2335.724,2335.735,164.881,62.699,13.391,17.677,30.029,-0.0015,-0.5058,-0.0129,0.9117,0.0000,0.0000,0.0000
79.994,Crosswind,5411.493,35.824,5411.127,35.824,2348.102,2348.114,164.735,61.064,13.820,17.229,30.154,-0.0051,-0.5978,-0.0122,0.9137,0.0000,0.0000,0.0000
80.190,Crosswind,5428.271,39.346,5427.906,39.346,2360.143,2360.154,164.615,59.331,14.299,16.927,30.267,-0.0079,-0.6861,-0.0116,0.9154,0.0000,0.0000,0.0000
80.391,Crosswind,5445.032,43.018,5444.667,43.018,2371.834,2371.845,164.516,57.581,14.851,16.795,30.369,-0.0099,-0.7763,-0.0111,0.9168,0.0000,0.0000,0.0000
80.592,Crosswind,5461.775,46.841,5461.410,46.841,2383.180,2383.191,164.432,55.906,15.494,16.847,30.460,-0.0112,-0.8000,-0.0108,0.9180,0.0000,0.0000,0.0000
80.789,Crosswind,5478.497,50.821,5478.131,50.821,2394.208,2394.219,164.360,54.406,16.226,17.062,30.538,-0.0117,-0.7859,-0.0107,0.9190,0.0000,0.0000,0.0000
80.986,Crosswind,5495.190,54.962,5494.825,54.962,2404.958,2404.970,164.295,53.143,17.026,17.392,30.596,-0.0113,-0.7563,-0.0107,0.9199,0.0000,0.0000,0.0000
81.186,Crosswind,5511.848,59.272,5511.482,59.272,2415.482,2415.494,164.232,52.138,17.867,17.783,30.628,-0.0100,-0.7262,-0.0108,0.9207,0.0000,0.0000,0.0000
81.388,Crosswind,5528.465,63.757,5528.100,63.757,2425.831,2425.842,164.168,51.389,18.725,18.185,30.630,-0.0077,-0.6959,-0.0110,0.9217,0.0000,0.0000,0.0000
81.588,Crosswind,5545.034,68.423,5544.669,68.423,2436.053,2436.065,164.100,50.869,19.578,18.560,30.599,-0.0045,-0.6660,-0.0112,0.9226,0.0000,0.0000,0.0000
81.801,Crosswind,5561.552,73.276,5561.187,73.276,2446.191,2446.202,164.028,50.538,20.409,18.876,30.538,-0.0006,-0.6340,-0.0114,0.9236,0.0000,0.0000,0.0000
81.986,Crosswind,5578.008,78.317,5577.643,78.317,2456.277,2456.289,163.955,50.347,21.203,19.111,30.447,0.0039,-0.6063,-0.0116,0.9246,0.0000,0.0000,0.0000
82.201,Crosswind,5594.403,83.548,5594.038,83.548,2466.335,2466.347,163.882,50.244,21.948,19.251,30.332,0.0089,-0.5740,-0.0118,0.9257,0.0000,0.0000,0.0000
82.391,Crosswind,5610.728,88.970,5610.363,88.970,2476.377,2476.389,163.812,50.173,22.639,19.287,30.198,0.0140,-0.5455,-0.0120,0.9266,0.0000,0.0000,0.0000
82.589,Crosswind,5626.989,94.580,5626.624,94.580,2486.403,2486.415,163.751,50.084,23.272,19.218,30.052,0.0191,-0.5158,-0.0121,0.9275,0.0000,0.0000,0.0000
82.793,Crosswind,5643.180,100.377,5642.814,100.377,2496.406,2496.418,163.701,49.931,23.846,19.048,29.900,0.0241,-0.4852,-0.0121,0.9279,0.0000,0.0000,0.0000
82.987,Crosswind,5659.304,106.356,5658.938,106.356,2506.368,2506.380,163.665,49.672,24.362,18.782,29.747,0.0287,-0.4562,-0.0121,0.9280,0.0000,0.0000,0.0000
83.194,Crosswind,5675.367,112.512,5675.002,112.512,2516.266,2516.278,163.647,49.274,24.824,18.427,29.600,0.0330,-0.4511,-0.0121,0.9279,0.0000,0.0000,0.0000
83.392,Crosswind,5691.369,118.842,5691.004,118.842,2526.066,2526.078,163.647,48.693,25.243,18.005,29.463,0.0368,-0.5399,-0.0121,0.9275,0.0000,0.0000,0.0000
83.590,Crosswind,5707.316,125.339,5706.951,125.339,2535.729,2535.741,163.664,47.912,25.655,17.576,29.349,0.0397,-0.6292,-0.0120,0.9270,0.0000,0.0000,0.0000
