time_s,leg,north_m,east_m,along_m,cross_m,agl_ft,altitude_ft,speed_kts,vertical_speed_fps,heading_deg,pitch_deg,roll_deg,aileron_cmd,elevator_cmd,rudder_cmd,throttle_cmd,flaps_cmd,gear_cmd,brake_cmd
1.963,Upwind,0.708,0.000,0.708,0.000,3.691,3.691,2.641,0.000,0.000,0.450,0.000,0.0000,0.0630,0.0000,0.0000,0.5000,1.0000,1.0000
2.159,Upwind,0.889,0.000,0.889,0.000,3.693,3.693,0.742,0.042,0.000,0.367,0.000,0.0000,0.0346,0.0000,0.0000,0.5000,1.0000,1.0000
2.350,Upwind,0.895,0.000,0.895,0.000,3.706,3.706,0.032,0.054,0.000,0.308,0.000,0.0000,0.0554,0.0000,0.0000,0.5000,1.0000,1.0000
2.556,Upwind,0.892,0.000,0.892,0.000,3.695,3.695,0.074,-0.125,0.000,0.455,0.000,0.0000,0.0720,0.0000,0.0000,0.5000,1.0000,1.0000
2.760,Upwind,0.892,0.000,0.892,0.000,3.679,3.679,0.014,-0.011,0.000,0.491,0.000,0.0000,0.0664,0.0000,0.0233,0.5000,1.0000,0.0000
2.961,Upwind,0.893,0.000,0.893,0.000,3.685,3.685,0.027,0.044,0.000,0.454,0.000,0.0000,0.0603,0.0000,0.1238,0.5000,1.0000,0.0000
3.155,Upwind,0.893,0.000,0.893,0.000,3.692,3.692,0.011,0.018,0.000,0.438,0.000,0.0000,0.0619,0.0000,0.2204,0.5000,1.0000,0.0000
3.350,Upwind,0.893,0.000,0.893,0.000,3.692,3.692,0.005,-0.008,0.000,0.446,0.000,0.0000,0.0633,0.0000,0.3179,0.5000,1.0000,0.0000
3.552,Upwind,0.893,0.000,0.893,0.000,3.690,3.690,0.004,-0.006,0.000,0.452,0.000,0.0000,0.0633,0.0000,0.4191,0.5000,1.0000,0.0000
3.759,Upwind,0.893,0.000,0.893,0.000,3.690,3.690,0.009,0.003,0.000,0.450,0.000,0.0000,0.0628,0.0000,0.5224,0.5000,1.0000,0.0000
3.948,Upwind,0.895,0.000,0.895,0.000,3.691,3.691,0.024,0.002,0.000,0.448,0.000,0.0000,0.0627,0.0000,0.6168,0.5000,1.0000,0.0000
4.152,Upwind,0.899,0.000,0.899,0.000,3.691,3.691,0.053,0.000,0.000,0.449,0.000,0.0000,0.0629,0.0000,0.7189,0.5000,1.0000,0.0000
4.361,Upwind,0.907,0.000,0.907,0.000,3.691,3.691,0.094,-0.001,0.000,0.449,0.000,0.0000,0.0629,0.0000,0.8238,0.5000,1.0000,0.0000
4.550,Upwind,0.919,0.000,0.919,0.000,3.691,3.691,0.144,0.000,0.000,0.449,0.000,0.0000,0.0629,0.0000,0.9183,0.5000,1.0000,0.0000
4.748,Upwind,0.937,0.000,0.937,0.000,3.691,3.691,0.215,0.000,0.000,0.449,0.000,0.0000,0.0629,0.0000,1.0000,0.5000,1.0000,0.0000
4.954,Upwind,0.968,0.000,0.968,0.000,3.691,3.691,0.316,0.000,0.000,0.449,0.000,0.0000,0.0629,0.0000,1.0000,0.5000,1.0000,0.0000
5.158,Upwind,1.007,0.000,1.007,0.000,3.691,3.691,0.435,0.000,0.000,0.449,0.000,0.0000,0.0629,0.0000,1.0000,0.5000,1.0000,0.0000
5.347,Upwind,1.055,0.000,1.055,0.000,3.691,3.691,0.570,0.000,0.000,0.450,0.000,0.0000,0.0630,0.0000,1.0000,0.5000,1.0000,0.0000
5.565,Upwind,1.131,0.000,1.131,0.000,3.691,3.691,0.766,0.000,0.000,0.450,0.000,0.0000,0.0630,0.0000,1.0000,0.5000,1.0000,0.0000
5.752,Upwind,1.214,0.000,1.214,0.000,3.691,3.691,0.988,0.000,0.000,0.450,0.000,0.0000,0.0630,0.0000,1.0000,0.5000,1.0000,0.0000
5.959,Upwind,1.340,0.000,1.340,0.000,3.691,3.691,1.257,0.000,0.000,0.450,0.000,0.0000,0.0631,0.0000,1.0000,0.5000,1.0000,0.0000
6.148,Upwind,1.475,0.000,1.475,0.000,3.691,3.691,1.549,0.000,0.000,0.450,0.000,0.0000,0.0631,0.0000,1.0000,0.5000,1.0000,0.0000
6.355,Upwind,1.673,0.000,1.673,0.000,3.691,3.691,1.960,0.000,0.000,0.451,0.000,0.0000,0.0631,0.0000,1.0000,0.5000,1.0000,0.0000
6.550,Upwind,1.881,0.000,1.881,0.000,3.691,3.691,2.370,0.000,0.000,0.451,0.000,0.0000,0.0632,0.0000,1.0000,0.5000,1.0000,0.0000
6.753,Upwind,2.155,0.000,2.155,0.000,3.691,3.691,2.938,0.000,0.000,0.452,0.000,0.0000,0.0632,0.0000,1.0000,0.5000,1.0000,0.0000
6.961,Upwind,2.519,0.000,2.519,0.000,3.691,3.691,3.551,0.000,0.000,0.452,0.000,0.0000,0.0633,0.0000,1.0000,0.5000,1.0000,0.0000
7.154,Upwind,2.926,0.000,2.926,0.000,3.691,3.691,4.257,0.000,0.000,0.452,0.000,0.0000,0.0634,0.0000,1.0000,0.5000,1.0000,0.0000
7.358,Upwind,3.411,0.000,3.411,0.000,3.691,3.691,5.063,0.000,0.000,0.453,0.000,0.0000,0.0634,0.0000,1.0000,0.5000,1.0000,0.0000
7.549,Upwind,3.935,0.000,3.935,0.000,3.691,3.691,5.896,0.000,0.000,0.453,0.000,0.0000,0.0635,0.0000,1.0000,0.5000,1.0000,0.0000
7.750,Upwind,4.601,0.000,4.601,0.000,3.691,3.691,6.914,0.000,0.000,0.454,0.000,0.0000,0.0636,0.0000,1.0000,0.5000,1.0000,0.0000
7.953,Upwind,5.380,0.000,5.380,0.000,3.691,3.691,8.052,0.000,0.000,0.454,0.000,0.0000,0.0636,0.0000,1.0000,0.5000,1.0000,0.0000
8.153,Upwind,6.364,0.000,6.364,0.000,3.691,3.691,9.309,0.001,0.000,0.455,0.000,0.0000,0.0637,0.0000,1.0000,0.5000,1.0000,0.0000
8.355,Upwind,7.410,0.000,7.410,0.000,3.691,3.691,10.701,0.001,0.000,0.455,0.000,0.0000,0.0636,0.0000,1.0000,0.5000,1.0000,0.0000
8.549,Upwind,8.485,0.000,8.485,0.000,3.691,3.691,11.878,0.001,0.000,0.454,0.000,0.0000,0.0636,0.0000,1.0000,0.5000,1.0000,0.0000
8.762,Upwind,9.899,0.000,9.899,0.000,3.692,3.692,13.268,0.001,0.000,0.454,0.000,0.0000,0.0635,0.0000,1.0000,0.5000,1.0000,0.0000
8.947,Upwind,11.216,0.000,11.216,0.000,3.692,3.692,14.444,0.001,0.000,0.454,0.000,0.0000,0.0635,0.0000,1.0000,0.5000,1.0000,0.0000
9.162,Upwind,12.915,0.000,12.915,0.000,3.692,3.692,15.832,0.001,0.000,0.453,0.000,0.0000,0.0635,0.0000,1.0000,0.5000,1.0000,0.0000
9.362,Upwind,14.621,0.000,14.621,0.000,3.692,3.692,17.112,0.002,0.000,0.453,0.000,0.0000,0.0634,0.0000,1.0000,0.5000,1.0000,0.0000
9.551,Upwind,16.300,0.000,16.300,0.000,3.693,3.693,18.390,0.002,0.000,0.453,0.000,0.0000,0.0633,0.0000,1.0000,0.5000,1.0000,0.0000
9.754,Upwind,18.427,0.000,18.427,0.000,3.693,3.693,19.668,0.002,0.000,0.452,0.000,0.0000,0.0633,0.0000,1.0000,0.5000,1.0000,0.0000
9.959,Upwind,20.527,0.000,20.527,0.000,3.693,3.694,20.944,0.002,0.000,0.452,0.000,0.0000,0.0632,0.0000,1.0000,0.5000,1.0000,0.0000
10.153,Upwind,22.568,0.000,22.568,0.000,3.694,3.694,22.219,0.002,0.000,0.451,0.000,0.0000,0.0631,0.0000,1.0000,0.5000,1.0000,0.0000
10.358,Upwind,25.122,0.000,25.122,0.000,3.694,3.694,23.494,0.002,0.000,0.451,0.000,0.0000,0.0630,0.0000,1.0000,0.5000,1.0000,0.0000
10.549,Upwind,27.403,0.000,27.403,0.000,3.695,3.695,24.660,0.002,0.000,0.450,0.000,0.0000,0.0629,0.0000,1.0000,0.5000,1.0000,0.0000
10.754,Upwind,30.240,0.000,30.240,0.000,3.695,3.695,26.038,0.003,0.000,0.449,0.000,0.0000,0.0628,0.0000,1.0000,0.5000,1.0000,0.0000
10.967,Upwind,32.995,0.000,32.995,0.000,3.696,3.696,27.308,0.003,0.000,0.449,0.000,0.0000,0.0627,0.0000,1.0000,0.5000,1.0000,0.0000
11.153,Upwind,35.881,0.000,35.881,0.000,3.696,3.696,28.577,0.003,0.000,0.448,0.000,0.0000,0.0626,0.0000,1.0000,0.5000,1.0000,0.0000
11.363,Upwind,38.898,0.000,38.898,0.000,3.697,3.697,29.844,0.003,0.000,0.447,0.000,0.0000,0.0625,0.0000,1.0000,0.5000,1.0000,0.0000
11.552,Upwind,41.777,0.000,41.777,0.000,3.698,3.698,31.005,0.004,0.000,0.446,0.000,0.0000,0.0624,0.0000,1.0000,0.5000,1.0000,0.0000
11.756,Upwind,45.321,0.001,45.321,0.001,3.698,3.699,32.375,0.004,0.000,0.445,0.000,0.0000,0.0622,0.0000,1.0000,0.5000,1.0000,0.0000
11.952,Upwind,48.440,0.001,48.440,0.001,3.699,3.699,33.638,0.004,0.000,0.444,0.000,0.0000,0.0621,0.0000,1.0000,0.5000,1.0000,0.0000
12.155,Upwind,52.265,0.001,52.265,0.001,3.700,3.700,34.900,0.004,0.000,0.443,0.000,0.0000,0.0619,0.0000,1.0000,0.5000,1.0000,0.0000
12.356,Upwind,55.932,0.001,55.932,0.001,3.701,3.701,36.160,0.005,0.000,0.442,0.000,0.0000,0.0617,0.0000,1.0000,0.5000,1.0000,0.0000
12.547,Upwind,59.407,0.001,59.407,0.001,3.702,3.702,37.314,0.005,0.000,0.441,0.000,0.0000,0.0616,0.0000,1.0000,0.5000,1.0000,0.0000
12.760,Upwind,63.654,0.001,63.654,0.001,3.703,3.703,38.676,0.005,0.000,0.439,0.000,0.0000,0.0614,0.0000,1.0000,0.5000,1.0000,0.0000
12.953,Upwind,67.366,0.001,67.366,0.001,3.704,3.704,39.827,0.005,0.000,0.438,0.000,0.0000,0.0612,0.0000,1.0000,0.5000,1.0000,0.0000
13.152,Upwind,71.539,0.001,71.539,0.001,3.705,3.705,41.185,0.005,0.000,0.437,0.000,0.0000,0.0610,0.0000,1.0000,0.5000,1.0000,0.0000
13.350,Upwind,75.841,0.001,75.841,0.001,3.706,3.706,42.333,0.006,0.000,0.435,0.000,0.0000,0.0608,0.0000,1.0000,0.5000,1.0000,0.0000
13.562,Upwind,80.647,0.001,80.647,0.001,3.707,3.707,43.688,0.006,0.000,0.434,0.000,0.0000,0.0606,0.0000,1.0000,0.5000,1.0000,0.0000
13.752,Upwind,84.832,0.001,84.832,0.001,3.708,3.708,44.832,0.006,0.000,0.432,0.000,0.0000,0.0604,0.0000,1.0000,0.5000,1.0000,0.0000
13.956,Upwind,89.916,0.002,89.916,0.002,3.710,3.710,46.183,0.007,0.000,0.430,0.000,0.0000,0.0601,0.0000,1.0000,0.5000,1.0000,0.0000
14.159,Upwind,94.743,0.002,94.743,0.002,3.711,3.711,47.428,0.007,0.000,0.429,0.000,0.0000,0.0598,0.0000,1.0000,0.5000,1.0000,0.0000
14.353,Upwind,99.279,0.002,99.279,0.002,3.712,3.712,48.671,0.008,0.000,0.427,0.000,0.0000,0.0596,0.0000,1.0000,0.5000,1.0000,0.0000
14.557,Upwind,104.780,0.002,104.780,0.002,3.714,3.714,49.912,0.008,0.000,0.425,0.000,0.0000,0.0593,0.0000,1.0000,0.5000,1.0000,0.0000
14.759,Upwind,109.990,0.002,109.990,0.002,3.716,3.716,51.150,0.009,0.001,0.423,0.000,0.0000,0.0590,0.0000,1.0000,0.5000,1.0000,0.0000
14.962,Upwind,115.327,0.002,115.327,0.002,3.717,3.717,52.387,0.009,0.001,0.420,0.000,0.0000,0.0586,0.0000,1.0000,0.5000,1.0000,0.0000
15.149,Upwind,120.331,0.003,120.331,0.003,3.719,3.719,53.519,0.009,0.001,0.418,0.000,0.0000,0.0583,0.0000,1.0000,0.5000,1.0000,0.0000
15.362,Upwind,126.383,0.003,126.383,0.003,3.721,3.721,54.854,0.010,0.001,0.416,0.000,0.0000,0.0579,0.0000,1.0000,0.5000,1.0000,0.0000
15.547,Upwind,131.619,0.003,131.619,0.003,3.723,3.723,55.981,0.010,0.001,0.413,0.000,0.0000,0.0576,0.0000,1.0000,0.5000,1.0000,0.0000
15.757,Upwind,137.945,0.003,137.945,0.003,3.725,3.725,57.311,0.010,0.001,0.411,0.000,0.0000,0.0572,0.0000,1.0000,0.5000,1.0000,0.0000
15.959,Upwind,143.915,0.004,143.915,0.004,3.727,3.727,58.536,0.011,0.001,0.408,0.000,0.0000,0.0568,0.0000,1.0000,0.5000,1.0000,0.0000
16.155,Upwind,150.012,0.004,150.012,0.004,3.729,3.729,59.759,0.010,0.001,0.405,0.000,0.0000,0.0564,0.0000,1.0000,0.5000,1.0000,0.0000
16.361,Upwind,156.234,0.004,156.234,0.004,3.731,3.731,60.979,0.008,0.001,0.403,0.000,0.0000,0.0562,0.0000,1.0000,0.5000,1.0000,0.0000
16.561,Upwind,162.581,0.005,162.581,0.005,3.733,3.733,62.198,0.008,0.001,0.401,0.000,-0.0001,0.0559,0.0000,1.0000,0.5000,1.0000,0.0000
16.751,Upwind,168.510,0.005,168.510,0.005,3.734,3.734,63.313,0.008,0.001,0.399,0.000,-0.0001,0.0556,0.0000,1.0000,0.5000,1.0000,0.0000
16.953,Upwind,175.097,0.005,175.097,0.005,3.736,3.736,64.628,0.009,0.001,0.396,0.000,-0.0001,0.0553,0.0000,1.0000,0.5000,1.0000,0.0000
17.147,Upwind,181.809,0.006,181.809,0.006,3.738,3.738,65.739,0.009,0.001,0.394,0.000,-0.0001,0.0550,0.0000,1.0000,0.5000,1.0000,0.0000
17.348,Upwind,188.646,0.006,188.646,0.006,3.739,3.739,66.949,0.009,0.002,0.392,0.000,-0.0001,0.0546,0.0000,1.0000,0.5000,1.0000,0.0000
17.551,Upwind,195.607,0.006,195.607,0.006,3.741,3.741,68.157,0.009,0.002,0.390,0.000,-0.0001,0.0543,0.0000,1.0000,0.5000,1.0000,0.0000
17.750,Upwind,202.693,0.007,202.693,0.007,3.743,3.743,69.363,0.009,0.002,0.387,0.000,-0.0001,0.0540,0.0000,1.0000,0.5000,1.0000,0.0000
17.953,Upwind,209.902,0.007,209.902,0.007,3.745,3.745,70.666,0.009,0.002,0.385,0.000,-0.0001,0.0536,0.0000,1.0000,0.5000,1.0000,0.0000
18.151,Upwind,217.235,0.008,217.235,0.008,3.747,3.747,71.767,0.010,0.002,0.382,0.000,-0.0001,0.0533,0.0000,1.0000,0.5000,1.0000,0.0000
18.355,Upwind,225.318,0.009,225.318,0.009,3.749,3.749,73.065,0.010,0.002,0.380,0.000,-0.0001,0.0529,0.0000,1.0000,0.5000,1.0000,0.0000
18.555,Upwind,232.908,0.009,232.908,0.009,3.751,3.751,74.261,0.010,0.002,0.377,0.000,-0.0001,0.0526,0.0000,1.0000,0.5000,1.0000,0.0000
18.747,Upwind,239.973,0.010,239.973,0.010,3.753,3.753,75.356,0.010,0.003,0.375,0.000,-0.0001,0.0522,0.0000,1.0000,0.5000,1.0000,0.0000
18.949,Upwind,247.798,0.010,247.798,0.010,3.755,3.755,76.547,0.010,0.003,0.372,0.000,-0.0001,0.0519,0.0000,1.0000,0.5000,1.0000,0.0000
19.158,Upwind,256.413,0.011,256.413,0.011,3.757,3.757,77.835,0.010,0.003,0.370,0.000,-0.0001,0.0515,0.0000,1.0000,0.5000,1.0000,0.0000
19.360,Upwind,264.493,0.012,264.493,0.012,3.759,3.759,79.022,0.010,0.003,0.367,0.000,-0.0001,0.0511,0.0000,1.0000,0.5000,1.0000,0.0000
19.561,Upwind,272.695,0.013,272.695,0.013,3.761,3.761,80.206,0.010,0.003,0.364,0.000,-0.0001,0.0507,0.0000,1.0000,0.5000,1.0000,0.0000
19.748,Upwind,280.321,0.013,280.321,0.013,3.763,3.763,81.290,0.011,0.003,0.362,0.000,-0.0001,0.0504,0.0000,1.0000,0.5000,1.0000,0.0000
19.954,Upwind,289.464,0.014,289.464,0.014,3.765,3.765,82.567,0.011,0.004,0.359,0.000,-0.0001,0.0500,0.0000,1.0000,0.5000,1.0000,0.0000
20.162,Upwind,298.031,0.015,298.031,0.015,3.767,3.767,83.744,0.011,0.004,0.356,0.000,-0.0001,0.0496,0.0000,1.0000,0.5000,1.0000,0.0000
20.355,Upwind,306.718,0.016,306.718,0.016,3.769,3.769,84.918,0.011,0.004,0.353,0.000,-0.0002,0.0492,0.0000,1.0000,0.5000,1.0000,0.0000
20.555,Upwind,315.526,0.017,315.526,0.017,3.771,3.771,86.090,0.011,0.004,0.351,0.000,-0.0002,0.0488,0.0000,1.0000,0.5000,1.0000,0.0000
20.752,Upwind,323.705,0.018,323.705,0.018,3.774,3.774,87.162,0.011,0.004,0.348,0.000,-0.0002,0.0485,0.0000,1.0000,0.5000,1.0000,0.0000
20.950,Upwind,332.744,0.019,332.744,0.019,3.776,3.776,88.329,0.011,0.005,0.345,0.000,-0.0002,0.0480,0.0000,1.0000,0.5000,1.0000,0.0000
21.159,Upwind,342.671,0.020,342.671,0.020,3.778,3.778,89.590,0.011,0.005,0.342,0.000,-0.0002,0.0476,0.0000,1.0000,0.5000,1.0000,0.0000
21.360,Upwind,351.959,0.022,351.959,0.022,3.780,3.780,90.751,0.012,0.005,0.339,0.000,-0.0002,0.0472,0.0000,1.0000,0.5000,1.0000,0.0000
21.550,Upwind,360.578,0.023,360.578,0.023,3.783,3.783,91.814,0.012,0.005,0.337,0.000,-0.0002,0.0468,0.0000,1.0000,0.5000,1.0000,0.0000
21.750,Upwind,370.094,0.024,370.094,0.024,3.785,3.785,92.970,0.012,0.006,0.334,0.000,-0.0002,0.0464,0.0000,1.0000,0.5000,1.0000,0.0000
21.953,Upwind,379.729,0.025,379.729,0.025,3.787,3.787,94.220,0.012,0.006,0.330,0.000,-0.0002,0.0459,0.0000,1.0000,0.5000,1.0000,0.0000
22.157,Upwind,390.301,0.027,390.301,0.027,3.790,3.790,95.371,0.012,0.006,0.327,0.000,-0.0002,0.0455,0.0000,1.0000,0.5000,1.0000,0.0000
22.348,Upwind,399.355,0.028,399.355,0.028,3.792,3.792,96.423,0.012,0.007,0.324,0.000,-0.0002,0.0451,0.0000,1.0000,0.5000,1.0000,0.0000
22.553,Upwind,410.183,0.030,410.183,0.030,3.795,3.795,97.664,0.012,0.007,0.321,0.000,-0.0003,0.0447,0.0000,1.0000,0.5000,1.0000,0.0000
22.754,Upwind,420.301,0.032,420.301,0.032,3.797,3.797,98.807,0.012,0.007,0.318,0.000,-0.0003,0.0442,0.0000,1.0000,0.5000,1.0000,0.0000
22.957,Upwind,430.536,0.034,430.536,0.034,3.799,3.800,99.947,0.012,0.008,0.315,0.000,-0.0003,0.0438,0.0000,1.0000,0.5000,1.0000,0.0000
23.147,Upwind,440.021,0.035,440.021,0.035,3.802,3.802,100.990,0.013,0.008,0.312,0.000,-0.0003,0.0434,0.0000,1.0000,0.5000,1.0000,0.0000
23.351,Upwind,450.480,0.037,450.480,0.037,3.804,3.804,102.219,0.013,0.008,0.309,0.000,-0.0003,0.0429,0.0000,1.0000,0.5000,1.0000,0.0000
23.561,Upwind,461.943,0.040,461.943,0.040,3.807,3.807,103.351,0.013,0.009,0.305,0.000,-0.0003,0.0425,0.0000,1.0000,0.5000,1.0000,0.0000
23.759,Upwind,472.645,0.042,472.645,0.042,3.809,3.810,104.480,0.013,0.009,0.302,0.000,-0.0003,0.0420,0.0000,1.0000,0.5000,1.0000,0.0000
23.949,Upwind,482.557,0.044,482.557,0.044,3.812,3.812,105.512,0.013,0.009,0.299,0.000,-0.0003,0.0416,0.0000,1.0000,0.5000,1.0000,0.0000
24.154,Upwind,494.396,0.046,494.396,0.046,3.815,3.815,106.729,0.013,0.010,0.296,0.000,-0.0004,0.0411,0.0000,1.0000,0.5000,1.0000,0.0000
24.351,Upwind,504.520,0.048,504.520,0.048,3.817,3.817,107.850,0.013,0.010,0.293,0.000,-0.0004,0.0406,0.0000,1.0000,0.5000,1.0000,0.0000
24.559,Upwind,516.610,0.051,516.610,0.051,3.820,3.820,108.967,0.013,0.011,0.289,0.000,-0.0004,0.0402,0.0000,1.0000,0.5000,1.0000,0.0000
24.758,Upwind,527.889,0.054,527.889,0.054,3.822,3.822,110.082,0.013,0.011,0.286,0.000,-0.0004,0.0397,0.0000,1.0000,0.5000,1.0000,0.0000
24.948,Upwind,538.328,0.056,538.328,0.056,3.825,3.825,111.101,0.013,0.011,0.283,0.000,-0.0004,0.0393,0.0000,1.0000,0.5000,1.0000,0.0000
25.151,Upwind,549.827,0.059,549.827,0.059,3.828,3.828,112.211,0.013,0.012,0.280,0.000,-0.0004,0.0388,0.0000,1.0000,0.5000,1.0000,0.0000
25.348,Upwind,561.439,0.062,561.439,0.062,3.830,3.830,113.317,0.014,0.012,0.276,0.000,-0.0005,0.0383,0.0000,1.0000,0.5000,1.0000,0.0000
25.556,Upwind,574.147,0.065,574.147,0.065,3.833,3.833,114.512,0.014,0.013,0.272,0.000,-0.0005,0.0378,0.0000,1.0000,0.5000,1.0000,0.0000
25.758,Upwind,585.996,0.069,585.996,0.069,3.836,3.836,115.613,0.014,0.013,0.269,0.000,-0.0005,0.0373,0.0000,1.0000,0.5000,1.0000,0.0000
25.960,Upwind,597.957,0.072,597.957,0.072,3.839,3.839,116.710,0.014,0.014,0.266,0.000,-0.0005,0.0368,0.0000,1.0000,0.5000,1.0000,0.0000
26.162,Upwind,610.032,0.075,610.032,0.075,3.841,3.841,117.804,0.014,0.014,0.262,0.000,-0.0005,0.0364,0.0000,1.0000,0.5000,1.0000,0.0000
26.357,Upwind,622.219,0.079,622.219,0.079,3.844,3.844,118.896,0.014,0.015,0.259,0.000,-0.0005,0.0359,0.0000,1.0000,0.5000,1.0000,0.0000
26.548,Upwind,633.488,0.082,633.488,0.082,3.847,3.847,119.893,0.014,0.015,0.256,0.000,-0.0006,0.0354,0.0000,1.0000,0.5000,1.0000,0.0000
26.752,Upwind,645.890,0.086,645.890,0.086,3.850,3.850,121.069,0.014,0.016,0.252,0.000,-0.0006,0.0349,0.0000,1.0000,0.5000,1.0000,0.0000
26.957,Upwind,659.451,0.091,659.451,0.091,3.852,3.852,122.152,0.014,0.016,0.248,0.000,-0.0006,0.0344,0.0000,1.0000,0.5000,1.0000,0.0000
27.147,Upwind,671.027,0.094,671.027,0.094,3.855,3.855,123.141,0.014,0.016,0.245,0.000,-0.0006,0.0340,0.0000,1.0000,0.5000,1.0000,0.0000
27.358,Upwind,684.829,0.099,684.829,0.099,3.858,3.858,124.307,0.014,0.017,0.241,0.000,-0.0006,0.0334,0.0000,1.0000,0.5000,1.0000,0.0000
27.550,Upwind,696.608,0.103,696.608,0.103,3.861,3.861,125.291,0.014,0.018,0.238,0.000,-0.0007,0.0330,0.0000,1.0000,0.5000,1.0000,0.0000
27.755,Upwind,710.649,0.108,710.649,0.108,3.864,3.864,126.451,0.014,0.018,0.234,0.000,-0.0007,0.0324,0.0000,1.0000,0.5000,1.0000,0.0000
27.948,Upwind,722.630,0.112,722.630,0.112,3.866,3.866,127.429,0.014,0.019,0.231,0.000,-0.0007,0.0320,0.0000,1.0000,0.5000,1.0000,0.0000
28.147,Upwind,735.806,0.117,735.806,0.117,3.869,3.869,128.494,0.015,0.019,0.227,0.000,-0.0007,0.0314,0.0000,1.0000,0.5000,1.0000,0.0000
28.352,Upwind,749.091,0.122,749.091,0.122,3.872,3.872,129.555,0.015,0.020,0.224,0.000,-0.0008,0.0309,0.0000,1.0000,0.5000,1.0000,0.0000
28.549,Upwind,762.485,0.128,762.485,0.128,3.875,3.875,130.613,0.015,0.020,0.220,0.000,-0.0008,0.0304,0.0000,1.0000,0.5000,1.0000,0.0000
28.762,Upwind,777.117,0.134,777.117,0.134,3.878,3.878,131.756,0.015,0.021,0.216,0.000,-0.0008,0.0299,0.0000,1.0000,0.5000,1.0000,0.0000
28.956,Upwind,790.737,0.139,790.737,0.139,3.881,3.881,132.721,0.015,0.021,0.213,0.000,-0.0008,0.0294,0.0000,1.0000,0.5000,1.0000,0.0000
29.162,Upwind,804.466,0.145,804.466,0.145,3.884,3.884,133.857,0.015,0.022,0.209,0.000,-0.0008,0.0289,0.0000,1.0000,0.5000,1.0000,0.0000
29.362,Upwind,818.301,0.151,818.301,0.151,3.887,3.887,134.904,0.015,0.023,0.205,-0.001,-0.0009,0.0283,0.0000,1.0000,0.5000,1.0000,0.0000
29.553,Upwind,831.079,0.157,831.079,0.157,3.890,3.890,135.861,0.015,0.023,0.202,-0.001,-0.0009,0.0279,0.0000,1.0000,0.5000,1.0000,0.0000
29.750,Upwind,845.121,0.163,845.121,0.163,3.893,3.893,136.902,0.015,0.024,0.198,-0.001,-0.0009,0.0273,0.0000,1.0000,0.5000,1.0000,0.0000
29.951,Upwind,859.269,0.170,859.269,0.170,3.896,3.896,137.941,0.015,0.024,0.194,-0.001,-0.0009,0.0268,0.0000,1.0000,0.5000,1.0000,0.0000
30.161,Upwind,874.718,0.177,874.718,0.177,3.899,3.899,139.063,0.015,0.025,0.190,-0.001,-0.0010,0.0263,0.0000,1.0000,0.5000,1.0000,0.0000
30.360,Upwind,889.089,0.184,889.089,0.184,3.902,3.902,140.097,0.015,0.026,0.186,-0.001,-0.0010,0.0257,0.0000,1.0000,0.5000,1.0000,0.0000
30.561,Upwind,903.566,0.191,903.566,0.191,3.905,3.905,141.127,0.015,0.026,0.183,-0.001,-0.0010,0.0252,0.0000,1.0000,0.5000,1.0000,0.0000
30.757,Upwind,918.148,0.198,918.148,0.198,3.908,3.908,142.155,0.015,0.027,0.179,-0.001,-0.0011,0.0247,0.0000,1.0000,0.5000,1.0000,0.0000
30.947,Upwind,931.609,0.205,931.609,0.205,3.911,3.911,143.095,0.015,0.027,0.176,-0.001,-0.0011,0.0242,0.0000,1.0000,0.5000,1.0000,0.0000
31.161,Upwind,947.631,0.214,947.631,0.214,3.914,3.914,144.203,0.015,0.028,0.171,-0.001,-0.0011,0.0236,0.0000,1.0000,0.5000,1.0000,0.0000
31.359,Upwind,962.530,0.222,962.530,0.222,3.917,3.917,145.223,0.015,0.029,0.168,-0.001,-0.0011,0.0231,0.0000,1.0000,0.5000,1.0000,0.0000
31.548,Upwind,976.279,0.229,976.279,0.229,3.920,3.920,146.155,0.016,0.029,0.164,-0.001,-0.0012,0.0226,0.0000,1.0000,0.5000,1.0000,0.0000
31.758,Upwind,992.641,0.239,992.641,0.239,3.924,3.924,147.254,0.016,0.030,0.160,-0.001,-0.0012,0.0220,0.0000,1.0000,0.5000,1.0000,0.0000
31.947,Upwind,1006.582,0.247,1006.582,0.247,3.926,3.926,148.181,0.016,0.031,0.157,-0.001,-0.0012,0.0215,0.0000,1.0000,0.5000,1.0000,0.0000
32.147,Upwind,1021.889,0.256,1021.889,0.256,3.930,3.930,149.190,0.016,0.031,0.153,-0.001,-0.0013,0.0210,0.0000,1.0000,0.5000,1.0000,0.0000
32.358,Upwind,1038.589,0.265,1038.589,0.265,3.933,3.933,150.276,-0.005,0.032,0.149,-0.001,-0.0013,-0.6500,0.0000,1.0000,0.5000,1.0000,0.0000
32.546,Upwind,1052.813,0.274,1052.813,0.274,3.919,3.920,151.166,-0.083,0.033,0.253,-0.001,-0.0013,-0.6500,0.0000,1.0000,0.5000,1.0000,0.0000
32.749,Upwind,1068.425,0.284,1068.425,0.284,3.922,3.922,152.128,0.107,0.033,0.463,-0.001,-0.0014,-0.6500,0.0000,1.0000,0.5000,1.0000,0.0000
32.951,Upwind,1084.135,0.294,1084.135,0.294,3.954,3.954,153.165,0.174,0.034,0.784,-0.001,-0.0014,-0.6500,0.0000,1.0000,0.5000,1.0000,0.0000
33.153,Upwind,1101.266,0.305,1101.266,0.305,3.988,3.988,154.038,0.196,0.035,1.134,-0.001,-0.0014,-0.6500,0.0000,1.0000,0.5000,1.0000,0.0000
33.361,Upwind,1117.180,0.315,1117.180,0.315,4.034,4.034,155.060,0.229,0.036,1.637,-0.001,-0.0015,-0.6500,0.0000,1.0000,0.5000,1.0000,0.0000
33.552,Upwind,1131.853,0.325,1131.853,0.325,4.079,4.079,155.918,0.260,0.037,2.134,-0.001,-0.0015,-0.6500,0.0000,1.0000,0.5000,1.0000,0.0000
33.762,Upwind,1149.298,0.337,1149.298,0.337,4.139,4.139,156.920,0.295,0.038,2.799,-0.002,-0.0015,-0.6500,0.0000,1.0000,0.5000,1.0000,0.0000
33.950,Upwind,1164.145,0.347,1164.145,0.347,4.195,4.195,157.758,0.320,0.038,3.424,-0.002,-0.0016,-0.6500,0.0000,1.0000,0.5000,1.0000,0.0000
34.159,Upwind,1181.794,0.359,1181.794,0.359,4.268,4.268,158.734,0.348,0.039,4.227,-0.002,-0.0016,-0.6500,0.0000,1.0000,0.5000,1.0000,0.0000
34.356,Upwind,1198.180,0.371,1198.180,0.371,4.359,4.359,159.615,0.648,0.040,5.018,-0.003,-0.0015,-0.6500,0.0000,1.0000,0.5000,1.0000,0.0000
34.559,Upwind,1214.654,0.383,1214.654,0.383,4.557,4.557,160.468,1.403,0.041,5.826,-0.005,-0.0014,-0.6500,0.0000,1.0000,0.5000,1.0000,0.0000
34.761,Upwind,1231.215,0.396,1231.215,0.396,4.948,4.948,161.286,2.564,0.042,6.623,-0.009,-0.0012,-0.6500,0.0000,1.0000,0.5000,1.0000,0.0000
34.951,Upwind,1246.467,0.408,1246.467,0.408,5.606,5.606,162.067,4.066,0.042,7.390,-0.013,-0.0011,-0.6500,0.0000,1.0000,0.5000,1.0000,0.0000
35.159,Upwind,1264.574,0.421,1264.574,0.421,6.592,6.592,162.805,5.834,0.043,8.112,-0.017,-0.0009,-0.6500,0.0000,1.0000,0.5000,1.0000,0.0000
35.358,Upwind,1281.364,0.435,1281.364,0.435,7.952,7.952,163.500,7.792,0.043,8.783,-0.022,-0.0008,-0.6500,0.0000,1.0000,0.5000,1.0000,0.0000
35.561,Upwind,1298.218,0.448,1298.218,0.448,9.716,9.716,164.149,9.866,0.043,9.403,-0.026,-0.0006,-0.6500,0.0000,1.0000,0.5000,1.0000,0.0000
35.759,Upwind,1315.133,0.461,1315.133,0.461,11.904,11.904,164.753,12.024,0.043,9.974,-0.030,-0.0005,-0.6500,0.0000,1.0000,0.5000,1.0000,0.0000
35.954,Upwind,1332.102,0.474,1332.102,0.474,14.530,14.530,165.310,14.238,0.043,10.501,-0.034,-0.0004,-0.6500,0.0000,1.0000,0.5000,1.0000,0.0000
36.159,Upwind,1349.119,0.488,1349.119,0.488,17.601,17.601,165.825,16.475,0.043,10.991,-0.037,-0.0003,-0.6171,0.0000,1.0000,0.5000,1.0000,0.0000
36.349,Upwind,1364.757,0.500,1364.757,0.500,20.810,20.810,166.263,18.539,0.042,11.402,-0.039,-0.0003,-0.5325,0.0000,1.0000,0.5000,1.0000,0.0000
36.551,Upwind,1381.853,0.513,1381.853,0.513,24.742,24.742,166.707,20.771,0.042,11.771,-0.042,-0.0002,-0.4611,0.0000,1.0000,0.5000,1.0000,0.0000
36.748,Upwind,1398.984,0.526,1398.984,0.526,29.114,29.114,167.120,22.934,0.041,12.031,-0.043,-0.0002,-0.4152,0.0000,1.0000,0.5000,1.0000,0.0000
36.961,Upwind,1417.579,0.540,1417.579,0.540,34.324,34.325,167.537,25.126,0.041,12.182,-0.045,-0.0001,-0.3932,0.0000,1.0000,0.5000,1.0000,0.0000
37.147,Upwind,1433.339,0.552,1433.339,0.552,39.089,39.089,167.871,26.826,0.040,12.218,-0.046,-0.0001,-0.3926,0.0000,1.0000,0.5000,1.0000,0.0000
37.350,Upwind,1450.560,0.565,1450.560,0.565,44.624,44.624,168.218,28.493,0.039,12.189,-0.047,-0.0001,-0.4041,0.0000,1.0000,0.5000,1.0000,0.0000
37.554,Upwind,1469.245,0.579,1469.245,0.579,50.973,50.973,168.577,30.073,0.039,12.114,-0.047,-0.0001,-0.4223,0.0000,1.0000,0.5000,1.0000,0.0000
37.756,Upwind,1486.521,0.592,1486.521,0.592,57.117,57.117,168.897,31.333,0.038,12.040,-0.048,0.0000,-0.4374,0.0000,1.0000,0.5000,1.0000,0.0000
37.961,Upwind,1503.822,0.604,1503.822,0.604,63.496,63.496,169.207,32.433,0.037,11.987,-0.048,0.0000,-0.4459,0.0000,1.0000,0.5000,1.0000,0.0000
38.147,Upwind,1519.705,0.615,1519.705,0.615,69.526,69.526,169.483,33.337,0.037,11.971,-0.049,0.0000,-0.4460,0.0000,1.0000,0.5000,1.0000,0.0000
38.347,Upwind,1537.057,0.628,1537.057,0.628,76.285,76.285,169.776,34.244,0.036,11.992,-0.049,0.0000,-0.4376,0.0000,1.0000,0.5000,1.0000,0.0000
38.553,Upwind,1554.433,0.640,1554.433,0.640,83.805,83.806,170.085,35.168,0.036,12.056,-0.049,0.0000,-0.4205,0.0000,1.0000,0.5000,1.0000,0.0000
38.754,Upwind,1573.286,0.653,1573.286,0.653,90.922,90.922,170.361,35.998,0.035,12.142,-0.049,0.0000,-0.3997,0.0000,1.0000,0.5000,1.0000,0.0000
38.957,Upwind,1590.713,0.665,1590.713,0.665,98.204,98.204,170.629,36.818,0.035,12.239,-0.050,0.0000,-0.3778,0.0000,1.0000,0.5000,1.0000,0.0000
39.156,Upwind,1608.162,0.677,1608.162,0.677,105.649,105.649,170.887,37.632,0.034,12.336,-0.050,0.0000,-0.3575,0.0000,1.0000,0.5000,1.0000,0.0000
39.354,Upwind,1625.634,0.688,1625.634,0.688,113.256,113.257,171.137,38.443,0.034,12.420,-0.050,0.0000,-0.3407,0.0000,1.0000,0.5000,1.0000,0.0000
39.556,Upwind,1643.126,0.700,1643.126,0.700,121.025,121.025,171.378,39.239,0.034,12.484,-0.050,0.0000,-0.3285,0.0000,1.0000,0.5000,1.0000,0.0000
39.752,Upwind,1659.178,0.710,1659.178,0.710,128.950,128.951,171.611,40.008,0.033,12.528,-0.050,0.0000,-0.3208,0.0000,1.0000,0.5000,1.0000,0.0000
39.950,Upwind,1676.708,0.721,1676.708,0.721,136.347,136.348,171.818,40.681,0.033,12.550,-0.051,0.0000,-0.3176,0.0000,1.0000,0.5000,1.0000,0.0000
40.158,Upwind,1695.721,0.734,1695.721,0.734,145.243,145.244,172.056,41.428,0.033,12.560,-0.051,0.0000,-0.3165,0.0000,1.0000,0.5000,1.0000,0.0000
40.358,Upwind,1713.290,0.745,1713.290,0.745,153.593,153.594,172.270,42.067,0.033,12.560,-0.051,0.0000,-0.3169,0.0000,1.0000,0.5000,0.0000,0.0000
40.560,Upwind,1730.879,0.755,1730.879,0.755,162.067,162.068,172.480,42.660,0.032,12.558,-0.051,0.0000,-0.3174,0.0000,1.0000,0.5000,0.0000,0.0000
40.762,Upwind,1748.486,0.766,1748.486,0.766,170.655,170.656,172.687,43.212,0.032,12.558,-0.051,-0.0001,-0.3169,0.0000,1.0000,0.5000,0.0000,0.0000
40.955,Upwind,1766.112,0.777,1766.112,0.777,179.349,179.350,172.893,43.729,0.032,12.564,-0.050,-0.0001,-0.3151,0.0000,0.9996,0.5000,0.0000,0.0000
41.159,Upwind,1783.757,0.787,1783.757,0.787,188.145,188.145,173.093,44.218,0.032,12.576,-0.050,-0.0001,-0.3118,0.0000,0.9968,0.5000,0.0000,0.0000
41.359,Upwind,1801.420,0.798,1801.420,0.798,197.035,197.036,173.284,44.682,0.031,12.594,-0.050,-0.0001,-0.3073,0.0000,0.9942,0.5000,0.0000,0.0000
41.550,Upwind,1817.626,0.807,1817.626,0.807,205.264,205.265,173.452,45.091,0.031,12.614,-0.051,-0.0001,-0.3026,0.0000,0.9918,0.5000,0.0000,0.0000
41.759,Upwind,1836.798,0.818,1836.798,0.818,215.085,215.086,173.642,45.559,0.030,12.641,-0.051,-0.0001,-0.2966,0.0000,0.9892,0.5000,0.0000,0.0000
41.949,Upwind,1853.035,0.827,1853.035,0.827,223.472,223.474,173.795,45.941,0.030,12.663,-0.051,-0.0001,-0.2919,0.0000,0.9870,0.5000,0.0000,0.0000
42.153,Upwind,1870.762,0.837,1870.762,0.837,232.701,232.702,173.956,46.344,0.030,12.685,-0.051,-0.0001,-0.2874,0.0000,0.9848,0.5000,0.0000,0.0000
42.362,Upwind,1889.984,0.848,1889.984,0.848,242.788,242.789,174.122,46.764,0.029,12.705,-0.051,0.0000,-0.2834,0.0000,0.9824,0.5000,0.0000,0.0000
42.552,Upwind,1906.262,0.856,1906.262,0.856,252.178,252.180,174.269,47.135,0.029,12.719,-0.051,0.0000,-0.2807,0.0000,0.9804,0.5000,0.0000,0.0000
42.749,Upwind,1924.033,0.866,1924.033,0.866,260.850,260.851,174.399,47.458,0.028,12.728,-0.051,0.0000,-0.2790,0.0000,0.9786,0.5000,0.0000,0.0000
42.951,Upwind,1941.818,0.875,1941.818,0.875,270.375,270.376,174.535,47.793,0.028,12.735,-0.051,-0.0001,-0.2777,0.0000,0.9766,0.5000,0.0000,0.0000
43.148,Upwind,1959.615,0.885,1959.615,0.885,279.966,279.967,174.666,48.109,0.028,12.740,-0.051,0.0000,-0.2768,0.0000,0.9748,0.5000,0.0000,0.0000
43.359,Upwind,1978.911,0.895,1978.911,0.895,290.424,290.426,174.803,48.431,0.027,12.744,-0.051,0.0000,-0.2759,0.0000,0.9729,0.5000,0.0000,0.0000
43.547,Upwind,1995.249,0.903,1995.249,0.903,299.327,299.329,174.915,48.688,0.027,12.748,-0.051,0.0000,-0.2751,0.0000,0.9713,0.5000,0.0000,0.0000
43.754,Upwind,2014.572,0.913,2014.572,0.913,309.907,309.909,175.042,48.974,0.026,12.753,-0.051,-0.0001,-0.2740,0.0000,0.9695,0.5000,0.0000,0.0000
43.961,Upwind,2032.421,0.921,2032.421,0.921,319.727,319.729,175.157,49.225,0.026,12.758,-0.051,-0.0001,-0.2727,0.0000,0.9679,0.5000,0.0000,0.0000
44.154,Upwind,2050.281,0.930,2050.281,0.930,328.772,328.774,175.258,49.444,0.026,12.764,-0.051,-0.0001,-0.2713,0.0000,0.9665,0.5000,0.0000,0.0000
44.353,Upwind,2066.663,0.938,2066.663,0.938,339.512,339.514,175.374,49.692,0.025,12.771,-0.051,0.0000,-0.2696,0.0000,0.9649,0.5000,0.0000,0.0000
44.548,Upwind,2084.546,0.946,2084.546,0.946,348.641,348.642,175.469,49.893,0.025,12.778,-0.051,0.0000,-0.2682,0.0000,0.9636,0.5000,0.0000,0.0000
44.764,Upwind,2103.931,0.955,2103.931,0.955,359.476,359.477,175.579,50.121,0.024,12.785,-0.051,0.0000,-0.2666,0.0000,0.9620,0.5000,0.0000,0.0000
44.952,Upwind,2120.344,0.963,2120.344,0.963,368.682,368.683,175.669,50.307,0.024,12.791,-0.051,0.0000,-0.2654,0.0000,0.9608,0.5000,0.0000,0.0000
45.158,Upwind,2139.753,0.971,2139.753,0.971,379.605,379.606,175.773,50.518,0.024,12.797,-0.051,0.0000,-0.2642,0.0000,0.9593,0.5000,0.0000,0.0000
45.360,Upwind,2157.680,0.979,2157.680,0.979,389.727,389.729,175.865,50.705,0.023,12.802,-0.051,0.0000,-0.2633,0.0000,0.9580,0.5000,0.0000,0.0000
45.547,Upwind,2174.122,0.986,2174.122,0.986,399.038,399.040,175.947,50.868,0.023,12.805,-0.051,0.0000,-0.2626,0.0000,0.9569,0.5000,0.0000,0.0000
45.752,Upwind,2192.068,0.994,2192.068,0.994,409.229,409.231,176.032,51.038,0.022,12.808,-0.051,-0.0001,-0.2619,0.0000,0.9557,0.5000,0.0000,0.0000
45.957,Upwind,2211.520,1.002,2211.520,1.002,420.306,420.308,176.118,51.213,0.022,12.812,-0.051,-0.0001,-0.2610,0.0000,0.9545,0.5000,0.0000,0.0000
46.152,Upwind,2227.988,1.009,2227.988,1.009,430.564,430.566,176.194,51.367,0.022,12.816,-0.051,0.0000,-0.2600,0.0000,0.9534,0.5000,0.0000,0.0000
46.356,Upwind,2247.460,1.017,2247.460,1.017,440.852,440.854,176.265,51.514,0.021,12.821,-0.051,0.0000,-0.2589,0.0000,0.9524,0.5000,0.0000,0.0000
46.547,Upwind,2263.944,1.024,2263.944,1.024,450.308,450.311,176.327,51.644,0.021,12.826,-0.051,0.0000,-0.2579,0.0000,0.9516,0.5000,0.0000,0.0000
46.755,Upwind,2283.434,1.031,2283.434,1.031,461.514,461.516,176.397,51.793,0.021,12.832,-0.051,0.0000,-0.2565,0.0000,0.9506,0.5000,0.0000,0.0000
46.950,Upwind,2299.933,1.038,2299.933,1.038,471.021,471.023,176.453,51.914,0.020,12.837,-0.051,0.0000,-0.2554,0.0000,0.9498,0.5000,0.0000,0.0000
47.154,Upwind,2319.440,1.045,2319.440,1.045,482.283,482.286,176.515,52.051,0.020,12.843,-0.051,-0.0001,-0.2542,0.0000,0.9489,0.5000,0.0000,0.0000
47.349,Upwind,2335.952,1.051,2335.952,1.051,491.836,491.839,176.564,52.164,0.019,12.847,-0.051,0.0000,-0.2532,0.0000,0.9482,0.5000,0.0000,0.0000
47.550,Upwind,2353.972,1.058,2353.972,1.058,502.281,502.283,176.616,52.282,0.019,12.852,-0.051,-0.0001,-0.2522,0.0000,0.9475,0.5000,0.0000,0.0000
47.758,Upwind,2373.502,1.065,2373.502,1.065,513.622,513.625,176.668,52.404,0.019,12.856,-0.051,0.0000,-0.2513,0.0000,0.9468,0.5000,0.0000,0.0000
47.961,Upwind,2391.535,1.071,2391.535,1.071,524.114,524.116,176.713,52.512,0.018,12.860,-0.051,-0.0001,-0.2506,0.0000,0.9462,0.5000,0.0000,0.0000
48.158,Upwind,2409.576,1.077,2409.576,1.077,534.627,534.629,176.756,52.615,0.018,12.863,-0.051,0.0000,-0.2500,0.0000,0.9456,0.5000,0.0000,0.0000
48.357,Upwind,2427.622,1.083,2427.622,1.083,545.159,545.162,176.796,52.714,0.017,12.865,-0.051,0.0000,-0.2493,0.0000,0.9450,0.5000,0.0000,0.0000
48.563,Upwind,2445.674,1.089,2445.674,1.089,555.712,555.714,176.834,52.808,0.017,12.868,-0.051,0.0000,-0.2488,0.0000,0.9445,0.5000,0.0000,0.0000
48.764,Upwind,2463.732,1.095,2463.732,1.095,566.282,566.285,176.870,52.897,0.017,12.871,-0.051,0.0000,-0.2482,0.0000,0.9440,0.5000,0.0000,0.0000
48.964,Upwind,2481.795,1.101,2481.795,1.101,576.870,576.873,176.904,52.983,0.016,12.873,-0.051,0.0000,-0.2476,0.0000,0.9435,0.5000,0.0000,0.0000
49.154,Upwind,2499.864,1.106,2499.864,1.106,587.475,587.478,176.935,53.065,0.016,12.876,-0.051,0.0000,-0.2470,0.0000,0.9430,0.5000,0.0000,0.0000
49.354,Upwind,2517.938,1.112,2517.938,1.112,597.210,597.213,176.962,53.136,0.016,12.879,-0.051,-0.0001,-0.2465,0.0000,0.9427,0.5000,0.0000,0.0000
49.548,Upwind,2534.510,1.117,2534.510,1.117,607.845,607.848,176.990,53.211,0.015,12.881,-0.050,0.0000,-0.2459,0.0000,0.9423,0.5000,0.0000,0.0000
49.753,Upwind,2554.100,1.122,2554.100,1.122,618.494,618.497,177.017,53.283,0.015,12.884,-0.050,0.0000,-0.2454,0.0000,0.9419,0.5000,0.0000,0.0000
49.948,Upwind,2570.681,1.127,2570.681,1.127,629.158,629.161,177.041,53.352,0.015,12.886,-0.050,0.0000,-0.2449,0.0000,0.9416,0.5000,0.0000,0.0000
50.153,Upwind,2588.774,1.132,2588.774,1.132,640.725,640.728,177.066,53.423,0.014,12.889,-0.050,0.0000,-0.2443,0.0000,0.9412,0.5000,0.0000,0.0000
50.354,Upwind,2608.380,1.137,2608.380,1.137,651.416,651.419,177.087,53.486,0.014,12.891,-0.050,-0.0001,-0.2439,0.0000,0.9409,0.5000,0.0000,0.0000
50.554,Upwind,2626.481,1.142,2626.481,1.142,662.119,662.123,177.107,53.546,0.013,12.893,-0.050,0.0000,-0.2435,0.0000,0.9406,0.5000,0.0000,0.0000
50.786,Upwind,2646.097,1.147,2646.097,1.147,671.048,671.051,177.123,53.594,0.013,12.894,-0.050,-0.0001,-0.2431,0.0000,0.9404,0.5000,0.0000,0.0000
50.947,Upwind,2661.188,1.151,2661.188,1.151,682.666,682.669,177.142,53.653,0.013,12.896,-0.050,0.0000,-0.2428,0.0000,0.9402,0.5000,0.0000,0.0000
51.162,Upwind,2680.812,1.156,2680.812,1.156,694.297,694.300,177.159,53.710,0.012,12.898,-0.050,0.0000,-0.2424,0.0000,0.9399,0.5000,0.0000,0.0000
51.357,Upwind,2698.930,1.160,2698.930,1.160,704.148,704.151,177.173,53.755,0.012,12.899,-0.050,0.0000,-0.2421,0.0000,0.9397,0.5000,0.0000,0.0000
51.558,Upwind,2717.052,1.165,2717.052,1.165,715.800,715.804,177.188,53.806,0.012,12.901,-0.049,-0.0001,-0.2418,0.0000,0.9395,0.5000,0.0000,0.0000
51.754,Upwind,2735.178,1.169,2735.178,1.169,726.566,726.570,177.200,53.852,0.011,12.902,-0.049,0.0000,-0.2415,0.0000,0.9393,0.5000,0.0000,0.0000
51.952,Upwind,2751.797,1.172,2751.797,1.172,737.341,737.344,177.212,53.895,0.011,12.903,-0.049,0.0000,-0.2412,0.0000,0.9392,0.5000,0.0000,0.0000
52.157,Upwind,2771.441,1.177,2771.441,1.177,748.124,748.127,177.223,53.936,0.011,12.905,-0.049,0.0000,-0.2409,0.0000,0.9390,0.5000,0.0000,0.0000
52.356,Upwind,2789.578,1.180,2789.578,1.180,758.915,758.918,177.232,53.975,0.010,12.906,-0.049,-0.0001,-0.2406,0.0000,0.9389,0.5000,0.0000,0.0000
52.549,Upwind,2806.206,1.184,2806.206,1.184,768.813,768.817,177.241,54.009,0.010,12.907,-0.049,-0.0001,-0.2404,0.0000,0.9388,0.5000,0.0000,0.0000
52.755,Upwind,2825.861,1.188,2825.861,1.188,780.520,780.523,177.250,54.048,0.010,12.908,-0.049,0.0000,-0.2402,0.0000,0.9386,0.5000,0.0000,0.0000
52.957,Upwind,2844.008,1.191,2844.008,1.191,791.333,791.336,177.257,54.082,0.009,12.909,-0.049,0.0000,-0.2399,0.0000,0.9385,0.5000,0.0000,0.0000
53.147,Upwind,2860.646,1.194,2860.646,1.194,801.250,801.254,177.263,54.112,0.009,12.910,-0.049,-0.0001,-0.2397,0.0000,0.9384,0.5000,0.0000,0.0000
53.348,Upwind,2878.799,1.197,2878.799,1.197,812.076,812.080,177.269,54.143,0.009,12.911,-0.048,0.0000,-0.2396,0.0000,0.9384,0.5000,0.0000,0.0000
53.553,Upwind,2896.955,1.201,2896.955,1.201,823.810,823.814,177.275,54.175,0.008,12.912,-0.048,0.0000,-0.2394,0.0000,0.9383,0.5000,0.0000,0.0000
53.752,Upwind,2915.114,1.204,2915.114,1.204,834.648,834.652,177.279,54.204,0.008,12.913,-0.048,0.0000,-0.2392,0.0000,0.9382,0.5000,0.0000,0.0000
53.949,Upwind,2933.277,1.207,2933.277,1.207,845.492,845.496,177.283,54.230,0.008,12.913,-0.048,0.0000,-0.2390,0.0000,0.9382,0.5000,0.0000,0.0000
54.156,Upwind,2952.956,1.210,2952.956,1.210,856.340,856.344,177.287,54.256,0.007,12.914,-0.048,0.0000,-0.2389,0.0000,0.9381,0.5000,0.0000,0.0000
54.361,Upwind,2971.125,1.212,2971.125,1.212,867.194,867.198,177.290,54.281,0.007,12.915,-0.048,0.0000,-0.2388,0.0000,0.9381,0.5000,0.0000,0.0000
54.550,Upwind,2987.782,1.215,2987.782,1.215,877.147,877.151,177.292,54.302,0.007,12.915,-0.048,0.0000,-0.2386,0.0000,0.9380,0.5000,0.0000,0.0000
54.756,Upwind,3007.471,1.218,3007.471,1.218,888.915,888.920,177.294,54.326,0.006,12.916,-0.047,0.0000,-0.2385,0.0000,0.9380,0.5000,0.0000,0.0000
54.956,Upwind,3025.648,1.220,3025.648,1.220,899.783,899.787,177.296,54.347,0.006,12.916,-0.047,0.0000,-0.2384,0.0000,0.9380,0.5000,0.0000,0.0000
55.156,Upwind,3043.829,1.222,3043.829,1.222,910.654,910.658,177.297,54.368,0.006,12.917,-0.047,-0.0001,-0.2383,0.0000,0.9380,0.5000,0.0000,0.0000
55.354,Upwind,3062.012,1.225,3062.012,1.225,921.529,921.534,177.297,54.387,0.005,12.917,-0.047,0.0000,-0.2382,0.0000,0.9380,0.5000,0.0000,0.0000
55.551,Upwind,3078.682,1.227,3078.682,1.227,932.409,932.413,177.297,54.405,0.005,12.918,-0.047,0.0000,-0.2381,0.0000,0.9380,0.5000,0.0000,0.0000
55.753,Upwind,3096.870,1.229,3096.870,1.229,943.291,943.296,177.297,54.423,0.005,12.918,-0.047,0.0000,-0.2380,0.0000,0.9380,0.5000,0.0000,0.0000
55.954,Upwind,3116.577,1.231,3116.577,1.231,954.178,954.182,177.297,54.440,0.005,12.919,-0.047,0.0000,-0.2379,0.0000,0.9380,0.5000,0.0000,0.0000
56.156,Upwind,3134.771,1.233,3134.771,1.233,965.067,965.072,177.296,54.456,0.004,12.919,-0.047,0.0000,-0.2378,0.0000,0.9380,0.5000,0.0000,0.0000
56.349,Upwind,3151.451,1.234,3151.451,1.234,975.052,975.057,177.295,54.470,0.004,12.919,-0.046,0.0000,-0.2378,0.0000,0.9380,0.5000,0.0000,0.0000
56.548,Upwind,3169.650,1.236,3169.650,1.236,985.947,985.952,177.293,54.484,0.004,12.920,-0.046,0.0000,-0.2377,0.0000,0.9380,0.5000,0.0000,0.0000
56.752,Upwind,3187.852,1.238,3187.852,1.238,997.754,997.759,177.291,54.499,0.003,12.920,-0.046,0.0000,-0.2376,0.0000,0.9380,0.5000,0.0000,0.0000
56.955,Upwind,3207.573,1.239,3207.573,1.239,1008.655,1008.660,177.289,54.513,0.003,12.920,-0.046,0.0000,-0.2376,0.0000,0.9381,0.5000,0.0000,0.0000
57.147,Upwind,3224.262,1.241,3224.262,1.241,1018.650,1018.655,177.287,54.524,0.003,12.920,-0.046,0.0000,-0.2375,0.0000,0.9381,0.5000,0.0000,0.0000
57.357,Upwind,3243.989,1.242,3243.989,1.242,1030.465,1030.470,177.284,54.537,0.003,12.921,-0.046,0.0000,-0.2375,0.0000,0.9381,0.5000,0.0000,0.0000
57.557,Upwind,3262.201,1.244,3262.201,1.244,1041.374,1041.379,177.281,54.549,0.002,12.921,-0.046,0.0000,-0.2374,0.0000,0.9382,0.5000,0.0000,0.0000
57.757,Upwind,3280.416,1.245,3280.416,1.245,1052.285,1052.290,177.278,54.560,0.002,12.921,-0.045,0.0000,-0.2374,0.0000,0.9382,0.5000,0.0000,0.0000
57.951,Upwind,3297.114,1.246,3297.114,1.246,1063.198,1063.203,177.275,54.570,0.002,12.921,-0.045,0.0000,-0.2374,0.0000,0.9383,0.5000,0.0000,0.0000
58.153,Upwind,3315.334,1.247,3315.334,1.247,1074.113,1074.118,177.271,54.580,0.002,12.921,-0.045,0.0000,-0.2373,0.0000,0.9383,0.5000,0.0000,0.0000
58.354,Upwind,3335.074,1.248,3335.074,1.248,1085.030,1085.035,177.268,54.590,0.001,12.921,-0.045,0.0000,-0.2373,0.0000,0.9384,0.5000,0.0000,0.0000
58.553,Upwind,3351.780,1.249,3351.780,1.249,1095.948,1095.954,177.264,54.599,0.001,12.921,-0.045,0.0000,-0.2373,0.0000,0.9384,0.5000,0.0000,0.0000
58.756,Upwind,3371.525,1.250,3371.525,1.250,1106.869,1106.874,177.260,54.608,0.001,12.922,-0.045,0.0000,-0.2373,0.0000,0.9385,0.5000,0.0000,0.0000
58.958,Upwind,3389.754,1.250,3389.754,1.250,1117.791,1117.797,177.256,54.616,0.001,12.922,-0.045,0.0000,-0.2372,0.0000,0.9385,0.5000,0.0000,0.0000
59.158,Upwind,3407.986,1.251,3407.986,1.251,1128.715,1128.721,177.251,54.624,0.000,12.922,-0.045,0.0000,-0.2372,0.0000,0.9386,0.5000,0.0000,0.0000
59.352,Upwind,3424.700,1.251,3424.700,1.251,1139.641,1139.646,177.247,54.631,0.000,12.922,-0.044,0.0000,-0.2372,0.0000,0.9387,0.5000,0.0000,0.0000
59.549,Upwind,3442.936,1.252,3442.936,1.252,1149.657,1149.663,177.242,54.638,360.000,12.922,-0.044,0.0000,-0.2372,0.0000,0.9387,0.5000,0.0000,0.0000
59.754,Upwind,3462.695,1.252,3462.695,1.252,1161.496,1161.502,177.237,54.646,360.000,12.922,-0.044,0.0000,-0.2372,0.0000,0.9388,0.5000,0.0000,0.0000
59.950,Upwind,3479.416,1.253,3479.416,1.253,1172.426,1172.432,177.232,54.652,359.999,12.922,-0.044,0.0000,-0.2372,0.0000,0.9389,0.5000,0.0000,0.0000
60.152,Upwind,3497.659,1.253,3497.659,1.253,1183.357,1183.363,177.227,54.658,359.999,12.922,-0.044,0.0000,-0.2373,0.0000,0.9389,0.5000,0.0000,0.0000
60.348,Upwind,3515.905,1.253,3515.905,1.253,1194.289,1194.295,177.222,54.664,359.999,12.922,-0.044,0.0000,-0.2372,0.0000,0.9390,0.5000,0.0000,0.0000
60.549,Upwind,3534.153,1.253,3534.153,1.253,1205.223,1205.228,177.217,54.670,359.999,12.922,-0.044,0.0000,-0.2373,0.0000,0.9391,0.5000,0.0000,0.0000
60.751,Upwind,3552.403,1.253,3552.403,1.253,1216.157,1216.163,177.211,54.676,359.999,12.922,-0.044,0.0000,-0.2373,0.0000,0.9392,0.5000,0.0000,0.0000
60.948,Upwind,3570.656,1.253,3570.656,1.253,1227.093,1227.099,177.206,54.681,359.998,12.922,-0.043,0.0000,-0.2373,0.0000,0.9392,0.5000,0.0000,0.0000
61.150,Upwind,3588.911,1.253,3588.911,1.253,1238.029,1238.035,177.200,54.686,359.998,12.922,-0.043,0.0000,-0.2373,0.0000,0.9393,0.5000,0.0000,0.0000
61.357,Upwind,3608.689,1.253,3608.689,1.253,1248.967,1248.973,177.194,54.691,359.998,12.922,-0.043,0.0000,-0.2372,0.0000,0.9394,0.5000,0.0000,0.0000
61.551,Upwind,3625.427,1.253,3625.427,1.253,1259.905,1259.912,177.189,54.695,359.998,12.922,-0.043,0.0000,-0.2373,0.0000,0.9395,0.5000,0.0000,0.0000
61.750,Upwind,3643.689,1.252,3643.689,1.252,1270.845,1270.851,177.183,54.700,359.997,12.922,-0.043,0.0000,-0.2373,0.0000,0.9396,0.5000,0.0000,0.0000
61.950,Upwind,3661.953,1.252,3661.953,1.252,1281.785,1281.791,177.177,54.704,359.997,12.922,-0.043,0.0000,-0.2373,0.0000,0.9396,0.5000,0.0000,0.0000
62.153,Upwind,3680.220,1.251,3680.220,1.251,1292.727,1292.733,177.171,54.708,359.997,12.922,-0.043,0.0000,-0.2373,0.0000,0.9397,0.5000,0.0000,0.0000
62.351,Upwind,3698.489,1.251,3698.489,1.251,1303.669,1303.675,177.165,54.712,359.997,12.922,-0.043,0.0000,-0.2373,0.0000,0.9398,0.5000,0.0000,0.0000
62.556,Upwind,3718.282,1.250,3718.282,1.250,1314.611,1314.618,177.159,54.716,359.997,12.921,-0.043,0.0000,-0.2373,0.0000,0.9399,0.5000,0.0000,0.0000
62.753,Upwind,3735.033,1.250,3735.033,1.250,1325.555,1325.561,177.152,54.720,359.996,12.921,-0.043,0.0000,-0.2373,0.0000,0.9400,0.5000,0.0000,0.0000
62.949,Upwind,3753.308,1.249,3753.308,1.249,1336.499,1336.506,177.146,54.724,359.996,12.921,-0.042,0.0000,-0.2374,0.0000,0.9401,0.5000,0.0000,0.0000
63.156,Upwind,3773.109,1.248,3773.109,1.248,1347.444,1347.451,177.140,54.727,359.996,12.921,-0.042,0.0000,-0.2374,0.0000,0.9402,0.5000,0.0000,0.0000
63.351,Upwind,3789.866,1.247,3789.866,1.247,1358.390,1358.397,177.134,54.730,359.996,12.921,-0.042,0.0000,-0.2374,0.0000,0.9402,0.5000,0.0000,0.0000
63.552,Upwind,3808.149,1.246,3808.149,1.246,1369.336,1369.343,177.127,54.733,359.996,12.921,-0.042,0.0000,-0.2375,0.0000,0.9403,0.5000,0.0000,0.0000
63.754,Upwind,3826.433,1.245,3826.433,1.245,1380.283,1380.290,177.121,54.736,359.995,12.921,-0.042,0.0000,-0.2375,0.0000,0.9404,0.5000,0.0000,0.0000
63.951,Upwind,3844.720,1.244,3844.720,1.244,1391.231,1391.237,177.114,54.739,359.995,12.920,-0.042,0.0000,-0.2375,0.0000,0.9405,0.5000,0.0000,0.0000
64.153,Upwind,3863.009,1.243,3863.009,1.243,1402.179,1402.185,177.108,54.741,359.995,12.920,-0.042,0.0000,-0.2376,0.0000,0.9406,0.5000,0.0000,0.0000
64.357,Upwind,3882.825,1.242,3882.825,1.242,1413.127,1413.134,177.101,54.744,359.995,12.920,-0.042,0.0000,-0.2376,0.0000,0.9407,0.5000,0.0000,0.0000
64.549,Upwind,3899.594,1.241,3899.594,1.241,1424.076,1424.083,177.094,54.746,359.995,12.920,-0.042,0.0000,-0.2376,0.0000,0.9408,0.5000,0.0000,0.0000
64.747,Upwind,3917.890,1.240,3917.890,1.240,1434.113,1434.120,177.088,54.749,359.994,12.920,-0.042,0.0000,-0.2376,0.0000,0.9409,0.5000,0.0000,0.0000
64.947,Upwind,3936.188,1.238,3936.188,1.238,1445.063,1445.070,177.082,54.751,359.994,12.920,-0.041,0.0000,-0.2376,0.0000,0.9410,0.5000,0.0000,0.0000
65.152,Upwind,3954.488,1.237,3954.488,1.237,1456.926,1456.933,177.074,54.754,359.994,12.920,-0.041,0.0001,-0.2377,0.0000,0.9411,0.5000,0.0000,0.0000
65.355,Upwind,3974.316,1.235,3974.316,1.235,1467.877,1467.884,177.067,54.756,359.994,12.920,-0.041,0.0000,-0.2377,0.0000,0.9412,0.5000,0.0000,0.0000
65.548,Upwind,3991.095,1.234,3991.095,1.234,1478.828,1478.835,177.061,54.758,359.994,12.919,-0.041,0.0000,-0.2378,0.0000,0.9413,0.5000,0.0000,0.0000
65.752,Upwind,4009.402,1.233,4009.402,1.233,1489.780,1489.787,177.054,54.760,359.994,12.919,-0.041,0.0000,-0.2378,0.0000,0.9414,0.5000,0.0000,0.0000
65.954,Upwind,4029.237,1.231,4029.237,1.231,1500.732,1500.739,177.047,54.762,359.993,12.919,-0.041,0.0000,-0.2378,0.0000,0.9415,0.5000,0.0000,0.0000
66.150,Upwind,4046.023,1.229,4046.023,1.229,1511.685,1511.692,177.040,54.764,359.993,12.919,-0.041,0.0000,-0.2379,0.0000,0.9415,0.5000,0.0000,0.0000
66.357,Upwind,4065.863,1.227,4065.863,1.227,1522.638,1522.645,177.033,54.766,359.993,12.919,-0.040,0.0000,-0.2379,0.0000,0.9416,0.5000,0.0000,0.0000
66.557,Upwind,4084.179,1.226,4084.179,1.226,1533.591,1533.598,177.026,54.767,359.993,12.919,-0.040,0.0000,-0.2379,0.0000,0.9417,0.5000,0.0000,0.0000
66.751,Upwind,4100.971,1.224,4100.971,1.224,1544.544,1544.552,177.019,54.769,359.993,12.919,-0.040,0.0001,-0.2380,0.0000,0.9418,0.5000,0.0000,0.0000
66.954,Upwind,4119.291,1.222,4119.291,1.222,1555.498,1555.506,177.012,54.771,359.993,12.918,-0.040,0.0000,-0.2380,0.0000,0.9419,0.5000,0.0000,0.0000
67.152,Upwind,4137.613,1.220,4137.613,1.220,1566.453,1566.460,177.005,54.772,359.992,12.918,-0.040,0.0000,-0.2380,0.0000,0.9420,0.5000,0.0000,0.0000
67.355,Upwind,4157.465,1.218,4157.465,1.218,1577.407,1577.415,176.998,54.774,359.992,12.918,-0.039,0.0000,-0.2381,0.0000,0.9421,0.5000,0.0000,0.0000
67.565,Upwind,4175.793,1.216,4175.793,1.216,1588.362,1588.370,176.991,54.775,359.992,12.918,-0.039,0.0000,-0.2381,0.0000,0.9422,0.5000,0.0000,0.0000
67.755,Upwind,4194.122,1.214,4194.122,1.214,1598.404,1598.412,176.985,54.777,359.992,12.918,-0.039,0.0001,-0.2381,0.0000,0.9423,0.5000,0.0000,0.0000
67.969,Upwind,4212.454,1.212,4212.454,1.212,1610.273,1610.280,176.977,54.778,359.992,12.918,-0.039,0.0000,-0.2382,0.0000,0.9424,0.5000,0.0000,0.0000
68.152,Upwind,4229.259,1.210,4229.259,1.210,1621.228,1621.236,176.970,54.780,359.992,12.917,-0.039,0.0000,-0.2382,0.0000,0.9425,0.5000,0.0000,0.0000
68.353,Upwind,4247.595,1.208,4247.595,1.208,1632.184,1632.192,176.963,54.781,359.992,12.917,-0.039,0.0000,-0.2383,0.0000,0.9426,0.5000,0.0000,0.0000
68.553,Upwind,4265.933,1.206,4265.933,1.206,1643.141,1643.149,176.956,54.782,359.992,12.917,-0.038,0.0001,-0.2383,0.0000,0.9427,0.5000,0.0000,0.0000
68.748,Upwind,4284.274,1.203,4284.274,1.203,1654.097,1654.105,176.948,54.783,359.991,12.917,-0.038,0.0000,-0.2383,0.0000,0.9428,0.5000,0.0000,0.0000
68.949,Upwind,4302.616,1.201,4302.616,1.201,1665.054,1665.062,176.941,54.785,359.991,12.917,-0.038,0.0001,-0.2384,0.0000,0.9429,0.5000,0.0000,0.0000
69.152,Upwind,4320.961,1.199,4320.961,1.199,1676.011,1676.019,176.934,54.786,359.991,12.916,-0.038,0.0000,-0.2384,0.0000,0.9430,0.5000,0.0000,0.0000
69.352,Upwind,4339.308,1.197,4339.308,1.197,1686.968,1686.976,176.927,54.787,359.991,12.916,-0.038,0.0000,-0.2385,0.0000,0.9431,0.5000,0.0000,0.0000
69.553,Upwind,4357.657,1.194,4357.657,1.194,1697.926,1697.934,176.920,54.788,359.991,12.916,-0.038,0.0000,-0.2385,0.0000,0.9432,0.5000,0.0000,0.0000
69.755,Upwind,4377.538,1.192,4377.538,1.192,1708.883,1708.892,176.912,54.789,359.991,12.916,-0.037,0.0001,-0.2385,0.0000,0.9433,0.5000,0.0000,0.0000
69.958,Upwind,4395.891,1.189,4395.891,1.189,1719.841,1719.850,176.905,54.790,359.991,12.916,-0.037,0.0000,-0.2386,0.0000,0.9434,0.5000,0.0000,0.0000
70.147,Upwind,4412.717,1.187,4412.717,1.187,1729.886,1729.895,176.899,54.791,359.991,12.916,-0.037,0.0001,-0.2386,0.0000,0.9435,0.5000,0.0000,0.0000
70.347,Upwind,4431.075,1.184,4431.075,1.184,1740.845,1740.853,176.891,54.792,359.991,12.915,-0.037,0.0000,-0.2387,0.0000,0.9436,0.5000,0.0000,0.0000
70.548,Upwind,4449.436,1.182,4449.436,1.182,1752.716,1752.725,176.883,54.793,359.991,12.915,-0.037,0.0000,-0.2387,0.0000,0.9437,0.5000,0.0000,0.0000
70.749,Upwind,4467.798,1.179,4467.798,1.179,1763.675,1763.684,176.876,54.794,359.991,12.915,-0.037,0.0000,-0.2387,0.0000,0.9438,0.5000,0.0000,0.0000
70.948,Upwind,4486.163,1.177,4486.163,1.177,1774.634,1774.643,176.869,54.795,359.990,12.915,-0.036,0.0000,-0.2388,0.0000,0.9439,0.5000,0.0000,0.0000
71.151,Upwind,4504.529,1.174,4504.529,1.174,1785.593,1785.602,176.862,54.796,359.990,12.915,-0.036,0.0000,-0.2388,0.0000,0.9440,0.5000,0.0000,0.0000
71.348,Upwind,4522.898,1.172,4522.898,1.172,1796.552,1796.561,176.854,54.797,359.990,12.914,-0.036,0.0000,-0.2389,0.0000,0.9441,0.5000,0.0000,0.0000
71.557,Upwind,4542.801,1.169,4542.801,1.169,1807.512,1807.521,176.847,54.798,359.990,12.914,-0.036,0.0001,-0.2389,0.0000,0.9442,0.5000,0.0000,0.0000
71.752,Upwind,4559.643,1.166,4559.643,1.166,1818.472,1818.480,176.840,54.799,359.990,12.914,-0.036,0.0000,-0.2389,0.0000,0.9443,0.5000,0.0000,0.0000
71.950,Upwind,4578.019,1.163,4578.019,1.163,1829.432,1829.440,176.832,54.800,359.990,12.914,-0.036,0.0000,-0.2390,0.0000,0.9444,0.5000,0.0000,0.0000
72.159,Upwind,4597.928,1.161,4597.928,1.161,1839.478,1839.487,176.826,54.801,359.990,12.914,-0.036,0.0000,-0.2390,0.0000,0.9445,0.5000,0.0000,0.0000
72.349,Upwind,4614.776,1.158,4614.776,1.158,1851.352,1851.361,176.818,54.802,359.990,12.913,-0.035,0.0000,-0.2391,0.0000,0.9446,0.5000,0.0000,0.0000
72.551,Upwind,4633.159,1.155,4633.159,1.155,1862.312,1862.321,176.810,54.802,359.990,12.913,-0.035,0.0000,-0.2391,0.0000,0.9447,0.5000,0.0000,0.0000
72.755,Upwind,4653.075,1.152,4653.075,1.152,1873.273,1873.282,176.803,54.803,359.990,12.913,-0.035,0.0000,-0.2392,0.0000,0.9449,0.5000,0.0000,0.0000
72.952,Upwind,4669.930,1.150,4669.930,1.150,1884.233,1884.242,176.796,54.804,359.990,12.913,-0.035,0.0001,-0.2392,0.0000,0.9450,0.5000,0.0000,0.0000
73.155,Upwind,4689.851,1.147,4689.851,1.147,1895.194,1895.203,176.788,54.805,359.990,12.913,-0.035,0.0000,-0.2392,0.0000,0.9451,0.5000,0.0000,0.0000
73.354,Upwind,4708.242,1.144,4708.242,1.144,1906.155,1906.164,176.781,54.806,359.990,12.912,-0.035,0.0000,-0.2393,0.0000,0.9452,0.5000,0.0000,0.0000
73.558,Upwind,4726.636,1.141,4726.636,1.141,1917.116,1917.125,176.774,54.806,359.990,12.912,-0.035,0.0001,-0.2393,0.0000,0.9453,0.5000,0.0000,0.0000
73.752,Upwind,4743.499,1.138,4743.499,1.138,1928.077,1928.087,176.766,54.807,359.990,12.912,-0.034,0.0001,-0.2394,0.0000,0.9454,0.5000,0.0000,0.0000
73.952,Upwind,4761.896,1.136,4761.896,1.136,1939.039,1939.048,176.759,54.808,359.990,12.912,-0.034,0.0000,-0.2394,0.0000,0.9455,0.5000,0.0000,0.0000
74.158,Upwind,4781.830,1.132,4781.830,1.132,1950.000,1950.010,176.751,54.808,359.990,12.912,-0.034,0.0000,-0.2395,0.0000,0.9456,0.5000,0.0000,0.0000
74.350,Upwind,4798.698,1.130,4798.698,1.130,1960.962,1960.972,176.744,54.809,359.990,12.912,-0.034,0.0000,-0.2395,0.0000,0.9457,0.5000,0.0000,0.0000
74.554,Upwind,4818.636,1.127,4818.636,1.127,1971.924,1971.934,176.737,54.810,359.989,12.911,-0.034,0.0000,-0.2395,0.0000,0.9458,0.5000,0.0000,0.0000
74.755,Upwind,4837.043,1.124,4837.043,1.124,1982.886,1982.896,176.729,54.810,359.989,12.911,-0.034,0.0000,-0.2396,0.0000,0.9459,0.5000,0.0000,0.0000
74.954,Upwind,4853.918,1.121,4853.918,1.121,1993.848,1993.858,176.722,54.811,359.989,12.911,-0.034,0.0001,-0.2396,0.0000,0.9460,0.5000,0.0000,0.0000
75.157,Crosswind,4873.863,1.118,4873.863,1.118,2004.810,2004.820,176.709,54.808,359.989,12.911,-0.028,0.4000,-0.2397,0.0000,0.9038,0.0000,0.0000,0.0000
75.348,Crosswind,4890.735,1.116,4890.735,1.116,2015.763,2015.773,176.552,54.690,359.986,12.910,0.313,0.4000,-0.2402,0.0001,0.8087,0.0000,0.0000,0.0000
75.552,Crosswind,4909.121,1.115,4909.121,1.115,2026.676,2026.686,176.218,54.415,359.981,12.905,1.088,0.4000,-0.2417,0.0001,0.7068,0.0000,0.0000,0.0000
75.758,Crosswind,4928.997,1.123,4928.997,1.123,2037.520,2037.529,175.774,54.004,359.978,12.895,2.199,0.4000,-0.2445,0.0000,0.7000,0.0000,0.0000,0.0000
75.951,Crosswind,4945.779,1.141,4945.779,1.141,2048.272,2048.282,175.336,53.504,359.982,12.880,3.562,0.4000,-0.2480,-0.0002,0.7000,0.0000,0.0000,0.0000
76.148,Crosswind,4964.050,1.180,4964.050,1.180,2058.033,2058.043,174.943,52.969,359.998,12.863,4.978,0.4000,-0.2518,-0.0006,0.7041,0.0000,0.0000,0.0000
76.348,Crosswind,4982.287,1.248,4982.287,1.248,2068.562,2068.572,174.537,52.309,0.036,12.842,6.655,0.4000,-0.2562,-0.0012,0.7142,0.0000,0.0000,0.0000
76.552,Crosswind,5000.491,1.353,5000.491,1.353,2079.810,2079.820,174.128,51.507,0.108,12.818,8.579,0.4000,-0.2612,-0.0019,0.7251,0.0000,0.0000,0.0000
76.757,Crosswind,5020.181,1.518,5020.181,1.518,2090.031,2090.041,173.780,50.689,0.211,12.792,10.418,0.4000,-0.2662,-0.0028,0.7349,0.0000,0.0000,0.0000
76.957,Crosswind,5038.331,1.727,5038.331,1.727,2100.081,2100.091,173.460,49.798,0.356,12.763,12.292,0.3955,-0.2717,-0.0037,0.7443,0.0000,0.0000,0.0000
77.150,Crosswind,5054.949,1.975,5054.949,1.975,2109.945,2109.955,173.169,48.834,0.547,12.728,14.170,0.3228,-0.2784,-0.0047,0.7534,0.0000,0.0000,0.0000
77.358,Crosswind,5074.569,2.347,5074.569,2.347,2119.611,2119.621,172.906,47.815,0.790,12.686,15.974,0.2595,-0.2863,-0.0059,0.7619,0.0000,0.0000,0.0000
77.558,Crosswind,5092.664,2.775,5092.664,2.775,2129.068,2129.078,172.670,46.752,1.087,12.635,17.630,0.2049,-0.2962,-0.0071,0.7696,0.0000,0.0000,0.0000
77.758,Crosswind,5110.745,3.292,5110.745,3.292,2138.309,2138.319,172.460,45.649,1.439,12.574,19.093,0.1597,-0.3080,-0.0082,0.7765,0.0000,0.0000,0.0000
77.949,Crosswind,5127.311,3.852,5127.311,3.852,2147.325,2147.336,172.275,44.514,1.845,12.503,20.345,0.1223,-0.3219,-0.0092,0.7824,0.0000,0.0000,0.0000
78.148,Crosswind,5145.373,4.561,5145.373,4.561,2156.113,2156.123,172.114,43.357,2.303,12.425,21.385,0.0940,-0.3373,-0.0102,0.7874,0.0000,0.0000,0.0000
78.355,Crosswind,5164.931,5.452,5164.931,5.452,2164.667,2164.678,171.976,42.188,2.808,12.342,22.224,0.0736,-0.3533,-0.0112,0.7916,0.0000,0.0000,0.0000
78.556,Crosswind,5182.978,6.394,5182.978,6.394,2172.988,2172.998,171.859,41.020,3.354,12.259,22.884,0.0577,-0.3696,-0.0118,0.7950,0.0000,0.0000,0.0000
78.752,Crosswind,5199.515,7.362,5199.515,7.362,2181.076,2181.087,171.762,39.865,3.934,12.178,23.389,0.0456,-0.3856,-0.0123,0.7977,0.0000,0.0000,0.0000
78.953,Crosswind,5219.054,8.640,5219.054,8.640,2188.935,2188.946,171.684,38.732,4.539,12.103,23.767,0.0376,-0.4002,-0.0127,0.7998,0.0000,0.0000,0.0000
79.147,Crosswind,5235.582,9.838,5235.582,9.838,2195.943,2195.953,171.626,37.721,5.111,12.042,24.025,0.0327,-0.4120,-0.0128,0.8013,0.0000,0.0000,0.0000
79.348,Crosswind,5253.607,11.270,5253.607,11.270,2203.990,2204.001,171.576,36.568,5.796,11.981,24.247,0.0278,-0.4242,-0.0128,0.8026,0.0000,0.0000,0.0000
79.556,Crosswind,5273.128,12.974,5273.128,12.974,2211.201,2211.212,171.544,35.549,6.430,11.935,24.394,0.0248,-0.4334,-0.0126,0.8034,0.0000,0.0000,0.0000
79.751,Crosswind,5289.640,14.542,5289.640,14.542,2218.213,2218.223,171.525,34.576,7.059,11.898,24.502,0.0221,-0.4410,-0.0124,0.8040,0.0000,0.0000,0.0000
79.950,Crosswind,5307.647,16.388,5307.647,16.388,2225.034,2225.045,171.518,33.649,7.676,11.869,24.584,0.0199,-0.4473,-0.0120,0.8043,0.0000,0.0000,0.0000
80.150,Crosswind,5325.647,18.376,5325.647,18.376,2231.675,2231.686,171.522,32.765,8.276,11.846,24.648,0.0180,-0.4527,-0.0116,0.8044,0.0000,0.0000,0.0000
80.357,Crosswind,5345.138,20.693,5345.138,20.693,2238.144,2238.154,171.536,31.928,8.856,11.825,24.701,0.0163,-0.4578,-0.0112,0.8044,0.0000,0.0000,0.0000
80.553,Crosswind,5361.622,22.789,5361.622,22.789,2243.930,2243.941,171.556,31.200,9.369,11.808,24.740,0.0150,-0.4625,-0.0108,0.8042,0.0000,0.0000,0.0000
80.759,Crosswind,5381.092,25.427,5381.092,25.427,2250.600,2250.611,171.588,30.381,9.952,11.786,24.776,0.0139,-0.4683,-0.0104,0.8038,0.0000,0.0000,0.0000
80.947,Crosswind,5397.556,27.797,5397.556,27.797,2256.109,2256.120,171.622,29.715,10.428,11.765,24.797,0.0133,-0.4736,-0.0101,0.8034,0.0000,0.0000,0.0000
81.149,Crosswind,5415.506,30.526,5415.506,30.526,2262.464,2262.475,171.670,28.955,10.971,11.739,24.811,0.0133,-0.4804,-0.0098,0.8028,0.0000,0.0000,0.0000
81.357,Crosswind,5434.938,33.653,5434.938,33.653,2268.187,2268.198,171.722,28.273,11.458,11.711,24.812,0.0139,-0.4871,-0.0096,0.8021,0.0000,0.0000,0.0000
81.558,Crosswind,5452.860,36.697,5452.860,36.697,2273.774,2273.785,171.780,27.606,11.936,11.682,24.800,0.0151,-0.4940,-0.0095,0.8012,0.0000,0.0000,0.0000
81.749,Crosswind,5469.277,39.620,5469.277,39.620,2279.230,2279.241,171.844,26.952,12.407,11.651,24.775,0.0167,-0.5011,-0.0094,0.8003,0.0000,0.0000,0.0000
81.954,Crosswind,5487.171,42.953,5487.171,42.953,2284.556,2284.567,171.914,26.309,12.876,11.619,24.738,0.0188,-0.5081,-0.0094,0.7992,0.0000,0.0000,0.0000
82.151,Crosswind,5505.049,46.436,5505.049,46.436,2289.326,2289.337,171.983,25.730,13.306,11.590,24.695,0.0212,-0.5143,-0.0094,0.7981,0.0000,0.0000,0.0000
82.362,Crosswind,5524.399,50.379,5524.399,50.379,2294.828,2294.839,172.071,25.059,13.818,11.557,24.635,0.0240,-0.5214,-0.0095,0.7967,0.0000,0.0000,0.0000
82.547,Crosswind,5540.756,53.852,5540.756,53.852,2299.371,2299.382,172.150,24.502,14.256,11.530,24.579,0.0266,-0.5272,-0.0096,0.7955,0.0000,0.0000,0.0000
82.751,Crosswind,5558.582,57.784,5558.582,57.784,2304.609,2304.621,172.248,23.858,14.779,11.499,24.510,0.0295,-0.5336,-0.0097,0.7939,0.0000,0.0000,0.0000
82.951,Crosswind,5576.389,61.865,5576.389,61.865,2309.323,2309.334,172.344,23.280,15.270,11.473,24.446,0.0320,-0.5391,-0.0098,0.7924,0.0000,0.0000,0.0000
83.157,Crosswind,5595.658,66.453,5595.658,66.453,2313.922,2313.933,172.444,22.716,15.766,11.448,24.385,0.0342,-0.5442,-0.0100,0.7908,0.0000,0.0000,0.0000
83.351,Crosswind,5611.943,70.472,5611.943,70.472,2318.411,2318.422,172.548,22.169,16.268,11.424,24.329,0.0361,-0.5492,-0.0100,0.7892,0.0000,0.0000,0.0000
83.551,Crosswind,5629.688,74.998,5629.688,74.998,2322.791,2322.802,172.656,21.638,16.775,11.402,24.280,0.0376,-0.5539,-0.0101,0.7876,0.0000,0.0000,0.0000
83.758,Crosswind,5648.885,80.070,5648.885,80.070,2327.067,2327.078,172.768,21.123,17.285,11.380,24.240,0.0387,-0.5585,-0.0102,0.7859,0.0000,0.0000,0.0000
83.954,Crosswind,5666.581,84.905,5666.581,84.905,2331.241,2331.252,172.883,20.622,17.797,11.359,24.210,0.0393,-0.5629,-0.0102,0.7842,0.0000,0.0000,0.0000
84.156,Crosswind,5684.251,89.890,5684.251,89.890,2335.316,2335.328,173.001,20.135,18.311,11.339,24.188,0.0396,-0.5672,-0.0102,0.7825,0.0000,0.0000,0.0000
84.348,Crosswind,5700.426,94.590,5700.426,94.590,2339.296,2339.308,173.123,19.666,18.825,11.320,24.176,0.0396,-0.5715,-0.0102,0.7808,0.0000,0.0000,0.0000
84.551,Crosswind,5718.046,99.861,5718.046,99.861,2343.184,2343.195,173.246,19.215,19.338,11.301,24.172,0.0393,-0.5756,-0.0102,0.7790,0.0000,0.0000,0.0000
84.756,Crosswind,5737.101,105.740,5737.101,105.740,2346.984,2346.995,173.372,18.781,19.850,11.283,24.175,0.0387,-0.5797,-0.0101,0.7773,0.0000,0.0000,0.0000
84.951,Crosswind,5753.197,110.851,5753.197,110.851,2350.697,2350.709,173.500,18.360,20.361,11.265,24.184,0.0381,-0.5837,-0.0101,0.7755,0.0000,0.0000,0.0000
85.155,Crosswind,5772.185,117.055,5772.185,117.055,2354.328,2354.340,173.630,17.953,20.870,11.247,24.196,0.0373,-0.5877,-0.0101,0.7737,0.0000,0.0000,0.0000
85.356,Crosswind,5789.679,122.938,5789.679,122.938,2357.879,2357.890,173.762,17.556,21.377,11.230,24.212,0.0366,-0.5914,-0.0100,0.7719,0.0000,0.0000,0.0000
85.554,Crosswind,5807.140,128.971,5807.140,128.971,2361.352,2361.363,173.895,17.171,21.882,11.213,24.228,0.0359,-0.5951,-0.0100,0.7701,0.0000,0.0000,0.0000
85.755,Crosswind,5824.564,135.155,5824.564,135.155,2364.748,2364.759,174.030,16.794,22.386,11.197,24.244,0.0353,-0.5986,-0.0100,0.7682,0.0000,0.0000,0.0000
