time_s,leg,north_m,east_m,along_m,cross_m,agl_ft,altitude_ft,speed_kts,vertical_speed_fps,heading_deg,pitch_deg,roll_deg,aileron_cmd,elevator_cmd,rudder_cmd,throttle_cmd,flaps_cmd,gear_cmd,brake_cmd
0.000,Upwind,0.092,0.000,0.000,0.000,3.691,3.691,0.000,0.000,0.000,0.450,0.000,0.0000,0.0017,0.0000,0.1394,0.5000,1.0000,1.0000
0.190,Upwind,0.092,0.000,0.000,0.000,3.691,3.691,0.000,0.000,0.000,0.449,0.000,0.0000,0.0301,0.0000,0.0447,0.5000,1.0000,1.0000
0.391,Upwind,0.092,0.000,0.000,0.000,3.691,3.691,0.000,0.000,0.000,0.449,0.000,0.0000,0.0603,0.0000,0.0000,0.5000,1.0000,1.0000
0.602,Upwind,0.092,0.000,0.000,0.000,3.691,3.691,0.000,0.000,0.000,0.450,0.000,0.0000,0.0630,0.0000,0.0000,0.5000,1.0000,1.0000
0.789,Upwind,0.092,0.000,0.000,0.000,3.691,3.691,0.000,0.000,0.000,0.450,0.000,0.0000,0.0630,0.0000,0.0151,0.5000,1.0000,0.0000
1.001,Upwind,0.092,0.000,0.000,0.000,3.691,3.691,0.000,0.000,0.000,0.450,0.000,0.0000,0.0629,0.0000,0.1212,0.5000,1.0000,0.0000
1.189,Upwind,0.092,0.000,0.000,0.000,3.691,3.691,0.000,0.000,0.000,0.450,0.000,0.0000,0.0629,0.0000,0.2154,0.5000,1.0000,0.0000
1.392,Upwind,0.092,0.000,0.000,0.000,3.691,3.691,0.000,0.000,0.000,0.450,0.000,0.0000,0.0629,0.0000,0.3167,0.5000,1.0000,0.0000
1.600,Upwind,0.092,0.000,0.000,0.000,3.691,3.691,0.000,0.000,0.000,0.449,0.000,0.0000,0.0629,0.0000,0.4209,0.5000,1.0000,0.0000
1.797,Upwind,0.092,0.000,0.000,0.000,3.691,3.691,0.000,0.000,0.000,0.449,0.000,0.0000,0.0629,0.0000,0.5194,0.5000,1.0000,0.0000
1.989,Upwind,0.092,0.000,0.000,0.000,3.691,3.691,0.000,0.000,0.000,0.449,0.000,0.0000,0.0628,0.0000,0.6153,0.5000,1.0000,0.0000
2.201,Upwind,0.092,0.000,0.000,0.000,3.691,3.691,0.002,0.000,0.000,0.449,0.000,0.0000,0.0628,0.0000,0.7214,0.5000,1.0000,0.0000
2.391,Upwind,0.092,0.000,0.001,0.000,3.691,3.691,0.010,0.000,0.000,0.449,0.000,0.0000,0.0628,0.0000,0.8163,0.5000,1.0000,0.0000
2.597,Upwind,0.094,0.000,0.003,0.000,3.691,3.691,0.029,0.000,0.000,0.449,0.000,0.0000,0.0629,0.0000,0.9193,0.5000,1.0000,0.0000
2.796,Upwind,0.099,0.000,0.007,0.000,3.691,3.691,0.058,0.000,0.000,0.449,0.000,0.0000,0.0629,0.0000,1.0000,0.5000,1.0000,0.0000
2.993,Upwind,0.107,0.000,0.015,0.000,3.691,3.691,0.095,0.000,0.000,0.449,0.000,0.0000,0.0629,0.0000,1.0000,0.5000,1.0000,0.0000
3.194,Upwind,0.120,0.000,0.028,0.000,3.691,3.691,0.150,0.000,0.000,0.449,0.000,0.0000,0.0629,0.0000,1.0000,0.5000,1.0000,0.0000
3.394,Upwind,0.139,0.000,0.048,0.000,3.691,3.691,0.224,0.000,0.000,0.449,0.000,0.0000,0.0629,0.0000,1.0000,0.5000,1.0000,0.0000
3.593,Upwind,0.168,0.000,0.076,0.000,3.691,3.691,0.318,0.000,0.000,0.449,0.000,0.0000,0.0629,0.0000,1.0000,0.5000,1.0000,0.0000
3.790,Upwind,0.208,0.000,0.116,0.000,3.691,3.691,0.438,0.000,0.000,0.449,0.000,0.0000,0.0629,0.0000,1.0000,0.5000,1.0000,0.0000
3.999,Upwind,0.266,0.000,0.175,0.000,3.691,3.691,0.600,0.000,0.000,0.450,0.000,0.0000,0.0630,0.0000,1.0000,0.5000,1.0000,0.0000
4.191,Upwind,0.332,0.000,0.240,0.000,3.691,3.691,0.769,0.000,0.000,0.450,0.000,0.0000,0.0630,0.0000,1.0000,0.5000,1.0000,0.0000
4.397,Upwind,0.424,0.000,0.332,0.000,3.691,3.691,1.012,0.000,0.000,0.450,0.000,0.0000,0.0630,0.0000,1.0000,0.5000,1.0000,0.0000
4.596,Upwind,0.542,0.000,0.450,0.000,3.691,3.691,1.285,0.000,0.000,0.450,0.000,0.0000,0.0631,0.0000,1.0000,0.5000,1.0000,0.0000
4.800,Upwind,0.704,0.000,0.613,0.000,3.691,3.691,1.611,0.000,0.000,0.451,0.000,0.0000,0.0631,0.0000,1.0000,0.5000,1.0000,0.0000
4.995,Upwind,0.876,0.000,0.784,0.000,3.691,3.691,1.999,0.000,0.000,0.451,0.000,0.0000,0.0631,0.0000,1.0000,0.5000,1.0000,0.0000
5.195,Upwind,1.104,0.000,1.012,0.000,3.691,3.691,2.416,0.000,0.000,0.451,0.000,0.0000,0.0632,0.0000,1.0000,0.5000,1.0000,0.0000
5.392,Upwind,1.384,0.000,1.292,0.000,3.691,3.691,2.944,0.000,0.000,0.452,0.000,0.0000,0.0632,0.0000,1.0000,0.5000,1.0000,0.0000
5.597,Upwind,1.723,0.000,1.631,0.000,3.691,3.691,3.612,0.000,0.000,0.452,0.000,0.0000,0.0633,0.0000,1.0000,0.5000,1.0000,0.0000
5.795,Upwind,2.130,0.000,2.039,0.000,3.691,3.691,4.327,0.000,0.000,0.452,0.000,0.0000,0.0634,0.0000,1.0000,0.5000,1.0000,0.0000
5.994,Upwind,2.617,0.000,2.525,0.000,3.691,3.691,5.142,0.000,0.000,0.453,0.000,0.0000,0.0634,0.0000,1.0000,0.5000,1.0000,0.0000
6.191,Upwind,3.192,0.000,3.100,0.000,3.691,3.691,5.985,0.000,0.000,0.453,0.000,0.0000,0.0635,0.0000,1.0000,0.5000,1.0000,0.0000
6.395,Upwind,3.869,0.000,3.777,0.000,3.691,3.691,7.104,0.000,0.000,0.454,0.000,0.0000,0.0636,0.0000,1.0000,0.5000,1.0000,0.0000
6.596,Upwind,4.658,0.000,4.567,0.000,3.691,3.691,8.162,0.001,0.000,0.454,0.000,0.0000,0.0636,0.0000,1.0000,0.5000,1.0000,0.0000
6.795,Upwind,5.573,0.000,5.482,0.000,3.691,3.691,9.427,0.001,0.000,0.455,0.000,0.0000,0.0637,0.0000,1.0000,0.5000,1.0000,0.0000
6.990,Upwind,6.620,0.000,6.529,0.000,3.691,3.691,10.712,0.001,0.000,0.455,0.000,0.0000,0.0636,0.0000,1.0000,0.5000,1.0000,0.0000
7.190,Upwind,7.800,0.000,7.708,0.000,3.691,3.691,11.996,0.001,0.000,0.454,0.000,0.0000,0.0636,0.0000,1.0000,0.5000,1.0000,0.0000
7.402,Upwind,9.226,0.000,9.134,0.000,3.692,3.692,13.386,0.001,0.000,0.454,0.000,0.0000,0.0635,0.0000,1.0000,0.5000,1.0000,0.0000
7.595,Upwind,10.554,0.000,10.462,0.000,3.692,3.692,14.668,0.001,0.000,0.454,0.000,0.0000,0.0635,0.0000,1.0000,0.5000,1.0000,0.0000
7.793,Upwind,12.129,0.000,12.038,0.000,3.692,3.692,15.949,0.001,0.000,0.453,0.000,0.0000,0.0634,0.0000,1.0000,0.5000,1.0000,0.0000
7.990,Upwind,13.836,0.000,13.745,0.000,3.692,3.693,17.122,0.002,0.000,0.453,0.000,0.0000,0.0634,0.0000,1.0000,0.5000,1.0000,0.0000
8.198,Upwind,15.675,0.000,15.583,0.000,3.693,3.693,18.507,0.002,0.000,0.453,0.000,0.0000,0.0633,0.0000,1.0000,0.5000,1.0000,0.0000
8.390,Upwind,17.645,0.000,17.553,0.000,3.693,3.693,19.679,0.002,0.000,0.452,0.000,0.0000,0.0632,0.0000,1.0000,0.5000,1.0000,0.0000
8.603,Upwind,19.927,0.000,19.835,0.000,3.694,3.694,21.061,0.002,0.000,0.452,0.000,0.0000,0.0632,0.0000,1.0000,0.5000,1.0000,0.0000
8.796,Upwind,21.979,0.000,21.887,0.000,3.694,3.694,22.336,0.002,0.000,0.451,0.000,0.0000,0.0631,0.0000,1.0000,0.5000,1.0000,0.0000
8.990,Upwind,24.343,0.000,24.251,0.000,3.694,3.694,23.504,0.002,0.000,0.450,0.000,0.0000,0.0630,0.0000,1.0000,0.5000,1.0000,0.0000
9.192,Upwind,26.838,0.000,26.746,0.000,3.695,3.695,24.777,0.003,0.000,0.450,0.000,0.0000,0.0629,0.0000,1.0000,0.5000,1.0000,0.0000
9.390,Upwind,29.463,0.000,29.371,0.000,3.695,3.695,26.048,0.003,0.000,0.449,0.000,0.0000,0.0628,0.0000,1.0000,0.5000,1.0000,0.0000
9.596,Upwind,32.220,0.000,32.128,0.000,3.696,3.696,27.424,0.003,0.000,0.448,0.000,0.0000,0.0627,0.0000,1.0000,0.5000,1.0000,0.0000
9.793,Upwind,35.107,0.000,35.015,0.000,3.697,3.697,28.587,0.003,0.000,0.447,0.000,0.0000,0.0626,0.0000,1.0000,0.5000,1.0000,0.0000
9.989,Upwind,38.124,0.000,38.032,0.000,3.697,3.697,29.854,0.004,0.000,0.447,0.000,0.0000,0.0624,0.0000,1.0000,0.5000,1.0000,0.0000
10.202,Upwind,41.540,0.000,41.448,0.000,3.698,3.698,31.226,0.004,0.000,0.446,0.000,0.0000,0.0623,0.0000,1.0000,0.5000,1.0000,0.0000
10.399,Upwind,44.550,0.001,44.458,0.001,3.699,3.699,32.490,0.004,0.000,0.445,0.000,0.0000,0.0621,0.0000,1.0000,0.5000,1.0000,0.0000
10.590,Upwind,47.958,0.001,47.866,0.001,3.700,3.700,33.648,0.004,0.000,0.444,0.000,0.0000,0.0620,0.0000,1.0000,0.5000,1.0000,0.0000
10.793,Upwind,51.496,0.001,51.404,0.001,3.700,3.700,34.910,0.004,0.000,0.442,0.000,0.0000,0.0618,0.0000,1.0000,0.5000,1.0000,0.0000
10.997,Upwind,55.163,0.001,55.072,0.001,3.701,3.701,36.274,0.005,0.000,0.441,0.000,0.0000,0.0616,0.0000,1.0000,0.5000,1.0000,0.0000
11.196,Upwind,58.961,0.001,58.869,0.001,3.702,3.702,37.533,0.005,0.000,0.440,0.000,0.0000,0.0615,0.0000,1.0000,0.5000,1.0000,0.0000
11.392,Upwind,62.887,0.001,62.795,0.001,3.703,3.703,38.685,0.005,0.000,0.439,0.000,0.0000,0.0613,0.0000,1.0000,0.5000,1.0000,0.0000
11.598,Upwind,66.943,0.001,66.851,0.001,3.704,3.704,40.044,0.005,0.000,0.437,0.000,0.0000,0.0611,0.0000,1.0000,0.5000,1.0000,0.0000
11.800,Upwind,71.482,0.001,71.390,0.001,3.706,3.706,41.298,0.006,0.000,0.436,0.000,0.0000,0.0609,0.0000,1.0000,0.5000,1.0000,0.0000
11.992,Upwind,75.441,0.001,75.349,0.001,3.707,3.707,42.445,0.006,0.000,0.434,0.000,0.0000,0.0607,0.0000,1.0000,0.5000,1.0000,0.0000
12.193,Upwind,79.884,0.001,79.792,0.001,3.708,3.708,43.695,0.006,0.000,0.433,0.000,0.0000,0.0604,0.0000,1.0000,0.5000,1.0000,0.0000
12.393,Upwind,84.455,0.001,84.363,0.001,3.709,3.709,45.047,0.007,0.000,0.431,0.000,0.0000,0.0602,0.0000,1.0000,0.5000,1.0000,0.0000
12.594,Upwind,89.154,0.002,89.062,0.002,3.711,3.711,46.189,0.007,0.000,0.429,0.000,-0.0001,0.0599,0.0000,1.0000,0.5000,1.0000,0.0000
12.789,Upwind,93.981,0.002,93.889,0.002,3.712,3.712,47.433,0.008,0.000,0.427,0.000,-0.0001,0.0596,0.0000,1.0000,0.5000,1.0000,0.0000
12.991,Upwind,98.936,0.002,98.844,0.002,3.714,3.714,48.675,0.008,0.000,0.425,0.000,-0.0001,0.0593,0.0000,1.0000,0.5000,1.0000,0.0000
13.205,Upwind,104.448,0.002,104.356,0.002,3.715,3.715,50.019,0.009,0.000,0.423,0.000,-0.0001,0.0590,0.0000,1.0000,0.5000,1.0000,0.0000
13.400,Upwind,109.669,0.002,109.577,0.002,3.717,3.717,51.256,0.009,0.001,0.421,0.000,-0.0001,0.0587,0.0000,1.0000,0.5000,1.0000,0.0000
13.596,Upwind,114.567,0.002,114.475,0.002,3.719,3.719,52.492,0.009,0.001,0.418,0.000,-0.0001,0.0583,0.0000,1.0000,0.5000,1.0000,0.0000
13.793,Upwind,120.031,0.003,119.939,0.003,3.721,3.721,53.622,0.010,0.001,0.416,0.000,-0.0001,0.0580,0.0000,1.0000,0.5000,1.0000,0.0000
13.992,Upwind,125.623,0.003,125.531,0.003,3.723,3.723,54.853,0.010,0.001,0.414,0.000,-0.0001,0.0577,0.0000,1.0000,0.5000,1.0000,0.0000
14.191,Upwind,131.340,0.003,131.249,0.003,3.725,3.725,56.082,0.009,0.001,0.411,0.000,-0.0001,0.0573,0.0000,1.0000,0.5000,1.0000,0.0000
14.391,Upwind,137.184,0.003,137.093,0.003,3.726,3.726,57.309,0.008,0.001,0.409,0.000,-0.0001,0.0570,0.0000,1.0000,0.5000,1.0000,0.0000
14.590,Upwind,143.155,0.004,143.063,0.004,3.728,3.728,58.534,0.008,0.001,0.407,0.000,-0.0001,0.0568,0.0000,1.0000,0.5000,1.0000,0.0000
14.795,Upwind,149.251,0.004,149.159,0.004,3.730,3.730,59.859,0.008,0.001,0.405,0.000,-0.0001,0.0565,0.0000,1.0000,0.5000,1.0000,0.0000
14.992,Upwind,155.473,0.004,155.381,0.004,3.731,3.731,60.977,0.008,0.001,0.403,0.000,-0.0001,0.0562,0.0000,1.0000,0.5000,1.0000,0.0000
15.190,Upwind,161.820,0.005,161.728,0.005,3.733,3.733,62.196,0.008,0.001,0.401,0.000,-0.0001,0.0559,0.0000,1.0000,0.5000,1.0000,0.0000
15.397,Upwind,168.293,0.005,168.201,0.005,3.734,3.734,63.514,0.009,0.001,0.398,0.000,-0.0002,0.0555,0.0000,1.0000,0.5000,1.0000,0.0000
15.592,Upwind,174.890,0.005,174.798,0.005,3.736,3.736,64.626,0.009,0.001,0.396,0.000,-0.0002,0.0553,0.0000,1.0000,0.5000,1.0000,0.0000
15.791,Upwind,181.613,0.006,181.521,0.006,3.738,3.738,65.839,0.009,0.001,0.394,0.000,-0.0002,0.0549,0.0000,1.0000,0.5000,1.0000,0.0000
15.998,Upwind,189.036,0.006,188.944,0.006,3.740,3.740,67.149,0.009,0.002,0.392,0.000,-0.0002,0.0546,0.0000,1.0000,0.5000,1.0000,0.0000
16.195,Upwind,195.431,0.006,195.339,0.006,3.741,3.741,68.356,0.009,0.002,0.389,0.000,-0.0002,0.0543,0.0000,1.0000,0.5000,1.0000,0.0000
16.399,Upwind,203.123,0.007,203.032,0.007,3.743,3.743,69.562,0.009,0.002,0.387,0.000,-0.0002,0.0539,0.0000,1.0000,0.5000,1.0000,0.0000
16.594,Upwind,209.746,0.007,209.654,0.007,3.745,3.745,70.765,0.009,0.002,0.384,0.000,-0.0002,0.0536,0.0000,1.0000,0.5000,1.0000,0.0000
16.800,Upwind,217.706,0.008,217.615,0.008,3.747,3.747,71.965,0.010,0.002,0.382,0.000,-0.0003,0.0532,0.0000,1.0000,0.5000,1.0000,0.0000
16.992,Upwind,224.555,0.009,224.463,0.009,3.749,3.749,73.064,0.010,0.002,0.380,0.000,-0.0003,0.0529,0.0000,1.0000,0.5000,1.0000,0.0000
17.190,Upwind,232.145,0.009,232.053,0.009,3.751,3.751,74.260,0.010,0.002,0.377,0.000,-0.0003,0.0526,0.0000,1.0000,0.5000,1.0000,0.0000
17.391,Upwind,239.857,0.010,239.766,0.010,3.753,3.753,75.454,0.010,0.003,0.375,0.000,-0.0003,0.0522,0.0000,1.0000,0.5000,1.0000,0.0000
17.600,Upwind,248.351,0.010,248.259,0.010,3.755,3.755,76.744,0.010,0.003,0.372,0.000,-0.0003,0.0518,0.0000,1.0000,0.5000,1.0000,0.0000
17.798,Upwind,255.650,0.011,255.559,0.011,3.757,3.757,77.933,0.010,0.003,0.369,0.000,-0.0003,0.0515,0.0000,1.0000,0.5000,1.0000,0.0000
17.990,Upwind,263.730,0.012,263.638,0.012,3.759,3.759,79.021,0.010,0.003,0.367,0.000,-0.0004,0.0511,0.0000,1.0000,0.5000,1.0000,0.0000
18.189,Upwind,271.932,0.013,271.840,0.013,3.761,3.761,80.205,0.010,0.003,0.364,0.000,-0.0004,0.0507,0.0000,1.0000,0.5000,1.0000,0.0000
18.400,Upwind,280.955,0.013,280.863,0.013,3.763,3.763,81.485,0.011,0.003,0.361,0.000,-0.0004,0.0503,0.0000,1.0000,0.5000,1.0000,0.0000
18.592,Upwind,288.701,0.014,288.609,0.014,3.765,3.765,82.566,0.011,0.004,0.359,0.000,-0.0004,0.0500,0.0000,1.0000,0.5000,1.0000,0.0000
18.800,Upwind,297.986,0.015,297.894,0.015,3.767,3.767,83.743,0.011,0.004,0.356,0.000,-0.0005,0.0496,0.0000,1.0000,0.5000,1.0000,0.0000
18.995,Upwind,305.954,0.016,305.862,0.016,3.769,3.769,85.015,0.011,0.004,0.353,0.000,-0.0005,0.0492,0.0000,1.0000,0.5000,1.0000,0.0000
19.201,Upwind,315.501,0.017,315.409,0.017,3.772,3.772,86.187,0.011,0.004,0.350,0.000,-0.0005,0.0488,0.0000,1.0000,0.5000,1.0000,0.0000
19.399,Upwind,324.440,0.018,324.348,0.018,3.774,3.774,87.356,0.011,0.004,0.348,0.000,-0.0005,0.0484,0.0000,1.0000,0.5000,1.0000,0.0000
19.592,Upwind,332.738,0.019,332.646,0.019,3.776,3.776,88.425,0.011,0.005,0.345,0.000,-0.0006,0.0480,0.0000,1.0000,0.5000,1.0000,0.0000
19.790,Upwind,341.907,0.020,341.815,0.020,3.778,3.778,89.589,0.011,0.005,0.342,0.000,-0.0006,0.0476,0.0000,1.0000,0.5000,1.0000,0.0000
19.993,Upwind,351.195,0.022,351.103,0.022,3.781,3.781,90.847,0.012,0.005,0.339,0.000,-0.0006,0.0472,0.0000,1.0000,0.5000,1.0000,0.0000
20.193,Upwind,360.602,0.023,360.510,0.023,3.783,3.783,92.006,0.012,0.005,0.336,0.000,-0.0007,0.0468,0.0000,1.0000,0.5000,1.0000,0.0000
20.396,Upwind,370.128,0.024,370.036,0.024,3.785,3.785,93.162,0.012,0.006,0.333,0.000,-0.0007,0.0463,0.0000,1.0000,0.5000,1.0000,0.0000
20.592,Upwind,379.773,0.026,379.681,0.026,3.787,3.787,94.219,0.012,0.006,0.330,0.000,-0.0007,0.0459,0.0000,1.0000,0.5000,1.0000,0.0000
20.797,Upwind,389.537,0.027,389.445,0.027,3.790,3.790,95.466,0.012,0.006,0.327,0.000,-0.0008,0.0455,0.0000,1.0000,0.5000,1.0000,0.0000
20.998,Upwind,399.419,0.029,399.327,0.029,3.792,3.792,96.614,0.012,0.007,0.324,0.000,-0.0008,0.0451,0.0000,1.0000,0.5000,1.0000,0.0000
21.192,Upwind,409.419,0.030,409.327,0.030,3.795,3.795,97.759,0.012,0.007,0.321,0.000,-0.0008,0.0446,0.0000,1.0000,0.5000,1.0000,0.0000
21.398,Upwind,420.385,0.032,420.293,0.032,3.797,3.797,98.902,0.012,0.007,0.318,0.000,-0.0009,0.0442,0.0000,1.0000,0.5000,1.0000,0.0000
21.592,Upwind,429.771,0.034,429.680,0.034,3.799,3.799,99.947,0.012,0.008,0.315,0.000,-0.0009,0.0438,0.0000,1.0000,0.5000,1.0000,0.0000
21.800,Upwind,440.992,0.036,440.900,0.036,3.802,3.802,101.179,0.013,0.008,0.312,0.000,-0.0010,0.0433,0.0000,1.0000,0.5000,1.0000,0.0000
21.991,Upwind,450.593,0.037,450.501,0.037,3.804,3.804,102.219,0.013,0.008,0.309,0.000,-0.0010,0.0429,0.0000,1.0000,0.5000,1.0000,0.0000
22.190,Upwind,461.178,0.039,461.086,0.039,3.807,3.807,103.351,0.013,0.009,0.305,0.000,-0.0010,0.0425,0.0000,1.0000,0.5000,1.0000,0.0000
22.397,Upwind,471.880,0.042,471.788,0.042,3.810,3.810,104.574,0.013,0.009,0.302,0.000,-0.0011,0.0420,0.0000,1.0000,0.5000,1.0000,0.0000
22.590,Upwind,482.698,0.044,482.606,0.044,3.812,3.812,105.606,0.013,0.009,0.299,0.000,-0.0011,0.0415,0.0000,1.0000,0.5000,1.0000,0.0000
22.793,Upwind,493.632,0.046,493.540,0.046,3.815,3.815,106.823,0.013,0.010,0.296,0.000,-0.0012,0.0411,0.0000,1.0000,0.5000,1.0000,0.0000
22.989,Upwind,504.681,0.048,504.589,0.048,3.817,3.817,107.850,0.013,0.010,0.293,0.000,-0.0012,0.0406,0.0000,1.0000,0.5000,1.0000,0.0000
23.190,Upwind,515.845,0.051,515.753,0.051,3.820,3.820,108.967,0.013,0.010,0.289,0.000,-0.0013,0.0402,0.0000,1.0000,0.5000,1.0000,0.0000
23.393,Upwind,527.124,0.053,527.032,0.053,3.823,3.823,110.175,0.013,0.011,0.286,0.000,-0.0013,0.0397,0.0000,1.0000,0.5000,1.0000,0.0000
23.597,Upwind,538.518,0.056,538.426,0.056,3.825,3.825,111.287,0.013,0.011,0.282,0.000,-0.0014,0.0392,0.0000,1.0000,0.5000,1.0000,0.0000
23.789,Upwind,550.025,0.059,549.934,0.059,3.828,3.828,112.303,0.013,0.012,0.279,-0.001,-0.0014,0.0388,0.0000,1.0000,0.5000,1.0000,0.0000
23.994,Upwind,561.647,0.062,561.555,0.062,3.831,3.831,113.501,0.014,0.012,0.276,-0.001,-0.0015,0.0382,0.0000,1.0000,0.5000,1.0000,0.0000
24.196,Upwind,573.382,0.065,573.291,0.065,3.833,3.833,114.604,0.014,0.013,0.272,-0.001,-0.0015,0.0378,0.0000,1.0000,0.5000,1.0000,0.0000
24.390,Upwind,585.231,0.068,585.139,0.068,3.836,3.836,115.613,0.014,0.013,0.269,-0.001,-0.0016,0.0373,0.0000,1.0000,0.5000,1.0000,0.0000
24.595,Upwind,597.193,0.071,597.101,0.071,3.839,3.839,116.801,0.014,0.013,0.265,-0.001,-0.0017,0.0368,0.0000,1.0000,0.5000,1.0000,0.0000
24.789,Upwind,609.267,0.075,609.175,0.075,3.841,3.841,117.804,0.014,0.014,0.262,-0.001,-0.0017,0.0364,0.0000,1.0000,0.5000,1.0000,0.0000
24.998,Upwind,622.475,0.079,622.383,0.079,3.844,3.844,118.987,0.014,0.014,0.258,-0.001,-0.0018,0.0358,0.0000,1.0000,0.5000,1.0000,0.0000
25.197,Upwind,633.753,0.082,633.661,0.082,3.847,3.847,120.075,0.014,0.015,0.255,-0.001,-0.0018,0.0353,0.0000,1.0000,0.5000,1.0000,0.0000
25.397,Upwind,646.164,0.086,646.072,0.086,3.850,3.850,121.160,0.014,0.015,0.251,-0.001,-0.0019,0.0349,0.0000,1.0000,0.5000,1.0000,0.0000
25.592,Upwind,658.686,0.090,658.594,0.090,3.852,3.852,122.152,0.014,0.016,0.248,-0.001,-0.0020,0.0344,0.0000,1.0000,0.5000,1.0000,0.0000
25.798,Upwind,671.320,0.094,671.228,0.094,3.855,3.855,123.321,0.014,0.016,0.244,-0.001,-0.0020,0.0339,0.0000,1.0000,0.5000,1.0000,0.0000
25.992,Upwind,684.064,0.098,683.972,0.098,3.858,3.858,124.308,0.014,0.017,0.241,-0.001,-0.0021,0.0334,0.0000,1.0000,0.5000,1.0000,0.0000
26.199,Upwind,697.995,0.103,697.904,0.103,3.861,3.861,125.471,0.014,0.017,0.237,-0.001,-0.0022,0.0329,0.0000,1.0000,0.5000,1.0000,0.0000
26.400,Upwind,710.970,0.107,710.878,0.107,3.864,3.864,126.541,0.014,0.018,0.234,-0.001,-0.0022,0.0324,0.0000,1.0000,0.5000,1.0000,0.0000
26.591,Upwind,722.960,0.112,722.868,0.112,3.867,3.867,127.519,0.014,0.018,0.230,-0.001,-0.0023,0.0319,0.0000,1.0000,0.5000,1.0000,0.0000
26.799,Upwind,737.248,0.117,737.156,0.117,3.870,3.870,128.672,0.015,0.019,0.227,-0.001,-0.0024,0.0314,0.0000,1.0000,0.5000,1.0000,0.0000
27.000,Upwind,750.551,0.122,750.460,0.122,3.873,3.873,129.732,0.015,0.019,0.223,-0.002,-0.0024,0.0309,0.0000,1.0000,0.5000,1.0000,0.0000
27.198,Upwind,763.964,0.127,763.872,0.127,3.875,3.875,130.702,0.015,0.020,0.220,-0.002,-0.0025,0.0304,0.0000,1.0000,0.5000,1.0000,0.0000
27.392,Upwind,776.354,0.132,776.262,0.132,3.878,3.878,131.757,0.015,0.020,0.216,-0.002,-0.0026,0.0299,0.0000,1.0000,0.5000,1.0000,0.0000
27.594,Upwind,789.974,0.138,789.882,0.138,3.881,3.881,132.809,0.015,0.021,0.212,-0.002,-0.0027,0.0294,0.0000,1.0000,0.5000,1.0000,0.0000
27.800,Upwind,804.851,0.144,804.759,0.144,3.884,3.884,133.945,0.015,0.021,0.208,-0.002,-0.0027,0.0288,0.0000,1.0000,0.5000,1.0000,0.0000
27.992,Upwind,817.538,0.149,817.446,0.149,3.887,3.887,134.905,0.015,0.022,0.205,-0.002,-0.0028,0.0283,0.0000,1.0000,0.5000,1.0000,0.0000
28.200,Upwind,832.648,0.156,832.557,0.156,3.890,3.890,136.036,0.015,0.023,0.201,-0.002,-0.0029,0.0278,0.0000,1.0000,0.5000,1.0000,0.0000
28.392,Upwind,845.532,0.161,845.440,0.161,3.893,3.893,137.077,0.015,0.023,0.197,-0.002,-0.0030,0.0273,0.0000,1.0000,0.5000,1.0000,0.0000
28.592,Upwind,859.690,0.168,859.598,0.168,3.896,3.896,138.115,0.015,0.024,0.194,-0.002,-0.0031,0.0267,0.0000,1.0000,0.5000,1.0000,0.0000
28.794,Upwind,873.955,0.174,873.863,0.174,3.899,3.899,139.151,0.015,0.024,0.190,-0.002,-0.0032,0.0262,0.0000,1.0000,0.5000,1.0000,0.0000
28.996,Upwind,888.326,0.181,888.234,0.181,3.902,3.902,140.184,0.015,0.025,0.186,-0.002,-0.0032,0.0257,0.0000,1.0000,0.5000,1.0000,0.0000
29.199,Upwind,904.014,0.189,903.922,0.189,3.905,3.905,141.128,0.015,0.025,0.183,-0.003,-0.0033,0.0252,0.0000,1.0000,0.5000,1.0000,0.0000
29.393,Upwind,917.386,0.195,917.294,0.195,3.908,3.908,142.242,0.015,0.026,0.179,-0.003,-0.0034,0.0246,0.0000,1.0000,0.5000,1.0000,0.0000
29.594,Upwind,932.074,0.203,931.982,0.203,3.911,3.911,143.267,0.015,0.027,0.175,-0.003,-0.0035,0.0241,0.0000,1.0000,0.5000,1.0000,0.0000
29.793,Upwind,946.868,0.210,946.776,0.210,3.915,3.915,144.289,0.015,0.027,0.171,-0.003,-0.0036,0.0236,0.0000,1.0000,0.5000,1.0000,0.0000
29.991,Upwind,961.767,0.218,961.675,0.218,3.917,3.917,145.224,0.015,0.028,0.168,-0.003,-0.0037,0.0231,0.0000,1.0000,0.5000,1.0000,0.0000
30.195,Upwind,976.771,0.226,976.679,0.226,3.921,3.921,146.325,0.016,0.028,0.164,-0.003,-0.0038,0.0225,0.0000,1.0000,0.5000,1.0000,0.0000
30.399,Upwind,993.143,0.235,993.051,0.235,3.924,3.924,147.340,0.016,0.029,0.160,-0.003,-0.0039,0.0220,0.0000,1.0000,0.5000,1.0000,0.0000
30.596,Upwind,1007.091,0.243,1007.000,0.243,3.927,3.927,148.351,0.016,0.029,0.156,-0.003,-0.0040,0.0215,0.0000,1.0000,0.5000,1.0000,0.0000
30.799,Upwind,1023.689,0.252,1023.597,0.252,3.930,3.930,149.359,0.016,0.030,0.152,-0.004,-0.0041,0.0209,0.0000,1.0000,0.5000,1.0000,0.0000
30.995,Upwind,1037.828,0.260,1037.736,0.260,3.933,3.933,150.365,0.015,0.031,0.148,-0.004,-0.0042,-0.0105,0.0000,1.0000,0.5000,1.0000,0.0000
31.207,Upwind,1054.649,0.270,1054.558,0.270,3.935,3.935,151.367,0.004,0.031,0.153,-0.004,-0.0043,-0.1055,0.0000,1.0000,0.5000,1.0000,0.0000
31.390,Upwind,1068.977,0.279,1068.885,0.279,3.935,3.935,152.279,-0.007,0.032,0.168,-0.004,-0.0043,-0.1882,0.0000,1.0000,0.5000,1.0000,0.0000
31.598,Upwind,1084.705,0.288,1084.613,0.288,3.933,3.933,153.347,-0.006,0.033,0.189,-0.004,-0.0045,-0.2817,0.0000,1.0000,0.5000,1.0000,0.0000
31.794,Upwind,1100.534,0.298,1100.442,0.298,3.932,3.932,154.325,-0.003,0.033,0.205,-0.004,-0.0046,-0.3700,0.0000,1.0000,0.5000,1.0000,0.0000
31.999,Upwind,1117.795,0.309,1117.703,0.309,3.932,3.932,155.294,0.005,0.034,0.223,-0.005,-0.0047,-0.4622,0.0000,1.0000,0.5000,1.0000,0.0000
32.195,Upwind,1132.491,0.318,1132.399,0.318,3.936,3.936,156.254,0.031,0.035,0.273,-0.005,-0.0048,-0.5502,0.0000,1.0000,0.5000,1.0000,0.0000
32.398,Upwind,1149.966,0.330,1149.874,0.330,3.945,3.945,157.204,0.070,0.035,0.403,-0.005,-0.0049,-0.6418,0.0000,1.0000,0.5000,1.0000,0.0000
32.591,Upwind,1164.841,0.340,1164.750,0.340,3.963,3.963,158.068,0.125,0.036,0.629,-0.005,-0.0050,-0.6500,0.0000,1.0000,0.5000,1.0000,0.0000
32.790,Upwind,1181.162,0.351,1181.070,0.351,3.995,3.995,159.003,0.190,0.037,0.995,-0.005,-0.0051,-0.6500,0.0000,1.0000,0.5000,1.0000,0.0000
32.994,Upwind,1197.578,0.362,1197.486,0.362,4.042,4.042,160.008,0.248,0.038,1.523,-0.005,-0.0053,-0.6500,0.0000,1.0000,0.5000,1.0000,0.0000
33.196,Upwind,1214.089,0.373,1213.997,0.373,4.097,4.097,160.925,0.295,0.038,2.121,-0.006,-0.0054,-0.6500,0.0000,1.0000,0.5000,1.0000,0.0000
33.396,Upwind,1230.694,0.385,1230.603,0.385,4.160,4.160,161.831,0.337,0.039,2.815,-0.006,-0.0055,-0.6500,0.0000,1.0000,0.5000,1.0000,0.0000
33.591,Upwind,1247.392,0.397,1247.300,0.397,4.225,4.225,162.651,0.371,0.040,3.529,-0.006,-0.0056,-0.6500,0.0000,1.0000,0.5000,1.0000,0.0000
33.792,Upwind,1264.181,0.410,1264.089,0.410,4.325,4.325,163.598,0.657,0.041,4.450,-0.009,-0.0053,-0.6500,0.0000,1.0000,0.5000,1.0000,0.0000
33.997,Upwind,1281.058,0.422,1280.966,0.422,4.528,4.528,164.442,1.455,0.041,5.340,-0.017,-0.0048,-0.6500,0.0000,1.0000,0.5000,1.0000,0.0000
34.191,Upwind,1298.019,0.435,1297.927,0.435,4.894,4.894,165.184,2.597,0.042,6.158,-0.028,-0.0043,-0.6500,0.0000,1.0000,0.5000,1.0000,0.0000
34.394,Upwind,1315.061,0.448,1314.969,0.448,5.570,5.570,165.952,4.227,0.042,7.030,-0.042,-0.0037,-0.6500,0.0000,1.0000,0.5000,1.0000,0.0000
34.596,Upwind,1332.178,0.461,1332.086,0.461,6.606,6.606,166.675,6.180,0.042,7.860,-0.058,-0.0032,-0.6500,0.0000,1.0000,0.5000,1.0000,0.0000
34.797,Upwind,1349.364,0.474,1349.272,0.474,8.199,8.199,167.403,8.559,0.041,8.702,-0.074,-0.0025,-0.6500,0.0000,1.0000,0.5000,1.0000,0.0000
34.990,Upwind,1366.612,0.486,1366.520,0.486,9.963,9.964,167.972,10.706,0.040,9.362,-0.088,-0.0020,-0.6500,0.0000,1.0000,0.5000,1.0000,0.0000
35.194,Upwind,1383.916,0.498,1383.825,0.498,12.569,12.570,168.590,13.368,0.038,10.084,-0.102,-0.0014,-0.6500,0.0000,1.0000,0.5000,1.0000,0.0000
35.394,Upwind,1401.270,0.510,1401.178,0.510,15.495,15.496,169.106,15.899,0.036,10.697,-0.113,-0.0010,-0.6500,0.0000,1.0000,0.5000,1.0000,0.0000
35.589,Upwind,1418.666,0.520,1418.574,0.520,18.625,18.625,169.537,18.247,0.033,11.220,-0.121,-0.0005,-0.6261,0.0000,1.0000,0.5000,1.0000,0.0000
35.793,Upwind,1436.100,0.530,1436.008,0.530,22.531,22.531,169.964,20.809,0.030,11.743,-0.128,-0.0001,-0.5956,0.0001,1.0000,0.5000,1.0000,0.0000
36.000,Upwind,1455.021,0.541,1454.929,0.541,27.337,27.337,170.379,23.542,0.025,12.244,-0.132,0.0003,-0.5645,0.0001,1.0000,0.5000,1.0000,0.0000
36.195,Upwind,1471.055,0.548,1470.963,0.548,32.293,32.293,170.723,26.004,0.021,12.642,-0.135,0.0007,-0.5352,0.0001,1.0000,0.5000,1.0000,0.0000
36.391,Upwind,1488.568,0.556,1488.476,0.556,37.261,37.261,171.008,28.187,0.016,12.948,-0.135,0.0010,-0.5058,0.0001,1.0000,0.5000,1.0000,0.0000
36.593,Upwind,1506.098,0.563,1506.006,0.563,43.130,43.130,171.289,30.482,0.012,13.218,-0.134,0.0013,-0.4756,0.0001,1.0000,0.5000,1.0000,0.0000
36.797,Upwind,1523.643,0.568,1523.551,0.568,49.992,49.992,171.564,32.839,0.007,13.436,-0.130,0.0015,-0.4448,0.0001,1.0000,0.5000,1.0000,0.0000
36.995,Upwind,1541.200,0.573,1541.108,0.573,56.766,56.766,171.794,34.876,0.003,13.572,-0.126,0.0017,-0.4152,0.0001,1.0000,0.5000,1.0000,0.0000
37.195,Upwind,1558.767,0.578,1558.675,0.578,63.932,63.932,172.006,36.761,359.999,13.647,-0.121,0.0018,-0.3852,0.0001,1.0000,0.5000,1.0000,0.0000
37.394,Upwind,1576.343,0.581,1576.251,0.581,71.460,71.460,172.203,38.490,359.995,13.665,-0.115,0.0018,-0.3553,0.0001,1.0000,0.5000,1.0000,0.0000
37.599,Upwind,1595.394,0.584,1595.302,0.584,79.317,79.317,172.391,40.049,359.993,13.631,-0.108,0.0018,-0.3246,0.0001,1.0000,0.5000,1.0000,0.0000
37.793,Upwind,1611.522,0.585,1611.430,0.585,86.778,86.778,172.559,41.322,359.991,13.555,-0.102,0.0018,-0.2956,0.0000,1.0000,0.5000,1.0000,0.0000
37.999,Upwind,1630.593,0.587,1630.501,0.587,95.877,95.877,172.753,42.632,359.989,13.414,-0.094,0.0016,-0.2646,0.0000,1.0000,0.5000,1.0000,0.0000
38.209,Upwind,1648.208,0.587,1648.116,0.587,104.508,104.508,172.932,43.646,359.988,13.237,-0.088,0.0015,-0.2331,0.0000,0.9992,0.5000,1.0000,0.0000
38.401,Upwind,1665.836,0.588,1665.744,0.588,113.323,113.324,173.109,44.474,359.988,13.019,-0.081,0.0012,-0.2387,0.0000,0.9967,0.5000,1.0000,0.0000
38.592,Upwind,1682.007,0.587,1681.915,0.587,121.532,121.533,173.265,45.050,359.988,12.798,-0.075,0.0010,-0.2871,0.0000,0.9945,0.5000,1.0000,0.0000
38.800,Upwind,1701.134,0.587,1701.042,0.587,131.347,131.348,173.444,45.518,359.989,12.563,-0.069,0.0008,-0.3336,0.0000,0.9920,0.5000,1.0000,0.0000
38.989,Upwind,1717.333,0.586,1717.242,0.586,139.718,139.718,173.592,45.778,359.989,12.421,-0.064,0.0006,-0.3582,0.0000,0.9899,0.5000,1.0000,0.0000
39.193,Upwind,1735.021,0.585,1734.930,0.585,148.894,148.895,173.747,45.979,359.990,12.343,-0.060,0.0004,-0.3673,0.0000,0.9877,0.5000,1.0000,0.0000
39.400,Upwind,1754.202,0.583,1754.110,0.583,158.877,158.877,173.909,46.165,359.991,12.349,-0.056,0.0002,-0.3584,0.0000,0.9854,0.5000,1.0000,0.0000
39.599,Upwind,1771.924,0.582,1771.832,0.582,168.129,168.129,174.050,46.361,359.991,12.421,-0.053,0.0000,-0.3384,0.0000,0.9834,0.5000,1.0000,0.0000
39.795,Upwind,1788.181,0.580,1788.089,0.580,177.424,177.425,174.183,46.608,359.992,12.534,-0.050,-0.0001,-0.3120,0.0000,0.9816,0.5000,1.0000,0.0000
39.991,Upwind,1805.929,0.579,1805.838,0.579,185.994,185.995,174.296,46.891,359.992,12.650,-0.048,-0.0002,-0.2852,0.0000,0.9800,0.5000,1.0000,0.0000
40.195,Upwind,1823.689,0.577,1823.597,0.577,196.196,196.196,174.419,47.284,359.993,12.776,-0.047,-0.0002,-0.2597,0.0000,0.9783,0.5000,1.0000,0.0000
40.394,Upwind,1841.458,0.575,1841.366,0.575,205.692,205.693,174.524,47.685,359.993,12.864,-0.046,-0.0002,-0.2433,0.0000,0.9768,0.5000,1.0000,0.0000
40.592,Upwind,1859.237,0.573,1859.145,0.573,214.469,214.470,174.612,48.063,359.993,12.913,-0.045,-0.0003,-0.2359,0.0000,0.9756,0.5000,1.0000,0.0000
40.797,Upwind,1877.023,0.571,1876.932,0.571,224.930,224.931,174.708,48.494,359.993,12.933,-0.044,-0.0002,-0.2348,0.0000,0.9742,0.5000,1.0000,0.0000
40.992,Upwind,1894.817,0.568,1894.725,0.568,233.852,233.853,174.783,48.829,359.993,12.922,-0.044,-0.0002,-0.2394,0.0000,0.9732,0.5000,1.0000,0.0000
41.197,Upwind,1912.619,0.566,1912.527,0.566,244.470,244.471,174.867,49.174,359.992,12.889,-0.044,-0.0002,-0.2479,0.0000,0.9720,0.5000,1.0000,0.0000
41.389,Upwind,1930.428,0.564,1930.336,0.564,253.508,253.509,174.933,49.421,359.992,12.854,-0.044,-0.0001,-0.2558,0.0000,0.9711,0.5000,1.0000,0.0000
41.593,Upwind,1948.244,0.561,1948.152,0.561,264.243,264.244,175.008,49.664,359.991,12.816,-0.044,-0.0001,-0.2635,0.0000,0.9700,0.5000,1.0000,0.0000
41.792,Upwind,1966.068,0.559,1965.976,0.559,273.364,273.366,175.068,49.836,359.991,12.793,-0.044,0.0000,-0.2673,0.0000,0.9692,0.5000,1.0000,0.0000
41.996,Upwind,1983.900,0.556,1983.808,0.556,284.181,284.183,175.135,50.012,359.990,12.781,-0.044,0.0000,-0.2684,0.0000,0.9682,0.5000,1.0000,0.0000
42.190,Upwind,2001.738,0.553,2001.646,0.553,293.363,293.364,175.188,50.149,359.990,12.784,-0.043,0.0001,-0.2664,0.0000,0.9675,0.5000,1.0000,0.0000
42.390,Upwind,2019.584,0.551,2019.492,0.551,303.407,303.409,175.243,50.294,359.989,12.800,-0.043,0.0001,-0.2620,0.0000,0.9667,0.5000,1.0000,0.0000
42.597,Upwind,2037.437,0.548,2037.345,0.548,314.322,314.323,175.299,50.456,359.989,12.825,-0.043,0.0002,-0.2559,0.0000,0.9659,0.5000,1.0000,0.0000
42.799,Upwind,2056.784,0.545,2056.692,0.545,324.428,324.430,175.346,50.610,359.988,12.852,-0.042,0.0002,-0.2501,0.0000,0.9653,0.5000,1.0000,0.0000
42.995,Upwind,2073.160,0.542,2073.068,0.542,334.566,334.567,175.390,50.769,359.988,12.877,-0.042,0.0002,-0.2450,0.0000,0.9646,0.5000,1.0000,0.0000
43.199,Upwind,2092.519,0.539,2092.427,0.539,344.736,344.737,175.431,50.930,359.988,12.896,-0.041,0.0003,-0.2412,0.0000,0.9641,0.5000,1.0000,0.0000
43.393,Upwind,2108.905,0.536,2108.813,0.536,354.937,354.939,175.468,51.088,359.987,12.909,-0.040,0.0002,-0.2390,0.0000,0.9635,0.5000,1.0000,0.0000
43.589,Upwind,2126.785,0.533,2126.693,0.533,364.316,364.318,175.500,51.227,359.987,12.916,-0.039,0.0002,-0.2383,0.0000,0.9631,0.5000,1.0000,0.0000
43.791,Upwind,2144.669,0.529,2144.578,0.529,374.576,374.578,175.532,51.368,359.987,12.917,-0.038,0.0002,-0.2384,0.0000,0.9626,0.5000,1.0000,0.0000
43.997,Upwind,2162.558,0.526,2162.467,0.526,385.721,385.723,175.565,51.508,359.987,12.914,-0.037,0.0002,-0.2393,0.0000,0.9622,0.5000,1.0000,0.0000
44.196,Upwind,2180.452,0.523,2180.360,0.523,396.034,396.036,175.592,51.623,359.987,12.910,-0.036,0.0002,-0.2404,0.0000,0.9618,0.5000,1.0000,0.0000
44.390,Upwind,2198.350,0.519,2198.258,0.519,405.507,405.509,175.616,51.718,359.987,12.906,-0.035,0.0002,-0.2411,0.0000,0.9615,0.5000,1.0000,0.0000
44.594,Upwind,2216.252,0.516,2216.161,0.516,416.724,416.726,175.642,51.819,359.987,12.903,-0.034,0.0002,-0.2415,0.0000,0.9611,0.5000,1.0000,0.0000
44.797,Upwind,2234.159,0.513,2234.067,0.513,427.097,427.099,175.664,51.904,359.987,12.903,-0.034,0.0001,-0.2413,0.0000,0.9608,0.5000,1.0000,0.0000
44.999,Upwind,2253.562,0.509,2253.470,0.509,437.485,437.488,175.684,51.984,359.987,12.905,-0.033,0.0001,-0.2405,0.0000,0.9605,0.5000,1.0000,0.0000
45.192,Upwind,2269.984,0.506,2269.892,0.506,447.022,447.024,175.702,52.053,359.987,12.909,-0.032,0.0001,-0.2395,0.0000,0.9603,0.5000,1.0000,0.0000
45.393,Upwind,2287.902,0.502,2287.811,0.502,458.309,458.311,175.721,52.133,359.987,12.915,-0.031,0.0001,-0.2380,0.0000,0.9600,0.5000,1.0000,0.0000
45.598,Upwind,2305.824,0.499,2305.733,0.499,468.743,468.745,175.737,52.205,359.987,12.922,-0.030,0.0001,-0.2366,0.0000,0.9598,0.5000,1.0000,0.0000
45.798,Upwind,2323.750,0.495,2323.658,0.495,479.191,479.193,175.751,52.275,359.987,12.928,-0.030,0.0001,-0.2354,0.0000,0.9596,0.5000,1.0000,0.0000
45.997,Upwind,2341.679,0.492,2341.587,0.492,489.652,489.655,175.764,52.343,359.988,12.933,-0.029,0.0000,-0.2344,0.0000,0.9594,0.5000,1.0000,0.0000
46.202,Upwind,2361.107,0.488,2361.015,0.488,500.127,500.130,175.776,52.408,359.988,12.936,-0.029,0.0000,-0.2337,0.0000,0.9592,0.5000,1.0000,0.0000
46.396,Upwind,2377.548,0.485,2377.457,0.485,510.615,510.618,175.787,52.470,359.988,12.939,-0.028,0.0000,-0.2333,0.0000,0.9591,0.5000,1.0000,0.0000
46.599,Upwind,2396.982,0.482,2396.891,0.482,521.115,521.118,175.796,52.529,359.988,12.940,-0.028,0.0000,-0.2331,0.0000,0.9589,0.5000,1.0000,0.0000
46.789,Upwind,2413.430,0.478,2413.338,0.478,530.750,530.753,175.804,52.578,359.988,12.941,-0.028,0.0000,-0.2330,0.0000,0.9588,0.5000,1.0000,0.0000
46.992,Upwind,2431.375,0.475,2431.283,0.475,542.148,542.151,175.813,52.633,359.988,12.941,-0.028,0.0000,-0.2330,0.0000,0.9587,0.5000,1.0000,0.0000
47.196,Upwind,2449.323,0.472,2449.232,0.472,552.679,552.682,175.820,52.679,359.988,12.941,-0.028,0.0001,-0.2330,0.0000,0.9586,0.5000,1.0000,0.0000
47.396,Upwind,2467.275,0.469,2467.183,0.469,563.219,563.222,175.826,52.722,359.988,12.941,-0.027,0.0000,-0.2329,0.0000,0.9585,0.5000,1.0000,0.0000
47.597,Upwind,2485.229,0.465,2485.138,0.465,573.768,573.770,175.831,52.762,359.988,12.942,-0.027,0.0000,-0.2327,0.0000,0.9584,0.5000,1.0000,0.0000
47.799,Upwind,2504.683,0.462,2504.592,0.462,584.324,584.327,175.835,52.799,359.988,12.943,-0.027,0.0000,-0.2324,0.0000,0.9584,0.5000,1.0000,0.0000
47.992,Upwind,2521.147,0.459,2521.055,0.459,594.007,594.009,175.839,52.832,359.988,12.944,-0.027,0.0000,-0.2321,0.0000,0.9583,0.5000,1.0000,0.0000
48.201,Upwind,2540.607,0.455,2540.515,0.455,605.457,605.460,175.843,52.868,359.988,12.946,-0.027,0.0000,-0.2317,0.0000,0.9583,0.5000,1.0000,0.0000
48.391,Upwind,2557.076,0.453,2556.984,0.453,615.153,615.156,175.845,52.898,359.989,12.948,-0.027,0.0000,-0.2313,0.0000,0.9582,0.5000,1.0000,0.0000
48.589,Upwind,2575.044,0.449,2574.953,0.449,625.735,625.738,175.847,52.929,359.989,12.949,-0.026,0.0000,-0.2310,0.0000,0.9582,0.5000,1.0000,0.0000
48.795,Upwind,2593.015,0.446,2592.924,0.446,637.207,637.210,175.849,52.961,359.989,12.951,-0.026,0.0000,-0.2307,0.0000,0.9582,0.5000,1.0000,0.0000
48.997,Upwind,2610.990,0.443,2610.898,0.443,647.802,647.805,175.850,52.989,359.989,12.952,-0.026,0.0000,-0.2305,0.0000,0.9582,0.5000,1.0000,0.0000
49.190,Upwind,2628.966,0.440,2628.874,0.440,657.519,657.522,175.850,53.014,359.989,12.953,-0.026,0.0001,-0.2303,0.0000,0.9582,0.5000,1.0000,0.0000
49.392,Upwind,2646.945,0.437,2646.853,0.437,668.124,668.127,175.850,53.039,359.989,12.954,-0.026,0.0001,-0.2302,0.0000,0.9582,0.5000,1.0000,0.0000
49.598,Upwind,2664.927,0.434,2664.835,0.434,679.619,679.622,175.850,53.065,359.989,12.954,-0.026,0.0000,-0.2301,0.0000,0.9582,0.5000,1.0000,0.0000
49.791,Upwind,2682.911,0.432,2682.819,0.432,689.349,689.352,175.849,53.085,359.989,12.954,-0.026,0.0000,-0.2300,0.0000,0.9582,0.5000,1.0000,0.0000
49.992,Upwind,2700.897,0.429,2700.806,0.429,699.968,699.971,175.848,53.106,359.989,12.955,-0.026,0.0000,-0.2299,0.0000,0.9582,0.5000,1.0000,0.0000
50.194,Upwind,2718.887,0.426,2718.795,0.426,711.477,711.480,175.846,53.127,359.990,12.955,-0.026,0.0000,-0.2299,0.0000,0.9582,0.5000,1.0000,0.0000
50.400,Upwind,2738.378,0.423,2738.286,0.423,722.104,722.107,175.844,53.145,359.990,12.955,-0.026,0.0000,-0.2298,0.0000,0.9583,0.5000,1.0000,0.0000
50.595,Upwind,2754.872,0.420,2754.781,0.420,732.734,732.738,175.842,53.162,359.990,12.956,-0.026,0.0000,-0.2297,0.0000,0.9583,0.5000,1.0000,0.0000
50.795,Upwind,2772.869,0.418,2772.777,0.418,743.368,743.372,175.839,53.178,359.990,12.956,-0.026,0.0000,-0.2296,0.0000,0.9583,0.5000,1.0000,0.0000
50.994,Upwind,2790.868,0.415,2790.776,0.415,754.005,754.009,175.837,53.193,359.990,12.957,-0.026,0.0000,-0.2295,0.0000,0.9584,0.5000,1.0000,0.0000
51.200,Upwind,2810.369,0.412,2810.277,0.412,764.645,764.649,175.834,53.208,359.990,12.957,-0.026,0.0000,-0.2294,0.0000,0.9584,0.5000,1.0000,0.0000
51.396,Upwind,2826.872,0.410,2826.781,0.410,775.288,775.292,175.830,53.221,359.990,12.958,-0.026,0.0000,-0.2293,0.0000,0.9584,0.5000,1.0000,0.0000
51.597,Upwind,2844.878,0.407,2844.786,0.407,785.934,785.937,175.827,53.234,359.990,12.958,-0.026,0.0000,-0.2292,0.0000,0.9585,0.5000,1.0000,0.0000
51.799,Upwind,2864.387,0.404,2864.295,0.404,796.582,796.586,175.823,53.247,359.991,12.958,-0.026,0.0000,-0.2291,0.0000,0.9585,0.5000,1.0000,0.0000
51.999,Upwind,2882.398,0.402,2882.306,0.402,807.232,807.236,175.819,53.259,359.991,12.959,-0.026,0.0001,-0.2291,0.0000,0.9586,0.5000,1.0000,0.0000
52.198,Upwind,2900.411,0.400,2900.320,0.400,817.885,817.889,175.815,53.270,359.991,12.959,-0.026,0.0000,-0.2290,0.0000,0.9587,0.5000,1.0000,0.0000
52.398,Upwind,2916.925,0.397,2916.833,0.397,828.540,828.544,175.811,53.280,359.991,12.959,-0.026,0.0000,-0.2290,0.0000,0.9587,0.5000,1.0000,0.0000
52.590,Upwind,2934.943,0.395,2934.851,0.395,838.309,838.313,175.807,53.289,359.991,12.959,-0.026,0.0000,-0.2290,0.0000,0.9588,0.5000,1.0000,0.0000
52.794,Upwind,2952.963,0.393,2952.871,0.393,849.856,849.860,175.801,53.299,359.991,12.959,-0.026,0.0000,-0.2290,0.0000,0.9588,0.5000,1.0000,0.0000
52.994,Upwind,2970.985,0.390,2970.893,0.390,860.517,860.521,175.797,53.308,359.991,12.959,-0.026,0.0000,-0.2289,0.0000,0.9589,0.5000,1.0000,0.0000
53.192,Upwind,2989.009,0.388,2988.917,0.388,871.179,871.183,175.792,53.316,359.991,12.959,-0.026,0.0000,-0.2289,0.0000,0.9590,0.5000,1.0000,0.0000
53.394,Upwind,3007.035,0.386,3006.944,0.386,880.954,880.958,175.787,53.323,359.992,12.960,-0.026,0.0000,-0.2289,0.0000,0.9590,0.5000,1.0000,0.0000
53.593,Upwind,3025.064,0.384,3024.972,0.384,891.620,891.624,175.782,53.331,359.992,12.960,-0.026,0.0000,-0.2289,0.0000,0.9591,0.5000,1.0000,0.0000
53.798,Upwind,3043.095,0.382,3043.003,0.382,903.175,903.180,175.776,53.338,359.992,12.960,-0.026,0.0000,-0.2289,0.0000,0.9592,0.5000,1.0000,0.0000
53.998,Upwind,3061.128,0.380,3061.036,0.380,913.844,913.848,175.771,53.345,359.992,12.960,-0.026,0.0000,-0.2289,0.0000,0.9593,0.5000,1.0000,0.0000
54.192,Upwind,3079.163,0.377,3079.071,0.377,923.624,923.628,175.766,53.351,359.992,12.960,-0.026,0.0000,-0.2288,0.0000,0.9593,0.5000,1.0000,0.0000
54.390,Upwind,3097.201,0.375,3097.109,0.375,934.295,934.299,175.760,53.357,359.992,12.960,-0.026,0.0000,-0.2288,0.0000,0.9594,0.5000,1.0000,0.0000
54.596,Upwind,3115.242,0.373,3115.150,0.373,945.856,945.860,175.754,53.363,359.992,12.960,-0.026,0.0000,-0.2288,0.0000,0.9595,0.5000,1.0000,0.0000
54.791,Upwind,3133.283,0.372,3133.191,0.372,955.640,955.644,175.749,53.368,359.992,12.960,-0.026,0.0000,-0.2289,0.0000,0.9596,0.5000,1.0000,0.0000
54.991,Upwind,3151.327,0.370,3151.235,0.370,966.314,966.318,175.743,53.373,359.993,12.960,-0.026,0.0000,-0.2289,0.0000,0.9597,0.5000,1.0000,0.0000
55.198,Upwind,3170.877,0.368,3170.785,0.368,977.878,977.883,175.736,53.378,359.993,12.960,-0.026,0.0000,-0.2289,0.0000,0.9598,0.5000,1.0000,0.0000
55.399,Upwind,3188.927,0.366,3188.836,0.366,988.554,988.559,175.730,53.383,359.993,12.960,-0.026,0.0000,-0.2289,0.0000,0.9598,0.5000,1.0000,0.0000
55.600,Upwind,3206.978,0.364,3206.886,0.364,999.231,999.236,175.724,53.387,359.993,12.960,-0.026,0.0000,-0.2289,0.0000,0.9599,0.5000,1.0000,0.0000
55.792,Upwind,3223.525,0.362,3223.433,0.362,1009.019,1009.024,175.719,53.391,359.993,12.960,-0.026,0.0000,-0.2289,0.0000,0.9600,0.5000,1.0000,0.0000
55.995,Upwind,3241.582,0.361,3241.490,0.361,1020.588,1020.592,175.712,53.395,359.993,12.960,-0.027,0.0000,-0.2289,0.0000,0.9601,0.5000,1.0000,0.0000
56.191,Upwind,3259.638,0.359,3259.546,0.359,1030.377,1030.382,175.706,53.399,359.993,12.960,-0.027,0.0000,-0.2289,0.0000,0.9602,0.5000,1.0000,0.0000
56.398,Upwind,3277.697,0.357,3277.605,0.357,1041.947,1041.952,175.699,53.403,359.993,12.960,-0.027,0.0000,-0.2289,0.0000,0.9603,0.5000,1.0000,0.0000
56.599,Upwind,3297.265,0.355,3297.174,0.355,1052.628,1052.633,175.693,53.406,359.993,12.960,-0.027,0.0000,-0.2289,0.0000,0.9604,0.5000,1.0000,0.0000
56.790,Upwind,3313.825,0.354,3313.733,0.354,1062.419,1062.424,175.687,53.409,359.994,12.959,-0.027,0.0000,-0.2290,0.0000,0.9605,0.5000,1.0000,0.0000
56.991,Upwind,3331.891,0.352,3331.799,0.352,1073.101,1073.106,175.681,53.412,359.994,12.959,-0.027,0.0000,-0.2290,0.0000,0.9605,0.5000,1.0000,0.0000
57.194,Upwind,3349.959,0.351,3349.867,0.351,1084.674,1084.679,175.673,53.415,359.994,12.959,-0.027,0.0000,-0.2290,0.0000,0.9606,0.5000,1.0000,0.0000
57.393,Upwind,3368.028,0.349,3367.936,0.349,1095.358,1095.363,175.667,53.418,359.994,12.959,-0.027,0.0000,-0.2290,0.0000,0.9607,0.5000,1.0000,0.0000
57.591,Upwind,3386.103,0.348,3386.011,0.348,1105.151,1105.156,175.661,53.420,359.994,12.959,-0.027,0.0000,-0.2291,0.0000,0.9608,0.5000,1.0000,0.0000
57.799,Upwind,3405.683,0.346,3405.591,0.346,1116.726,1116.731,175.654,53.423,359.994,12.959,-0.027,0.0000,-0.2291,0.0000,0.9609,0.5000,1.0000,0.0000
57.996,Upwind,3422.252,0.345,3422.160,0.345,1127.410,1127.416,175.647,53.425,359.994,12.959,-0.027,0.0000,-0.2291,0.0000,0.9610,0.5000,1.0000,0.0000
58.198,Upwind,3441.838,0.344,3441.746,0.344,1138.096,1138.101,175.640,53.428,359.994,12.959,-0.027,0.0000,-0.2291,0.0000,0.9611,0.5000,1.0000,0.0000
58.391,Upwind,3458.413,0.342,3458.322,0.342,1147.891,1147.896,175.634,53.430,359.994,12.958,-0.027,0.0000,-0.2292,0.0000,0.9612,0.5000,1.0000,0.0000
58.598,Upwind,3476.497,0.341,3476.405,0.341,1159.467,1159.473,175.627,53.432,359.994,12.958,-0.027,0.0000,-0.2292,0.0000,0.9613,0.5000,1.0000,0.0000
58.794,Upwind,3494.581,0.340,3494.489,0.340,1170.154,1170.160,175.620,53.434,359.995,12.958,-0.027,0.0000,-0.2292,0.0000,0.9614,0.5000,1.0000,0.0000
58.994,Upwind,3512.668,0.339,3512.576,0.339,1180.841,1180.847,175.614,53.436,359.995,12.958,-0.027,0.0000,-0.2292,0.0000,0.9615,0.5000,1.0000,0.0000
59.190,Upwind,3530.757,0.337,3530.666,0.337,1190.638,1190.643,175.607,53.437,359.995,12.958,-0.027,0.0000,-0.2293,0.0000,0.9616,0.5000,1.0000,0.0000
59.389,Upwind,3548.850,0.336,3548.759,0.336,1201.325,1201.331,175.600,53.439,359.995,12.958,-0.027,0.0000,-0.2293,0.0000,0.9617,0.5000,1.0000,0.0000
59.590,Upwind,3566.943,0.335,3566.852,0.335,1212.013,1212.019,175.594,53.441,359.995,12.958,-0.027,0.0000,-0.2293,0.0000,0.9618,0.5000,1.0000,0.0000
59.794,Upwind,3585.040,0.334,3584.948,0.334,1223.592,1223.598,175.586,53.443,359.995,12.958,-0.027,0.0000,-0.2294,0.0000,0.9619,0.5000,1.0000,0.0000
59.999,Upwind,3604.647,0.333,3604.555,0.333,1234.281,1234.287,175.579,53.444,359.995,12.957,-0.028,0.0000,-0.2294,0.0000,0.9620,0.5000,1.0000,0.0000
60.191,Upwind,3621.240,0.332,3621.149,0.332,1244.079,1244.085,175.573,53.446,359.995,12.957,-0.028,0.0000,-0.2294,0.0000,0.9621,0.5000,1.0000,0.0000
60.395,Upwind,3639.342,0.331,3639.250,0.331,1255.659,1255.665,175.565,53.447,359.995,12.957,-0.028,0.0000,-0.2295,0.0000,0.9622,0.5000,1.0000,0.0000
60.592,Upwind,3657.448,0.330,3657.356,0.330,1266.349,1266.355,175.559,53.449,359.995,12.957,-0.028,0.0000,-0.2295,0.0000,0.9623,0.5000,1.0000,0.0000
60.796,Upwind,3675.553,0.329,3675.461,0.329,1277.038,1277.045,175.552,53.450,359.995,12.957,-0.028,0.0000,-0.2295,0.0000,0.9624,0.5000,1.0000,0.0000
60.996,Upwind,3693.664,0.328,3693.572,0.328,1287.728,1287.735,175.545,53.451,359.996,12.957,-0.028,0.0000,-0.2296,0.0000,0.9624,0.5000,1.0000,0.0000
61.190,Upwind,3711.775,0.327,3711.684,0.327,1297.528,1297.534,175.538,53.452,359.996,12.956,-0.028,0.0000,-0.2296,0.0000,0.9625,0.5000,1.0000,0.0000
61.390,Upwind,3729.886,0.326,3729.795,0.326,1308.219,1308.225,175.531,53.454,359.996,12.956,-0.028,0.0000,-0.2297,0.0000,0.9626,0.5000,1.0000,0.0000
61.596,Upwind,3748.004,0.325,3747.912,0.325,1319.800,1319.807,175.524,53.455,359.996,12.956,-0.028,0.0000,-0.2297,0.0000,0.9627,0.5000,1.0000,0.0000
61.798,Upwind,3767.630,0.324,3767.538,0.324,1330.491,1330.498,175.517,53.456,359.996,12.956,-0.028,0.0000,-0.2297,0.0000,0.9628,0.5000,1.0000,0.0000
61.995,Upwind,3784.239,0.323,3784.147,0.323,1341.183,1341.189,175.510,53.457,359.996,12.956,-0.028,0.0000,-0.2298,0.0000,0.9629,0.5000,1.0000,0.0000
62.196,Upwind,3802.362,0.323,3802.270,0.323,1351.874,1351.880,175.503,53.458,359.996,12.956,-0.028,0.0000,-0.2298,0.0000,0.9630,0.5000,1.0000,0.0000
62.389,Upwind,3820.485,0.322,3820.394,0.322,1361.675,1361.681,175.496,53.459,359.996,12.955,-0.028,0.0000,-0.2298,0.0000,0.9631,0.5000,1.0000,0.0000
62.593,Upwind,3838.612,0.321,3838.520,0.321,1373.258,1373.264,175.489,53.460,359.996,12.955,-0.028,0.0000,-0.2299,0.0000,0.9632,0.5000,1.0000,0.0000
62.797,Upwind,3856.738,0.320,3856.646,0.320,1383.950,1383.956,175.482,53.461,359.996,12.955,-0.028,0.0000,-0.2299,0.0000,0.9633,0.5000,1.0000,0.0000
62.998,Upwind,3874.871,0.320,3874.779,0.320,1394.642,1394.649,175.475,53.462,359.996,12.955,-0.028,0.0000,-0.2300,0.0000,0.9634,0.5000,1.0000,0.0000
63.193,Upwind,3893.003,0.319,3892.911,0.319,1405.334,1405.341,175.467,53.463,359.996,12.955,-0.028,0.0000,-0.2300,0.0000,0.9635,0.5000,1.0000,0.0000
63.389,Upwind,3911.135,0.318,3911.044,0.318,1415.136,1415.143,175.461,53.464,359.997,12.955,-0.028,0.0000,-0.2300,0.0000,0.9636,0.5000,1.0000,0.0000
63.600,Upwind,3930.786,0.318,3930.695,0.318,1426.720,1426.727,175.453,53.465,359.997,12.954,-0.028,0.0000,-0.2301,0.0000,0.9637,0.5000,1.0000,0.0000
63.789,Upwind,3947.413,0.317,3947.321,0.317,1436.522,1436.529,175.447,53.466,359.997,12.954,-0.028,0.0000,-0.2301,0.0000,0.9638,0.5000,1.0000,0.0000
63.991,Upwind,3965.555,0.317,3965.463,0.317,1447.215,1447.222,175.440,53.466,359.997,12.954,-0.028,0.0000,-0.2301,0.0000,0.9639,0.5000,1.0000,0.0000
64.200,Upwind,3985.208,0.316,3985.116,0.316,1458.799,1458.806,175.432,53.467,359.997,12.954,-0.028,0.0000,-0.2302,0.0000,0.9640,0.5000,1.0000,0.0000
64.396,Upwind,4001.841,0.316,4001.750,0.316,1469.493,1469.500,175.425,53.468,359.997,12.954,-0.029,0.0000,-0.2302,0.0000,0.9641,0.5000,1.0000,0.0000
64.591,Upwind,4019.989,0.315,4019.897,0.315,1479.295,1479.302,175.418,53.469,359.997,12.954,-0.029,0.0000,-0.2303,0.0000,0.9642,0.5000,1.0000,0.0000
64.798,Upwind,4039.652,0.315,4039.560,0.315,1490.880,1490.887,175.411,53.470,359.997,12.953,-0.029,0.0000,-0.2303,0.0000,0.9643,0.5000,1.0000,0.0000
64.989,Upwind,4056.291,0.314,4056.199,0.314,1500.683,1500.690,175.404,53.470,359.997,12.953,-0.029,-0.0001,-0.2303,0.0000,0.9644,0.5000,1.0000,0.0000
65.193,Upwind,4074.444,0.314,4074.353,0.314,1511.377,1511.384,175.397,53.471,359.997,12.953,-0.029,0.0000,-0.2304,0.0000,0.9645,0.5000,1.0000,0.0000
65.398,Upwind,4092.602,0.313,4092.510,0.313,1522.963,1522.970,175.389,53.472,359.997,12.953,-0.029,0.0000,-0.2304,0.0000,0.9646,0.5000,1.0000,0.0000
65.590,Upwind,4110.758,0.313,4110.667,0.313,1532.766,1532.773,175.383,53.472,359.997,12.953,-0.029,0.0000,-0.2305,0.0000,0.9647,0.5000,1.0000,0.0000
65.798,Upwind,4128.918,0.313,4128.827,0.313,1544.351,1544.359,175.375,53.473,359.997,12.952,-0.029,0.0000,-0.2305,0.0000,0.9648,0.5000,0.0000,0.0000
65.989,Upwind,4147.082,0.312,4146.990,0.312,1554.155,1554.162,175.371,53.474,359.997,12.952,-0.029,0.0000,-0.2306,0.0000,0.9649,0.5000,0.0000,0.0000
66.196,Upwind,4165.248,0.312,4165.156,0.312,1565.741,1565.749,175.368,53.477,359.998,12.951,-0.030,0.0000,-0.2309,0.0000,0.9649,0.5000,0.0000,0.0000
66.399,Upwind,4184.928,0.312,4184.836,0.312,1576.437,1576.444,175.368,53.479,359.998,12.949,-0.030,0.0000,-0.2314,0.0000,0.9649,0.5000,0.0000,0.0000
66.610,Upwind,4203.101,0.311,4203.009,0.311,1587.133,1587.140,175.371,53.481,359.998,12.946,-0.030,0.0000,-0.2321,0.0000,0.9649,0.5000,0.0000,0.0000
66.801,Upwind,4221.273,0.311,4221.181,0.311,1597.829,1597.837,175.376,53.483,359.998,12.943,-0.030,0.0000,-0.2329,0.0000,0.9648,0.5000,0.0000,0.0000
66.991,Upwind,4237.936,0.311,4237.844,0.311,1607.634,1607.642,175.382,53.484,359.998,12.940,-0.030,0.0000,-0.2337,0.0000,0.9647,0.5000,0.0000,0.0000
67.192,Upwind,4256.117,0.311,4256.025,0.311,1618.331,1618.339,175.391,53.485,359.998,12.935,-0.030,0.0000,-0.2346,0.0000,0.9646,0.5000,0.0000,0.0000
67.398,Upwind,4274.305,0.310,4274.213,0.310,1629.920,1629.928,175.402,53.486,359.998,12.931,-0.030,-0.0001,-0.2355,0.0000,0.9644,0.5000,0.0000,0.0000
67.597,Upwind,4292.493,0.310,4292.401,0.310,1640.617,1640.625,175.415,53.487,359.998,12.927,-0.030,0.0000,-0.2363,0.0000,0.9643,0.5000,0.0000,0.0000
67.789,Upwind,4310.686,0.310,4310.594,0.310,1650.423,1650.431,175.429,53.487,359.998,12.924,-0.030,0.0000,-0.2370,0.0000,0.9641,0.5000,0.0000,0.0000
67.998,Upwind,4328.885,0.310,4328.793,0.310,1662.012,1662.020,175.447,53.489,359.998,12.921,-0.030,-0.0001,-0.2377,0.0000,0.9638,0.5000,0.0000,0.0000
68.201,Upwind,4348.606,0.310,4348.514,0.310,1672.710,1672.718,175.465,53.492,359.998,12.918,-0.030,0.0000,-0.2383,0.0000,0.9636,0.5000,0.0000,0.0000
68.395,Upwind,4365.297,0.310,4365.205,0.310,1683.409,1683.417,175.485,53.495,359.998,12.915,-0.031,0.0000,-0.2389,0.0000,0.9633,0.5000,0.0000,0.0000
68.592,Upwind,4383.509,0.309,4383.417,0.309,1694.108,1694.116,175.507,53.501,359.998,12.913,-0.031,0.0000,-0.2394,0.0000,0.9630,0.5000,0.0000,0.0000
68.793,Upwind,4401.729,0.309,4401.638,0.309,1704.809,1704.817,175.530,53.507,359.998,12.910,-0.031,0.0000,-0.2400,0.0000,0.9627,0.5000,0.0000,0.0000
68.995,Upwind,4419.954,0.309,4419.862,0.309,1715.511,1715.519,175.555,53.515,359.998,12.908,-0.031,-0.0001,-0.2406,0.0000,0.9623,0.5000,0.0000,0.0000
69.198,Upwind,4439.702,0.309,4439.610,0.309,1726.215,1726.223,175.581,53.523,359.998,12.905,-0.031,0.0000,-0.2412,0.0000,0.9619,0.5000,0.0000,0.0000
69.393,Upwind,4456.417,0.309,4456.325,0.309,1736.920,1736.929,175.609,53.533,359.998,12.902,-0.031,0.0000,-0.2418,0.0000,0.9616,0.5000,0.0000,0.0000
69.597,Upwind,4474.659,0.309,4474.567,0.309,1747.628,1747.636,175.638,53.544,359.998,12.899,-0.031,0.0000,-0.2424,0.0000,0.9612,0.5000,0.0000,0.0000
69.796,Upwind,4492.904,0.309,4492.813,0.309,1758.338,1758.347,175.668,53.557,359.998,12.896,-0.031,0.0000,-0.2431,0.0000,0.9607,0.5000,0.0000,0.0000
69.990,Upwind,4511.159,0.309,4511.067,0.309,1768.158,1768.166,175.697,53.568,359.998,12.894,-0.031,0.0000,-0.2437,0.0000,0.9603,0.5000,0.0000,0.0000
70.190,Upwind,4529.419,0.309,4529.328,0.309,1778.873,1778.881,175.729,53.582,359.998,12.891,-0.031,0.0000,-0.2443,0.0000,0.9599,0.5000,0.0000,0.0000
70.394,Upwind,4547.683,0.309,4547.591,0.309,1790.484,1790.493,175.766,53.599,359.998,12.888,-0.031,0.0000,-0.2450,0.0000,0.9594,0.5000,0.0000,0.0000
70.589,Upwind,4565.956,0.309,4565.864,0.309,1800.312,1800.320,175.798,53.613,359.998,12.885,-0.031,-0.0001,-0.2456,0.0000,0.9589,0.5000,0.0000,0.0000
70.799,Upwind,4585.759,0.308,4585.667,0.308,1811.930,1811.939,175.836,53.632,359.998,12.882,-0.031,0.0000,-0.2462,0.0000,0.9584,0.5000,0.0000,0.0000
70.995,Upwind,4602.520,0.308,4602.428,0.308,1821.764,1821.773,175.868,53.648,359.998,12.880,-0.031,0.0000,-0.2466,0.0000,0.9579,0.5000,0.0000,0.0000
71.191,Upwind,4620.811,0.308,4620.719,0.308,1832.495,1832.504,175.901,53.666,359.998,12.878,-0.031,0.0000,-0.2469,0.0000,0.9575,0.5000,0.0000,0.0000
71.390,Upwind,4639.108,0.308,4639.016,0.308,1843.230,1843.239,175.932,53.685,359.998,12.877,-0.032,0.0000,-0.2470,0.0000,0.9570,0.5000,0.0000,0.0000
71.594,Upwind,4657.414,0.308,4657.322,0.308,1853.969,1853.978,175.962,53.705,359.998,12.877,-0.032,0.0000,-0.2470,0.0000,0.9566,0.5000,0.0000,0.0000
71.795,Upwind,4675.724,0.308,4675.632,0.308,1865.608,1865.617,175.994,53.728,359.998,12.878,-0.032,0.0000,-0.2467,0.0000,0.9562,0.5000,0.0000,0.0000
71.995,Upwind,4694.039,0.308,4693.947,0.308,1876.356,1876.365,176.021,53.752,359.998,12.879,-0.032,0.0000,-0.2464,0.0000,0.9558,0.5000,0.0000,0.0000
72.195,Upwind,4712.357,0.308,4712.266,0.308,1887.108,1887.117,176.047,53.776,359.998,12.881,-0.032,0.0000,-0.2461,0.0000,0.9554,0.5000,0.0000,0.0000
72.391,Upwind,4730.685,0.308,4730.593,0.308,1896.970,1896.979,176.069,53.800,359.999,12.882,-0.032,0.0000,-0.2458,0.0000,0.9551,0.5000,0.0000,0.0000
72.592,Upwind,4749.016,0.308,4748.924,0.308,1907.732,1907.741,176.093,53.827,359.999,12.883,-0.032,0.0000,-0.2456,0.0000,0.9548,0.5000,0.0000,0.0000
72.790,Upwind,4767.353,0.308,4767.261,0.308,1918.500,1918.510,176.115,53.855,359.999,12.884,-0.032,0.0000,-0.2454,0.0000,0.9545,0.5000,0.0000,0.0000
72.991,Upwind,4785.695,0.308,4785.604,0.308,1929.274,1929.283,176.136,53.883,359.999,12.885,-0.032,0.0000,-0.2453,0.0000,0.9542,0.5000,0.0000,0.0000
73.190,Upwind,4804.042,0.308,4803.950,0.308,1940.053,1940.063,176.156,53.910,359.999,12.885,-0.032,-0.0001,-0.2453,0.0000,0.9539,0.5000,0.0000,0.0000
73.399,Upwind,4823.920,0.308,4823.829,0.308,1951.737,1951.746,176.177,53.940,359.999,12.885,-0.032,0.0000,-0.2452,0.0000,0.9536,0.5000,0.0000,0.0000
73.592,Upwind,4840.748,0.309,4840.656,0.309,1961.628,1961.638,176.193,53.965,359.999,12.885,-0.032,0.0000,-0.2452,0.0000,0.9534,0.5000,0.0000,0.0000
73.800,Upwind,4860.640,0.309,4860.548,0.309,1973.324,1973.333,176.211,53.994,359.999,12.885,-0.032,0.0000,-0.2452,0.0000,0.9531,0.5000,0.0000,0.0000
73.989,Upwind,4877.474,0.309,4877.382,0.309,1983.225,1983.234,176.225,54.017,359.999,12.886,-0.032,0.0000,-0.2451,0.0000,0.9529,0.5000,0.0000,0.0000
74.198,Upwind,4897.374,0.309,4897.282,0.309,1994.931,1994.941,176.241,54.045,359.999,12.886,-0.032,0.0000,-0.2450,0.0000,0.9527,0.5000,0.0000,0.0000
74.397,Crosswind,4914.214,0.309,4914.123,0.309,2005.743,2005.752,176.243,54.058,359.998,12.887,-0.005,0.4000,-0.2889,0.0000,0.9038,0.0000,0.0000,0.0000
74.591,Crosswind,4932.584,0.309,4932.493,0.309,2015.644,2015.654,176.106,53.934,359.995,12.906,0.361,0.4000,-0.3765,0.0001,0.8065,0.0000,0.0000,0.0000
74.789,Crosswind,4950.934,0.312,4950.842,0.312,2026.404,2026.414,175.777,53.641,359.991,12.995,1.165,0.4000,-0.4656,0.0001,0.7075,0.0000,0.0000,0.0000
74.989,Crosswind,4969.243,0.323,4969.151,0.323,2037.094,2037.104,175.323,53.254,359.994,13.197,2.296,0.4000,-0.5557,0.0000,0.7000,0.0000,0.0000,0.0000
75.200,Crosswind,4989.030,0.351,4988.938,0.351,2048.588,2048.598,174.819,52.859,0.018,13.582,3.799,0.4000,-0.6505,-0.0002,0.7027,0.0000,0.0000,0.0000
75.393,Crosswind,5005.733,0.396,5005.642,0.396,2058.255,2058.265,174.393,52.616,0.072,14.062,5.238,0.4000,-0.7373,-0.0005,0.7125,0.0000,0.0000,0.0000
75.598,Crosswind,5023.912,0.475,5023.820,0.475,2069.640,2069.650,173.891,52.524,0.194,14.825,7.081,0.4000,-0.8000,-0.0010,0.7244,0.0000,0.0000,0.0000
75.799,Crosswind,5043.553,0.610,5043.461,0.610,2080.159,2080.169,173.425,52.716,0.385,15.705,8.877,0.4000,-0.8000,-0.0017,0.7357,0.0000,0.0000,0.0000
75.998,Crosswind,5060.122,0.775,5060.030,0.775,2090.748,2090.758,172.951,53.221,0.664,16.694,10.731,0.4000,-0.8000,-0.0025,0.7473,0.0000,0.0000,0.0000
76.191,Crosswind,5078.145,1.024,5078.053,1.024,2100.568,2100.578,172.506,53.956,1.003,17.646,12.457,0.4000,-0.7732,-0.0036,0.7581,0.0000,0.0000,0.0000
76.395,Crosswind,5096.104,1.360,5096.012,1.360,2112.381,2112.391,171.965,55.134,1.510,18.760,14.506,0.4000,-0.7426,-0.0050,0.7712,0.0000,0.0000,0.0000
76.593,Crosswind,5113.995,1.798,5113.903,1.798,2123.538,2123.548,171.449,56.471,2.075,19.716,16.388,0.4000,-0.7128,-0.0065,0.7834,0.0000,0.0000,0.0000
76.792,Crosswind,5131.814,2.355,5131.722,2.355,2134.015,2134.025,170.965,57.841,2.668,20.493,18.092,0.3787,-0.6831,-0.0081,0.7947,0.0000,0.0000,0.0000
76.993,Crosswind,5149.556,3.048,5149.464,3.048,2146.730,2146.741,170.381,59.543,3.450,21.254,20.047,0.3082,-0.6530,-0.0099,0.8081,0.0000,0.0000,0.0000
77.200,Crosswind,5168.683,3.967,5168.591,3.967,2158.796,2158.807,169.840,61.109,4.235,21.786,21.723,0.2535,-0.6219,-0.0118,0.8202,0.0000,0.0000,0.0000
77.389,Crosswind,5184.792,4.894,5184.700,4.894,2170.126,2170.137,169.346,62.476,4.995,22.124,23.105,0.2098,-0.5934,-0.0134,0.8308,0.0000,0.0000,0.0000
77.594,Crosswind,5202.281,6.070,5202.189,6.070,2183.825,2183.836,168.774,63.944,5.922,22.340,24.525,0.1658,-0.5627,-0.0149,0.8426,0.0000,0.0000,0.0000
77.793,Crosswind,5219.691,7.425,5219.599,7.425,2196.734,2196.744,168.262,65.109,6.788,22.373,25.630,0.1335,-0.5329,-0.0161,0.8527,0.0000,0.0000,0.0000
77.995,Crosswind,5237.016,8.964,5236.924,8.964,2209.854,2209.864,167.772,66.053,7.646,22.261,26.549,0.1070,-0.5026,-0.0171,0.8620,0.0000,0.0000,0.0000
78.198,Crosswind,5254.265,10.689,5254.173,10.689,2223.139,2223.149,167.308,66.754,8.479,22.024,27.302,0.0853,-0.4722,-0.0176,0.8705,0.0000,0.0000,0.0000
78.399,Crosswind,5272.869,12.770,5272.777,12.770,2236.538,2236.549,166.874,67.194,9.275,21.681,27.915,0.0678,-0.4420,-0.0178,0.8782,0.0000,0.0000,0.0000
78.591,Crosswind,5288.548,14.701,5288.457,14.701,2248.876,2248.886,166.505,67.361,9.962,21.290,28.375,0.0537,-0.4132,-0.0177,0.8846,0.0000,0.0000,0.0000
78.793,Crosswind,5305.589,16.984,5305.498,16.984,2263.466,2263.476,166.108,67.265,10.713,20.756,28.817,0.0394,-0.3829,-0.0173,0.8913,0.0000,0.0000,0.0000
78.998,Crosswind,5322.579,19.448,5322.487,19.448,2276.886,2276.897,165.781,66.895,11.342,20.210,29.148,0.0285,-0.3521,-0.0167,0.8968,0.0000,0.0000,0.0000
79.194,Crosswind,5339.517,22.089,5339.425,22.089,2290.206,2290.217,165.492,66.263,11.905,19.626,29.419,0.0192,-0.3227,-0.0159,0.9016,0.0000,0.0000,0.0000
79.392,Crosswind,5356.412,24.902,5356.320,24.902,2303.374,2303.385,165.243,65.378,12.403,19.016,29.642,0.0114,-0.2996,-0.0150,0.9056,0.0000,0.0000,0.0000
79.599,Crosswind,5374.672,28.140,5374.581,28.140,2316.340,2316.351,165.030,64.240,12.843,18.395,29.823,0.0052,-0.3927,-0.0141,0.9091,0.0000,0.0000,0.0000
79.790,Crosswind,5390.099,31.028,5390.007,31.028,2328.005,2328.016,164.864,62.980,13.222,17.862,29.964,0.0005,-0.4787,-0.0133,0.9118,0.0000,0.0000,0.0000
79.993,Crosswind,5406.902,34.329,5406.810,34.329,2340.447,2340.459,164.712,61.418,13.644,17.370,30.099,-0.0036,-0.5699,-0.0125,0.9140,0.0000,0.0000,0.0000
80.196,Crosswind,5423.688,37.784,5423.596,37.784,2353.558,2353.569,164.577,59.584,14.147,16.990,30.230,-0.0073,-0.6610,-0.0119,0.9159,0.0000,0.0000,0.0000
80.391,Crosswind,5440.452,41.390,5440.360,41.390,2364.336,2364.347,164.484,57.992,14.633,16.818,30.329,-0.0093,-0.7492,-0.0113,0.9172,0.0000,0.0000,0.0000
80.592,Crosswind,5457.197,45.147,5457.105,45.147,2376.700,2376.711,164.392,56.158,15.301,16.812,30.436,-0.0112,-0.8000,-0.0110,0.9185,0.0000,0.0000,0.0000
80.790,Crosswind,5473.925,49.060,5473.833,49.060,2386.863,2386.874,164.326,54.740,15.949,16.966,30.515,-0.0119,-0.7965,-0.0108,0.9194,0.0000,0.0000,0.0000
80.990,Crosswind,5490.625,53.132,5490.533,53.132,2397.673,2397.684,164.262,53.401,16.728,17.260,30.584,-0.0119,-0.7665,-0.0107,0.9203,0.0000,0.0000,0.0000
81.196,Crosswind,5507.294,57.371,5507.203,57.371,2409.111,2409.123,164.197,52.236,17.627,17.666,30.630,-0.0111,-0.7357,-0.0107,0.9212,0.0000,0.0000,0.0000
81.392,Crosswind,5523.924,61.783,5523.832,61.783,2419.474,2419.485,164.136,51.429,18.481,18.067,30.642,-0.0091,-0.7062,-0.0109,0.9221,0.0000,0.0000,0.0000
81.598,Crosswind,5541.889,66.767,5541.797,66.767,2429.699,2429.710,164.071,50.856,19.336,18.451,30.622,-0.0062,-0.6753,-0.0111,0.9230,0.0000,0.0000,0.0000
81.791,Crosswind,5557.043,71.153,5556.952,71.153,2438.988,2439.000,164.009,50.508,20.104,18.759,30.574,-0.0026,-0.6463,-0.0113,0.9239,0.0000,0.0000,0.0000
81.990,Crosswind,5573.521,76.118,5573.429,76.118,2449.064,2449.076,163.939,50.278,20.910,19.023,30.494,0.0018,-0.6166,-0.0115,0.9249,0.0000,0.0000,0.0000
82.192,Crosswind,5589.935,81.274,5589.843,81.274,2459.106,2459.118,163.867,50.152,21.672,19.197,30.387,0.0066,-0.5863,-0.0117,0.9259,0.0000,0.0000,0.0000
82.399,Crosswind,5607.643,87.074,5607.551,87.074,2469.963,2469.975,163.793,50.073,22.438,19.270,30.247,0.0122,-0.5552,-0.0119,0.9269,0.0000,0.0000,0.0000
82.593,Crosswind,5622.566,92.156,5622.475,92.156,2479.971,2479.982,163.732,49.995,23.085,19.230,30.102,0.0175,-0.5260,-0.0120,0.9278,0.0000,0.0000,0.0000
82.793,Crosswind,5638.782,97.879,5638.690,97.879,2489.958,2489.970,163.680,49.865,23.674,19.086,29.950,0.0226,-0.4960,-0.0121,0.9283,0.0000,0.0000,0.0000
82.993,Crosswind,5654.930,103.787,5654.838,103.787,2499.910,2499.922,163.643,49.639,24.205,18.845,29.796,0.0274,-0.4660,-0.0121,0.9285,0.0000,0.0000,0.0000
83.198,Crosswind,5671.011,109.874,5670.919,109.874,2509.804,2509.816,163.622,49.283,24.681,18.514,29.645,0.0319,-0.4354,-0.0121,0.9283,0.0000,0.0000,0.0000
83.390,Crosswind,5687.035,116.136,5686.943,116.136,2518.799,2518.811,163.619,48.808,25.075,18.143,29.514,0.0355,-0.5124,-0.0121,0.9280,0.0000,0.0000,0.0000
83.589,Crosswind,5703.003,122.567,5702.912,122.567,2528.493,2528.505,163.632,48.098,25.486,17.711,29.389,0.0388,-0.6024,-0.0120,0.9275,0.0000,0.0000,0.0000
