time_s,leg,north_m,east_m,along_m,cross_m,agl_ft,altitude_ft,speed_kts,vertical_speed_fps,heading_deg,pitch_deg,roll_deg,aileron_cmd,elevator_cmd,rudder_cmd,throttle_cmd,flaps_cmd,gear_cmd,brake_cmd
0.128,Upwind,0.210,0.000,0.000,0.000,3.691,3.691,1.499,0.000,0.000,0.454,0.000,0.0000,0.0162,0.0000,0.0000,0.5000,1.0000,1.0000
0.231,Upwind,0.280,0.000,0.070,0.000,3.691,3.691,1.184,0.005,0.000,0.438,0.000,0.0000,0.0316,0.0000,0.0000,0.5000,1.0000,1.0000
0.425,Upwind,0.297,0.000,0.087,0.000,3.700,3.700,0.048,0.080,0.000,0.311,0.000,0.0000,0.0469,0.0000,0.0000,0.5000,1.0000,1.0000
0.643,Upwind,0.295,0.000,0.085,0.000,3.702,3.702,0.050,-0.081,0.000,0.415,0.000,0.0000,0.0679,0.0000,0.0000,0.5000,1.0000,1.0000
0.847,Upwind,0.294,0.000,0.084,0.000,3.685,3.685,0.036,-0.060,0.000,0.475,0.000,0.0000,0.0665,0.0000,0.0000,0.5000,1.0000,1.0000
1.021,Upwind,0.295,0.000,0.085,0.000,3.683,3.683,0.025,0.027,0.000,0.466,0.000,0.0000,0.0625,0.0000,0.0670,0.5000,1.0000,0.0000
1.227,Upwind,0.299,0.000,0.089,0.000,3.690,3.690,0.048,0.023,0.000,0.443,0.000,0.0000,0.0615,0.0000,0.1700,0.5000,1.0000,0.0000
1.438,Upwind,0.305,0.000,0.095,0.000,3.692,3.692,0.062,-0.002,0.000,0.445,0.000,0.0000,0.0630,0.0000,0.2755,0.5000,1.0000,0.0000
1.634,Upwind,0.312,0.000,0.103,0.000,3.691,3.691,0.086,-0.006,0.000,0.450,0.000,0.0000,0.0632,0.0000,0.3736,0.5000,1.0000,0.0000
1.836,Upwind,0.323,0.000,0.114,0.000,3.690,3.690,0.123,0.001,0.000,0.451,0.000,0.0000,0.0629,0.0000,0.4744,0.5000,1.0000,0.0000
2.042,Upwind,0.339,0.000,0.129,0.000,3.691,3.691,0.174,0.002,0.000,0.449,0.000,0.0000,0.0628,0.0000,0.5773,0.5000,1.0000,0.0000
2.227,Upwind,0.359,0.000,0.149,0.000,3.691,3.691,0.236,0.001,0.000,0.449,0.000,0.0000,0.0629,0.0000,0.6699,0.5000,1.0000,0.0000
2.421,Upwind,0.388,0.000,0.178,0.000,3.691,3.691,0.323,0.000,0.000,0.449,0.000,0.0000,0.0629,0.0000,0.7672,0.5000,1.0000,0.0000
2.621,Upwind,0.428,0.000,0.218,0.000,3.691,3.691,0.434,0.000,0.000,0.450,0.000,0.0000,0.0629,0.0000,0.8667,0.5000,1.0000,0.0000
2.830,Upwind,0.486,0.000,0.276,0.000,3.691,3.691,0.572,0.000,0.000,0.450,0.000,0.0000,0.0629,0.0000,0.9715,0.5000,1.0000,0.0000
3.031,Upwind,0.556,0.000,0.346,0.000,3.691,3.691,0.742,0.000,0.000,0.450,0.000,0.0000,0.0630,0.0000,1.0000,0.5000,1.0000,0.0000
3.243,Upwind,0.646,0.000,0.436,0.000,3.691,3.691,0.970,0.000,0.000,0.450,0.000,0.0000,0.0630,0.0000,1.0000,0.5000,1.0000,0.0000
3.427,Upwind,0.750,0.000,0.540,0.000,3.691,3.691,1.203,0.000,0.000,0.450,0.000,0.0000,0.0630,0.0000,1.0000,0.5000,1.0000,0.0000
3.627,Upwind,0.892,0.000,0.682,0.000,3.691,3.691,1.506,0.000,0.000,0.450,0.000,0.0000,0.0631,0.0000,1.0000,0.5000,1.0000,0.0000
3.838,Upwind,1.084,0.000,0.874,0.000,3.691,3.691,1.900,0.000,0.000,0.451,0.000,0.0000,0.0631,0.0000,1.0000,0.5000,1.0000,0.0000
4.051,Upwind,1.326,0.000,1.116,0.000,3.691,3.691,2.332,0.000,0.000,0.451,0.000,0.0000,0.0632,0.0000,1.0000,0.5000,1.0000,0.0000
4.235,Upwind,1.575,0.000,1.365,0.000,3.691,3.691,2.840,0.000,0.000,0.451,0.000,0.0000,0.0632,0.0000,1.0000,0.5000,1.0000,0.0000
4.439,Upwind,1.902,0.000,1.692,0.000,3.691,3.691,3.378,0.000,0.000,0.452,0.000,0.0000,0.0633,0.0000,1.0000,0.5000,1.0000,0.0000
4.644,Upwind,2.295,0.000,2.085,0.000,3.691,3.691,4.113,0.000,0.000,0.452,0.000,0.0000,0.0634,0.0000,1.0000,0.5000,1.0000,0.0000
4.825,Upwind,2.722,0.000,2.512,0.000,3.691,3.691,4.824,0.000,0.000,0.453,0.000,0.0000,0.0634,0.0000,1.0000,0.5000,1.0000,0.0000
5.034,Upwind,3.320,0.000,3.110,0.000,3.691,3.691,5.701,0.000,0.000,0.453,0.000,0.0000,0.0635,0.0000,1.0000,0.5000,1.0000,0.0000
5.221,Upwind,3.915,0.000,3.705,0.000,3.691,3.691,6.690,0.000,0.000,0.454,0.000,0.0000,0.0636,0.0000,1.0000,0.5000,1.0000,0.0000
5.436,Upwind,4.737,0.000,4.527,0.000,3.691,3.691,7.604,0.000,0.000,0.454,0.000,0.0000,0.0636,0.0000,1.0000,0.5000,1.0000,0.0000
5.636,Upwind,5.623,0.000,5.413,0.000,3.691,3.691,9.136,0.001,0.000,0.455,0.000,0.0000,0.0637,0.0000,1.0000,0.5000,1.0000,0.0000
5.826,Upwind,6.550,0.000,6.340,0.000,3.691,3.691,10.422,0.001,0.000,0.455,0.000,0.0000,0.0637,0.0000,1.0000,0.5000,1.0000,0.0000
6.025,Upwind,7.689,0.000,7.479,0.000,3.691,3.691,11.706,0.001,0.000,0.455,0.000,0.0000,0.0636,0.0000,1.0000,0.5000,1.0000,0.0000
6.230,Upwind,9.071,0.000,8.861,0.000,3.692,3.692,12.989,0.001,0.000,0.454,0.000,0.0000,0.0636,0.0000,1.0000,0.5000,1.0000,0.0000
6.427,Upwind,10.362,0.000,10.152,0.000,3.692,3.692,14.165,0.001,0.000,0.454,0.000,0.0000,0.0635,0.0000,1.0000,0.5000,1.0000,0.0000
6.633,Upwind,12.030,0.000,11.820,0.000,3.692,3.692,15.553,0.001,0.000,0.454,0.000,0.0000,0.0635,0.0000,1.0000,0.5000,1.0000,0.0000
6.822,Upwind,13.562,0.000,13.352,0.000,3.692,3.692,16.727,0.001,0.000,0.453,0.000,0.0000,0.0634,0.0000,1.0000,0.5000,1.0000,0.0000
7.033,Upwind,15.516,0.000,15.306,0.000,3.693,3.693,18.112,0.002,0.000,0.453,0.000,0.0000,0.0634,0.0000,1.0000,0.5000,1.0000,0.0000
7.231,Upwind,17.456,0.000,17.246,0.000,3.693,3.693,19.390,0.002,0.000,0.452,0.000,0.0000,0.0633,0.0000,1.0000,0.5000,1.0000,0.0000
7.432,Upwind,19.528,0.000,19.318,0.000,3.693,3.693,20.667,0.002,0.000,0.452,0.000,0.0000,0.0632,0.0000,1.0000,0.5000,1.0000,0.0000
7.629,Upwind,21.731,0.000,21.521,0.000,3.694,3.694,21.942,0.002,0.000,0.451,0.000,0.0000,0.0631,0.0000,1.0000,0.5000,1.0000,0.0000
7.828,Upwind,23.866,0.000,23.656,0.000,3.694,3.694,23.217,0.002,0.000,0.451,0.000,0.0000,0.0631,0.0000,1.0000,0.5000,1.0000,0.0000
8.025,Upwind,26.320,0.000,26.110,0.000,3.695,3.695,24.384,0.002,0.000,0.450,0.000,0.0000,0.0630,0.0000,1.0000,0.5000,1.0000,0.0000
8.221,Upwind,28.905,0.000,28.695,0.000,3.695,3.695,25.656,0.003,0.000,0.450,0.000,0.0000,0.0629,0.0000,1.0000,0.5000,1.0000,0.0000
8.421,Upwind,31.621,0.000,31.411,0.000,3.696,3.696,26.927,0.003,0.000,0.449,0.000,0.0000,0.0628,0.0000,1.0000,0.5000,1.0000,0.0000
8.628,Upwind,34.468,0.000,34.258,0.000,3.696,3.696,28.196,0.003,0.000,0.448,0.000,0.0000,0.0627,0.0000,1.0000,0.5000,1.0000,0.0000
8.827,Upwind,37.445,0.000,37.235,0.000,3.697,3.697,29.570,0.003,0.000,0.447,0.000,0.0000,0.0626,0.0000,1.0000,0.5000,1.0000,0.0000
9.029,Upwind,40.818,0.000,40.608,0.000,3.697,3.697,30.836,0.003,0.000,0.447,0.000,0.0000,0.0624,0.0000,1.0000,0.5000,1.0000,0.0000
9.235,Upwind,44.067,0.000,43.857,0.000,3.698,3.698,32.102,0.003,0.000,0.446,0.000,0.0000,0.0623,0.0000,1.0000,0.5000,1.0000,0.0000
9.437,Upwind,47.446,0.001,47.236,0.001,3.699,3.699,33.365,0.004,0.000,0.445,0.000,0.0000,0.0622,0.0000,1.0000,0.5000,1.0000,0.0000
9.634,Upwind,50.954,0.001,50.745,0.001,3.699,3.699,34.628,0.004,0.000,0.444,0.000,0.0000,0.0620,0.0000,1.0000,0.5000,1.0000,0.0000
9.825,Upwind,54.285,0.001,54.075,0.001,3.700,3.700,35.783,0.004,0.000,0.443,0.000,0.0000,0.0619,0.0000,1.0000,0.5000,1.0000,0.0000
10.031,Upwind,58.361,0.001,58.151,0.001,3.701,3.701,37.148,0.005,0.000,0.442,0.000,0.0000,0.0617,0.0000,1.0000,0.5000,1.0000,0.0000
10.233,Upwind,62.259,0.001,62.049,0.001,3.702,3.702,38.406,0.005,0.000,0.440,0.000,0.0000,0.0615,0.0000,1.0000,0.5000,1.0000,0.0000
10.433,Upwind,66.286,0.001,66.076,0.001,3.703,3.703,39.662,0.005,0.000,0.439,0.000,0.0000,0.0613,0.0000,1.0000,0.5000,1.0000,0.0000
10.629,Upwind,70.442,0.001,70.233,0.001,3.704,3.704,40.916,0.005,0.000,0.438,0.000,0.0000,0.0612,0.0000,1.0000,0.5000,1.0000,0.0000
10.824,Upwind,74.366,0.001,74.156,0.001,3.705,3.705,42.065,0.005,0.000,0.436,0.000,0.0000,0.0610,0.0000,1.0000,0.5000,1.0000,0.0000
11.022,Upwind,78.769,0.001,78.559,0.001,3.706,3.706,43.316,0.006,0.000,0.435,0.000,0.0000,0.0608,0.0000,1.0000,0.5000,1.0000,0.0000
11.229,Upwind,83.684,0.001,83.474,0.001,3.707,3.707,44.566,0.006,0.000,0.434,0.000,0.0000,0.0605,0.0000,1.0000,0.5000,1.0000,0.0000
11.427,Upwind,87.961,0.002,87.751,0.002,3.708,3.708,45.813,0.006,0.000,0.432,0.000,-0.0001,0.0603,0.0000,1.0000,0.5000,1.0000,0.0000
11.636,Upwind,93.155,0.002,92.945,0.002,3.710,3.710,47.163,0.007,0.000,0.430,0.000,-0.0001,0.0601,0.0000,1.0000,0.5000,1.0000,0.0000
11.832,Upwind,98.082,0.002,97.872,0.002,3.711,3.711,48.407,0.007,0.000,0.428,0.000,-0.0001,0.0598,0.0000,1.0000,0.5000,1.0000,0.0000
12.032,Upwind,103.138,0.002,102.928,0.002,3.713,3.713,49.649,0.007,0.000,0.427,0.000,-0.0001,0.0596,0.0000,1.0000,0.5000,1.0000,0.0000
12.232,Upwind,108.321,0.002,108.111,0.002,3.714,3.714,50.889,0.008,0.001,0.425,0.000,-0.0001,0.0593,0.0000,1.0000,0.5000,1.0000,0.0000
12.430,Upwind,113.631,0.002,113.421,0.002,3.716,3.716,52.127,0.008,0.001,0.423,0.000,-0.0001,0.0590,0.0000,1.0000,0.5000,1.0000,0.0000
12.627,Upwind,118.611,0.003,118.401,0.003,3.717,3.717,53.363,0.009,0.001,0.421,0.000,-0.0001,0.0587,0.0000,1.0000,0.5000,1.0000,0.0000
12.835,Upwind,124.634,0.003,124.424,0.003,3.719,3.719,54.597,0.009,0.001,0.418,0.000,-0.0001,0.0583,0.0000,1.0000,0.5000,1.0000,0.0000
13.025,Upwind,129.846,0.003,129.636,0.003,3.721,3.721,55.726,0.010,0.001,0.416,0.000,-0.0001,0.0580,0.0000,1.0000,0.5000,1.0000,0.0000
13.231,Upwind,136.143,0.003,135.933,0.003,3.723,3.723,57.057,0.010,0.001,0.413,0.000,-0.0001,0.0576,0.0000,1.0000,0.5000,1.0000,0.0000
13.427,Upwind,141.588,0.004,141.378,0.004,3.725,3.725,58.182,0.010,0.001,0.411,0.000,-0.0001,0.0573,0.0000,1.0000,0.5000,1.0000,0.0000
13.631,Upwind,148.158,0.004,147.948,0.004,3.727,3.727,59.509,0.011,0.001,0.408,0.000,-0.0001,0.0569,0.0000,1.0000,0.5000,1.0000,0.0000
13.847,Upwind,154.877,0.004,154.667,0.004,3.729,3.729,60.731,0.011,0.001,0.405,0.000,-0.0001,0.0565,0.0000,1.0000,0.5000,1.0000,0.0000
14.027,Upwind,160.145,0.004,159.935,0.004,3.731,3.731,61.848,0.012,0.001,0.403,0.000,-0.0001,0.0561,0.0000,1.0000,0.5000,1.0000,0.0000
14.228,Upwind,166.582,0.005,166.372,0.005,3.734,3.734,63.065,0.012,0.001,0.400,0.000,-0.0002,0.0557,0.0000,1.0000,0.5000,1.0000,0.0000
14.432,Upwind,173.696,0.005,173.486,0.005,3.736,3.736,64.381,0.009,0.001,0.397,0.000,-0.0002,0.0553,0.0000,1.0000,0.5000,1.0000,0.0000
14.629,Upwind,180.394,0.006,180.184,0.006,3.738,3.738,65.594,0.009,0.001,0.394,0.000,-0.0002,0.0550,0.0000,1.0000,0.5000,1.0000,0.0000
14.833,Upwind,187.215,0.006,187.005,0.006,3.739,3.739,66.804,0.009,0.002,0.392,0.000,-0.0002,0.0547,0.0000,1.0000,0.5000,1.0000,0.0000
15.024,Upwind,193.578,0.006,193.368,0.006,3.741,3.741,67.911,0.009,0.002,0.390,0.000,-0.0002,0.0544,0.0000,1.0000,0.5000,1.0000,0.0000
15.233,Upwind,201.232,0.007,201.022,0.007,3.743,3.743,69.218,0.009,0.002,0.388,0.000,-0.0002,0.0540,0.0000,1.0000,0.5000,1.0000,0.0000
15.431,Upwind,208.426,0.007,208.216,0.007,3.745,3.745,70.421,0.009,0.002,0.385,0.000,-0.0002,0.0537,0.0000,1.0000,0.5000,1.0000,0.0000
15.630,Upwind,215.744,0.008,215.534,0.008,3.747,3.747,71.623,0.010,0.002,0.383,0.000,-0.0003,0.0533,0.0000,1.0000,0.5000,1.0000,0.0000
15.821,Upwind,222.561,0.008,222.351,0.008,3.748,3.748,72.722,0.010,0.002,0.380,0.000,-0.0003,0.0530,0.0000,1.0000,0.5000,1.0000,0.0000
16.021,Upwind,230.116,0.009,229.906,0.009,3.750,3.750,73.918,0.010,0.002,0.378,0.000,-0.0003,0.0527,0.0000,1.0000,0.5000,1.0000,0.0000
16.228,Upwind,237.793,0.010,237.583,0.010,3.752,3.752,75.212,0.010,0.002,0.375,0.000,-0.0003,0.0523,0.0000,1.0000,0.5000,1.0000,0.0000
16.430,Upwind,246.249,0.010,246.039,0.010,3.754,3.754,76.305,0.010,0.003,0.373,0.000,-0.0003,0.0520,0.0000,1.0000,0.5000,1.0000,0.0000
16.633,Upwind,254.182,0.011,253.972,0.011,3.756,3.756,77.594,0.010,0.003,0.370,0.000,-0.0003,0.0516,0.0000,1.0000,0.5000,1.0000,0.0000
16.822,Upwind,261.561,0.012,261.351,0.012,3.758,3.758,78.682,0.010,0.003,0.368,0.000,-0.0004,0.0512,0.0000,1.0000,0.5000,1.0000,0.0000
17.027,Upwind,269.728,0.012,269.518,0.012,3.760,3.760,79.965,0.010,0.003,0.365,0.000,-0.0004,0.0508,0.0000,1.0000,0.5000,1.0000,0.0000
17.229,Upwind,278.713,0.013,278.503,0.013,3.762,3.762,81.148,0.011,0.003,0.362,0.000,-0.0004,0.0504,0.0000,1.0000,0.5000,1.0000,0.0000
17.423,Upwind,286.427,0.014,286.217,0.014,3.764,3.764,82.229,0.011,0.004,0.360,0.000,-0.0004,0.0501,0.0000,1.0000,0.5000,1.0000,0.0000
17.624,Upwind,294.958,0.015,294.748,0.015,3.767,3.767,83.407,0.011,0.004,0.357,0.000,-0.0005,0.0497,0.0000,1.0000,0.5000,1.0000,0.0000
17.822,Upwind,303.611,0.016,303.401,0.016,3.769,3.769,84.582,0.011,0.004,0.354,0.000,-0.0005,0.0493,0.0000,1.0000,0.5000,1.0000,0.0000
18.031,Upwind,313.121,0.017,312.911,0.017,3.771,3.771,85.852,0.011,0.004,0.351,0.000,-0.0005,0.0489,0.0000,1.0000,0.5000,1.0000,0.0000
18.232,Upwind,322.025,0.018,321.815,0.018,3.773,3.773,87.021,0.011,0.004,0.348,0.000,-0.0005,0.0485,0.0000,1.0000,0.5000,1.0000,0.0000
18.433,Upwind,331.049,0.019,330.839,0.019,3.775,3.775,88.188,0.011,0.005,0.346,0.000,-0.0006,0.0481,0.0000,1.0000,0.5000,1.0000,0.0000
18.626,Upwind,339.426,0.020,339.216,0.020,3.778,3.778,89.256,0.011,0.005,0.343,0.000,-0.0006,0.0477,0.0000,1.0000,0.5000,1.0000,0.0000
18.822,Upwind,348.680,0.021,348.470,0.021,3.780,3.780,90.418,0.012,0.005,0.340,0.000,-0.0006,0.0473,0.0000,1.0000,0.5000,1.0000,0.0000
19.024,Upwind,358.053,0.022,357.843,0.022,3.782,3.782,91.578,0.012,0.005,0.337,0.000,-0.0006,0.0469,0.0000,1.0000,0.5000,1.0000,0.0000
19.234,Upwind,368.341,0.024,368.131,0.024,3.785,3.785,92.831,0.012,0.006,0.334,0.000,-0.0007,0.0465,0.0000,1.0000,0.5000,1.0000,0.0000
19.429,Upwind,377.962,0.025,377.752,0.025,3.787,3.787,93.985,0.012,0.006,0.331,0.000,-0.0007,0.0460,0.0000,1.0000,0.5000,1.0000,0.0000
19.629,Upwind,387.702,0.027,387.492,0.027,3.789,3.789,95.137,0.012,0.006,0.328,0.000,-0.0008,0.0456,0.0000,1.0000,0.5000,1.0000,0.0000
19.822,Upwind,396.734,0.028,396.524,0.028,3.792,3.792,96.190,0.012,0.007,0.325,0.000,-0.0008,0.0452,0.0000,1.0000,0.5000,1.0000,0.0000
20.027,Upwind,406.700,0.030,406.490,0.030,3.794,3.794,97.431,0.012,0.007,0.322,0.000,-0.0008,0.0447,0.0000,1.0000,0.5000,1.0000,0.0000
20.229,Upwind,417.630,0.031,417.420,0.031,3.797,3.797,98.575,0.012,0.007,0.319,0.000,-0.0009,0.0443,0.0000,1.0000,0.5000,1.0000,0.0000
20.426,Upwind,426.985,0.033,426.776,0.033,3.799,3.799,99.620,0.012,0.007,0.316,0.000,-0.0009,0.0439,0.0000,1.0000,0.5000,1.0000,0.0000
20.626,Upwind,437.304,0.035,437.094,0.035,3.801,3.801,100.758,0.012,0.008,0.313,0.000,-0.0009,0.0435,0.0000,1.0000,0.5000,1.0000,0.0000
20.832,Upwind,448.615,0.037,448.405,0.037,3.804,3.804,101.988,0.013,0.008,0.309,0.000,-0.0010,0.0430,0.0000,1.0000,0.5000,1.0000,0.0000
21.031,Upwind,459.177,0.039,458.967,0.039,3.806,3.806,103.120,0.013,0.008,0.306,0.000,-0.0010,0.0425,0.0000,1.0000,0.5000,1.0000,0.0000
21.230,Upwind,469.855,0.041,469.645,0.041,3.809,3.809,104.250,0.013,0.009,0.303,0.000,-0.0011,0.0421,0.0000,1.0000,0.5000,1.0000,0.0000
21.426,Upwind,479.745,0.043,479.535,0.043,3.811,3.811,105.283,0.013,0.009,0.300,0.000,-0.0011,0.0417,0.0000,1.0000,0.5000,1.0000,0.0000
21.622,Upwind,490.646,0.045,490.436,0.045,3.814,3.814,106.407,0.013,0.010,0.297,0.000,-0.0012,0.0412,0.0000,1.0000,0.5000,1.0000,0.0000
21.822,Upwind,501.662,0.048,501.452,0.048,3.816,3.816,107.528,0.013,0.010,0.293,0.000,-0.0012,0.0408,0.0000,1.0000,0.5000,1.0000,0.0000
22.034,Upwind,513.725,0.050,513.515,0.050,3.819,3.819,108.740,0.013,0.010,0.290,0.000,-0.0013,0.0403,0.0000,1.0000,0.5000,1.0000,0.0000
22.221,Upwind,524.039,0.053,523.829,0.053,3.822,3.822,109.762,0.013,0.011,0.287,0.000,-0.0013,0.0398,0.0000,1.0000,0.5000,1.0000,0.0000
22.432,Upwind,536.351,0.056,536.141,0.056,3.825,3.825,110.968,0.013,0.011,0.283,0.000,-0.0014,0.0393,0.0000,1.0000,0.5000,1.0000,0.0000
22.621,Upwind,546.874,0.058,546.664,0.058,3.827,3.827,111.985,0.013,0.012,0.280,0.000,-0.0014,0.0389,0.0000,1.0000,0.5000,1.0000,0.0000
22.820,Upwind,558.463,0.061,558.253,0.061,3.830,3.830,113.092,0.013,0.012,0.277,-0.001,-0.0015,0.0384,0.0000,1.0000,0.5000,1.0000,0.0000
23.021,Upwind,570.166,0.064,569.956,0.064,3.832,3.832,114.196,0.014,0.012,0.273,-0.001,-0.0015,0.0379,0.0000,1.0000,0.5000,1.0000,0.0000
23.226,Upwind,581.982,0.067,581.772,0.067,3.835,3.835,115.297,0.014,0.013,0.270,-0.001,-0.0016,0.0375,0.0000,1.0000,0.5000,1.0000,0.0000
23.425,Upwind,593.912,0.070,593.702,0.070,3.838,3.838,116.395,0.014,0.013,0.267,-0.001,-0.0016,0.0370,0.0000,1.0000,0.5000,1.0000,0.0000
23.630,Upwind,606.962,0.074,606.752,0.074,3.841,3.841,117.581,0.014,0.014,0.263,-0.001,-0.0017,0.0365,0.0000,1.0000,0.5000,1.0000,0.0000
23.822,Upwind,618.108,0.077,617.898,0.077,3.843,3.843,118.582,0.014,0.014,0.260,-0.001,-0.0017,0.0360,0.0000,1.0000,0.5000,1.0000,0.0000
24.025,Upwind,630.375,0.081,630.165,0.081,3.846,3.846,119.672,0.014,0.015,0.256,-0.001,-0.0018,0.0355,0.0000,1.0000,0.5000,1.0000,0.0000
24.225,Upwind,642.754,0.085,642.544,0.085,3.849,3.849,120.758,0.014,0.015,0.253,-0.001,-0.0019,0.0350,0.0000,1.0000,0.5000,1.0000,0.0000
24.427,Upwind,655.244,0.089,655.034,0.089,3.852,3.852,121.931,0.014,0.016,0.249,-0.001,-0.0019,0.0345,0.0000,1.0000,0.5000,1.0000,0.0000
24.634,Upwind,668.901,0.093,668.691,0.093,3.855,3.855,123.011,0.014,0.016,0.245,-0.001,-0.0020,0.0340,0.0000,1.0000,0.5000,1.0000,0.0000
24.828,Upwind,680.558,0.097,680.348,0.097,3.858,3.858,124.088,0.014,0.017,0.242,-0.001,-0.0021,0.0335,0.0000,1.0000,0.5000,1.0000,0.0000
25.024,Upwind,693.381,0.101,693.171,0.101,3.860,3.860,125.073,0.014,0.017,0.239,-0.001,-0.0021,0.0331,0.0000,1.0000,0.5000,1.0000,0.0000
25.227,Upwind,706.315,0.106,706.105,0.106,3.863,3.863,126.233,0.014,0.018,0.235,-0.001,-0.0022,0.0325,0.0000,1.0000,0.5000,1.0000,0.0000
25.433,Upwind,720.450,0.111,720.240,0.111,3.866,3.866,127.301,0.014,0.018,0.231,-0.001,-0.0023,0.0320,0.0000,1.0000,0.5000,1.0000,0.0000
25.623,Upwind,732.512,0.115,732.302,0.115,3.869,3.869,128.277,0.015,0.019,0.228,-0.001,-0.0023,0.0315,0.0000,1.0000,0.5000,1.0000,0.0000
25.821,Upwind,745.775,0.120,745.565,0.120,3.872,3.872,129.339,0.015,0.019,0.224,-0.001,-0.0024,0.0310,0.0000,1.0000,0.5000,1.0000,0.0000
26.025,Upwind,759.146,0.125,758.936,0.125,3.875,3.875,130.398,0.015,0.020,0.221,-0.002,-0.0025,0.0305,0.0000,1.0000,0.5000,1.0000,0.0000
26.234,Upwind,773.755,0.131,773.545,0.131,3.878,3.878,131.541,0.015,0.020,0.217,-0.002,-0.0026,0.0300,0.0000,1.0000,0.5000,1.0000,0.0000
26.427,Upwind,786.216,0.136,786.006,0.136,3.880,3.880,132.506,0.015,0.021,0.213,-0.002,-0.0026,0.0295,0.0000,1.0000,0.5000,1.0000,0.0000
26.622,Upwind,799.913,0.142,799.703,0.142,3.883,3.883,133.556,0.015,0.021,0.210,-0.002,-0.0027,0.0290,0.0000,1.0000,0.5000,1.0000,0.0000
26.823,Upwind,813.718,0.147,813.508,0.147,3.886,3.886,134.603,0.015,0.022,0.206,-0.002,-0.0028,0.0285,0.0000,1.0000,0.5000,1.0000,0.0000
27.027,Upwind,827.631,0.153,827.421,0.153,3.889,3.890,135.735,0.015,0.022,0.202,-0.002,-0.0029,0.0279,0.0000,1.0000,0.5000,1.0000,0.0000
27.230,Upwind,842.824,0.160,842.614,0.160,3.892,3.892,136.777,0.015,0.023,0.198,-0.002,-0.0030,0.0274,0.0000,1.0000,0.5000,1.0000,0.0000
27.430,Upwind,856.959,0.167,856.750,0.167,3.895,3.895,137.816,0.015,0.023,0.195,-0.002,-0.0031,0.0269,0.0000,1.0000,0.5000,1.0000,0.0000
27.634,Upwind,871.202,0.173,870.992,0.173,3.898,3.899,138.852,0.015,0.024,0.191,-0.002,-0.0031,0.0264,0.0000,1.0000,0.5000,1.0000,0.0000
27.820,Upwind,884.351,0.179,884.141,0.179,3.901,3.901,139.800,0.015,0.025,0.188,-0.002,-0.0032,0.0259,0.0000,1.0000,0.5000,1.0000,0.0000
28.023,Upwind,898.798,0.186,898.588,0.186,3.904,3.904,140.831,0.015,0.025,0.184,-0.003,-0.0033,0.0254,0.0000,1.0000,0.5000,1.0000,0.0000
28.229,Upwind,914.568,0.194,914.358,0.194,3.908,3.908,141.946,0.015,0.026,0.180,-0.003,-0.0034,0.0248,0.0000,1.0000,0.5000,1.0000,0.0000
28.429,Upwind,929.235,0.201,929.025,0.201,3.911,3.911,142.971,0.015,0.026,0.176,-0.003,-0.0035,0.0243,0.0000,1.0000,0.5000,1.0000,0.0000
28.633,Upwind,944.007,0.209,943.797,0.209,3.914,3.914,143.994,0.015,0.027,0.172,-0.003,-0.0036,0.0237,0.0000,1.0000,0.5000,1.0000,0.0000
28.833,Upwind,958.885,0.217,958.675,0.217,3.917,3.917,145.015,0.015,0.028,0.168,-0.003,-0.0037,0.0232,0.0000,1.0000,0.5000,1.0000,0.0000
29.022,Upwind,972.614,0.224,972.404,0.224,3.920,3.920,145.948,0.016,0.028,0.165,-0.003,-0.0037,0.0227,0.0000,1.0000,0.5000,1.0000,0.0000
29.236,Upwind,988.954,0.233,988.744,0.233,3.923,3.923,147.047,0.016,0.029,0.161,-0.003,-0.0038,0.0221,0.0000,1.0000,0.5000,1.0000,0.0000
29.423,Upwind,1002.875,0.240,1002.665,0.240,3.926,3.926,147.975,0.016,0.029,0.157,-0.003,-0.0039,0.0217,0.0000,1.0000,0.5000,1.0000,0.0000
29.632,Upwind,1019.440,0.250,1019.230,0.250,3.929,3.929,149.068,0.016,0.030,0.153,-0.004,-0.0040,0.0211,0.0000,1.0000,0.5000,1.0000,0.0000
29.821,Upwind,1033.551,0.258,1033.341,0.258,3.932,3.932,149.991,0.016,0.030,0.150,-0.004,-0.0041,0.0206,0.0000,1.0000,0.5000,1.0000,0.0000
30.033,Upwind,1050.340,0.268,1050.130,0.268,3.935,3.935,151.078,0.008,0.031,0.149,-0.004,-0.0042,-0.0748,0.0000,1.0000,0.5000,1.0000,0.0000
30.229,Upwind,1065.945,0.277,1065.735,0.277,3.935,3.935,152.075,-0.005,0.032,0.163,-0.004,-0.0043,-0.1631,0.0000,1.0000,0.5000,1.0000,0.0000
30.428,Upwind,1080.339,0.286,1080.129,0.286,3.934,3.934,153.063,-0.008,0.032,0.183,-0.004,-0.0044,-0.2528,0.0000,1.0000,0.5000,1.0000,0.0000
30.632,Upwind,1097.460,0.296,1097.250,0.296,3.933,3.933,154.043,-0.003,0.033,0.200,-0.004,-0.0045,-0.3444,0.0000,1.0000,0.5000,1.0000,0.0000
30.829,Upwind,1113.369,0.306,1113.159,0.306,3.932,3.932,155.015,0.000,0.034,0.216,-0.005,-0.0046,-0.4330,0.0000,1.0000,0.5000,1.0000,0.0000
31.025,Upwind,1128.039,0.315,1127.829,0.315,3.934,3.934,155.898,0.020,0.034,0.246,-0.005,-0.0048,-0.5212,0.0000,1.0000,0.5000,1.0000,0.0000
31.232,Upwind,1145.483,0.327,1145.273,0.327,3.942,3.942,156.932,0.056,0.035,0.350,-0.005,-0.0049,-0.6147,0.0000,1.0000,0.5000,1.0000,0.0000
31.430,Upwind,1161.688,0.337,1161.478,0.337,3.958,3.958,157.875,0.109,0.036,0.560,-0.005,-0.0050,-0.6500,0.0000,1.0000,0.5000,1.0000,0.0000
31.627,Upwind,1176.626,0.347,1176.416,0.347,3.986,3.986,158.812,0.175,0.037,0.898,-0.005,-0.0051,-0.6500,0.0000,1.0000,0.5000,1.0000,0.0000
31.832,Upwind,1194.385,0.360,1194.175,0.360,4.027,4.027,159.742,0.232,0.038,1.354,-0.005,-0.0052,-0.6500,0.0000,1.0000,0.5000,1.0000,0.0000
32.028,Upwind,1209.499,0.370,1209.289,0.370,4.078,4.078,160.662,0.281,0.038,1.919,-0.006,-0.0054,-0.6500,0.0000,1.0000,0.5000,1.0000,0.0000
32.224,Upwind,1226.077,0.382,1225.867,0.382,4.134,4.134,161.497,0.321,0.039,2.525,-0.006,-0.0055,-0.6500,0.0000,1.0000,0.5000,1.0000,0.0000
32.422,Upwind,1242.748,0.394,1242.538,0.394,4.202,4.202,162.395,0.360,0.040,3.274,-0.006,-0.0056,-0.6500,0.0000,1.0000,0.5000,1.0000,0.0000
32.631,Upwind,1260.912,0.407,1260.702,0.407,4.289,4.289,163.351,0.511,0.041,4.174,-0.007,-0.0054,-0.6500,0.0000,1.0000,0.5000,1.0000,0.0000
32.831,Upwind,1277.771,0.420,1277.561,0.420,4.446,4.446,164.205,1.151,0.041,5.056,-0.014,-0.0050,-0.6500,0.0000,1.0000,0.5000,1.0000,0.0000
33.021,Upwind,1293.301,0.431,1293.091,0.431,4.745,4.745,164.957,2.165,0.042,5.877,-0.024,-0.0045,-0.6500,0.0000,1.0000,0.5000,1.0000,0.0000
33.226,Upwind,1310.321,0.444,1310.111,0.444,5.385,5.385,165.803,3.820,0.042,6.829,-0.039,-0.0039,-0.6500,0.0000,1.0000,0.5000,1.0000,0.0000
33.421,Upwind,1327.417,0.457,1327.207,0.457,6.239,6.239,166.477,5.538,0.042,7.602,-0.053,-0.0033,-0.6500,0.0000,1.0000,0.5000,1.0000,0.0000
33.625,Upwind,1344.584,0.470,1344.374,0.470,7.555,7.555,167.167,7.663,0.042,8.399,-0.069,-0.0028,-0.6500,0.0000,1.0000,0.5000,1.0000,0.0000
33.829,Upwind,1363.254,0.484,1363.044,0.484,9.483,9.483,167.857,10.160,0.041,9.199,-0.085,-0.0021,-0.6500,0.0000,1.0000,0.5000,1.0000,0.0000
34.022,Upwind,1379.105,0.495,1378.895,0.495,11.548,11.548,168.393,12.382,0.039,9.825,-0.097,-0.0017,-0.6500,0.0000,1.0000,0.5000,1.0000,0.0000
34.220,Upwind,1396.446,0.506,1396.236,0.506,14.274,14.274,168.930,14.893,0.037,10.458,-0.109,-0.0011,-0.6500,0.0000,1.0000,0.5000,1.0000,0.0000
34.429,Upwind,1415.283,0.518,1415.073,0.518,17.800,17.800,169.455,17.661,0.034,11.091,-0.119,-0.0006,-0.6329,0.0000,1.0000,0.5000,1.0000,0.0000
34.627,Upwind,1431.257,0.528,1431.047,0.528,21.589,21.589,169.892,20.227,0.030,11.625,-0.127,-0.0002,-0.6031,0.0001,1.0000,0.5000,1.0000,0.0000
34.828,Upwind,1448.714,0.537,1448.504,0.537,25.889,25.889,170.286,22.762,0.026,12.104,-0.132,0.0002,-0.5730,0.0001,1.0000,0.5000,1.0000,0.0000
35.035,Upwind,1467.657,0.547,1467.447,0.547,30.691,30.691,170.642,25.247,0.022,12.520,-0.134,0.0006,-0.5420,0.0001,1.0000,0.5000,1.0000,0.0000
35.229,Upwind,1485.167,0.554,1484.957,0.554,35.982,35.982,170.961,27.650,0.017,12.870,-0.135,0.0009,-0.5129,0.0001,1.0000,0.5000,1.0000,0.0000
35.435,Upwind,1502.695,0.561,1502.485,0.561,41.745,41.745,171.250,29.966,0.013,13.153,-0.134,0.0012,-0.4820,0.0001,1.0000,0.5000,1.0000,0.0000
35.630,Upwind,1520.239,0.567,1520.029,0.567,47.961,47.961,171.510,32.171,0.008,13.370,-0.132,0.0015,-0.4527,0.0001,1.0000,0.5000,1.0000,0.0000
35.823,Upwind,1536.332,0.572,1536.122,0.572,54.035,54.036,171.728,34.081,0.004,13.512,-0.128,0.0017,-0.4238,0.0001,1.0000,0.5000,1.0000,0.0000
36.030,Upwind,1555.362,0.577,1555.152,0.577,61.650,61.650,171.965,36.178,360.000,13.614,-0.123,0.0018,-0.3928,0.0001,1.0000,0.5000,1.0000,0.0000
36.232,Upwind,1572.938,0.580,1572.728,0.580,69.065,69.066,172.167,37.950,359.996,13.647,-0.117,0.0018,-0.3625,0.0001,1.0000,0.5000,1.0000,0.0000
36.426,Upwind,1589.057,0.583,1588.847,0.583,76.161,76.161,172.343,39.432,359.994,13.630,-0.111,0.0018,-0.3333,0.0001,1.0000,0.5000,1.0000,0.0000
36.624,Upwind,1606.651,0.585,1606.441,0.585,84.195,84.195,172.528,40.876,359.991,13.562,-0.104,0.0018,-0.3036,0.0000,1.0000,0.5000,1.0000,0.0000
36.825,Upwind,1624.253,0.586,1624.043,0.586,92.500,92.500,172.709,42.144,359.989,13.447,-0.097,0.0017,-0.2735,0.0000,1.0000,0.5000,1.0000,0.0000
37.048,Upwind,1644.803,0.587,1644.593,0.587,101.761,101.761,172.904,43.306,359.988,13.270,-0.090,0.0015,-0.2400,0.0000,0.9996,0.5000,1.0000,0.0000
37.232,Upwind,1660.961,0.588,1660.751,0.588,110.513,110.513,173.082,44.186,359.988,13.063,-0.083,0.0013,-0.2283,0.0000,0.9971,0.5000,1.0000,0.0000
37.426,Upwind,1677.130,0.588,1676.920,0.588,119.421,119.422,173.255,44.862,359.988,12.825,-0.076,0.0011,-0.2814,0.0000,0.9946,0.5000,1.0000,0.0000
37.627,Upwind,1694.784,0.587,1694.574,0.587,128.444,128.445,173.422,45.336,359.988,12.602,-0.071,0.0008,-0.3269,0.0000,0.9923,0.5000,1.0000,0.0000
37.837,Upwind,1713.926,0.586,1713.716,0.586,137.545,137.546,173.584,45.652,359.989,12.434,-0.065,0.0006,-0.3564,0.0000,0.9900,0.5000,1.0000,0.0000
38.021,Upwind,1730.138,0.585,1729.928,0.585,145.934,145.935,173.728,45.853,359.990,12.348,-0.061,0.0004,-0.3679,0.0000,0.9880,0.5000,1.0000,0.0000
38.244,Upwind,1749.316,0.584,1749.106,0.584,155.890,155.891,173.891,46.049,359.991,12.336,-0.057,0.0002,-0.3627,0.0000,0.9857,0.5000,0.0000,0.0000
38.421,Upwind,1765.558,0.583,1765.348,0.583,164.348,164.349,174.025,46.224,359.991,12.389,-0.054,0.0001,-0.3459,0.0000,0.9838,0.5000,0.0000,0.0000
38.623,Upwind,1783.292,0.581,1783.082,0.581,173.616,173.617,174.165,46.461,359.992,12.493,-0.051,-0.0001,-0.3205,0.0000,0.9818,0.5000,0.0000,0.0000
38.828,Upwind,1801.039,0.579,1800.829,0.579,182.937,182.938,174.298,46.760,359.992,12.617,-0.049,-0.0001,-0.2922,0.0000,0.9800,0.5000,0.0000,0.0000
39.030,Upwind,1820.279,0.577,1820.069,0.577,193.109,193.110,174.433,47.150,359.993,12.747,-0.047,-0.0002,-0.2656,0.0000,0.9781,0.5000,0.0000,0.0000
39.230,Upwind,1838.051,0.575,1837.841,0.575,202.579,202.580,174.551,47.553,359.993,12.840,-0.046,-0.0003,-0.2485,0.0000,0.9764,0.5000,0.0000,0.0000
39.423,Upwind,1854.351,0.573,1854.141,0.573,211.332,211.333,174.653,47.937,359.993,12.894,-0.045,-0.0003,-0.2396,0.0000,0.9750,0.5000,0.0000,0.0000
39.630,Upwind,1873.626,0.571,1873.416,0.571,221.767,221.768,174.767,48.381,359.993,12.918,-0.044,-0.0002,-0.2380,0.0000,0.9734,0.5000,0.0000,0.0000
39.825,Upwind,1889.943,0.569,1889.733,0.569,230.669,230.670,174.860,48.728,359.993,12.909,-0.044,-0.0002,-0.2424,0.0000,0.9721,0.5000,0.0000,0.0000
40.026,Upwind,1907.753,0.567,1907.543,0.567,240.449,240.450,174.958,49.064,359.992,12.878,-0.044,-0.0002,-0.2507,0.0000,0.9707,0.5000,0.0000,0.0000
40.227,Upwind,1925.572,0.564,1925.362,0.564,250.291,250.293,175.053,49.350,359.992,12.836,-0.044,-0.0001,-0.2602,0.0000,0.9694,0.5000,0.0000,0.0000
40.430,Upwind,1944.888,0.562,1944.678,0.562,261.013,261.014,175.154,49.607,359.992,12.792,-0.044,-0.0001,-0.2693,0.0000,0.9680,0.5000,0.0000,0.0000
40.635,Upwind,1962.728,0.559,1962.518,0.559,270.954,270.955,175.245,49.803,359.991,12.761,-0.044,0.0000,-0.2748,0.0000,0.9667,0.5000,0.0000,0.0000
40.829,Upwind,1980.578,0.557,1980.368,0.557,280.932,280.933,175.335,49.972,359.991,12.744,-0.044,0.0000,-0.2771,0.0000,0.9654,0.5000,0.0000,0.0000
41.026,Upwind,1996.949,0.554,1996.739,0.554,290.942,290.943,175.422,50.128,359.990,12.743,-0.044,0.0001,-0.2759,0.0000,0.9642,0.5000,0.0000,0.0000
41.220,Upwind,2014.819,0.551,2014.609,0.551,300.145,300.146,175.501,50.267,359.990,12.754,-0.043,0.0001,-0.2724,0.0000,0.9631,0.5000,0.0000,0.0000
41.421,Upwind,2032.699,0.549,2032.489,0.549,310.213,310.215,175.585,50.422,359.989,12.775,-0.043,0.0002,-0.2673,0.0000,0.9619,0.5000,0.0000,0.0000
41.626,Upwind,2050.588,0.546,2050.378,0.546,320.314,320.315,175.667,50.584,359.989,12.799,-0.043,0.0002,-0.2617,0.0000,0.9608,0.5000,0.0000,0.0000
41.829,Upwind,2069.978,0.543,2069.768,0.543,330.448,330.449,175.746,50.753,359.988,12.823,-0.042,0.0002,-0.2568,0.0000,0.9597,0.5000,0.0000,0.0000
42.024,Upwind,2086.394,0.540,2086.184,0.540,340.615,340.617,175.823,50.926,359.988,12.843,-0.041,0.0002,-0.2531,0.0000,0.9586,0.5000,0.0000,0.0000
42.234,Upwind,2105.804,0.536,2105.594,0.536,351.670,351.671,175.905,51.113,359.988,12.857,-0.040,0.0003,-0.2508,0.0000,0.9574,0.5000,0.0000,0.0000
42.422,Upwind,2122.236,0.534,2122.026,0.534,361.055,361.056,175.973,51.267,359.987,12.862,-0.040,0.0003,-0.2503,0.0000,0.9565,0.5000,0.0000,0.0000
42.635,Upwind,2141.665,0.530,2141.455,0.530,372.181,372.183,176.051,51.439,359.987,12.861,-0.039,0.0002,-0.2511,0.0000,0.9554,0.5000,0.0000,0.0000
42.826,Upwind,2158.112,0.527,2157.902,0.527,381.624,381.626,176.116,51.575,359.987,12.856,-0.038,0.0002,-0.2524,0.0000,0.9545,0.5000,0.0000,0.0000
43.025,Upwind,2176.063,0.524,2175.853,0.524,391.953,391.955,176.186,51.710,359.987,12.849,-0.037,0.0002,-0.2541,0.0000,0.9535,0.5000,0.0000,0.0000
43.233,Upwind,2195.520,0.520,2195.310,0.520,403.172,403.174,176.261,51.844,359.987,12.841,-0.036,0.0002,-0.2557,0.0000,0.9524,0.5000,0.0000,0.0000
43.425,Upwind,2211.991,0.517,2211.781,0.517,412.686,412.688,176.321,51.947,359.987,12.835,-0.035,0.0002,-0.2566,0.0000,0.9516,0.5000,0.0000,0.0000
43.625,Upwind,2229.968,0.514,2229.758,0.514,423.086,423.088,176.385,52.052,359.987,12.833,-0.034,0.0001,-0.2569,0.0000,0.9507,0.5000,0.0000,0.0000
43.830,Upwind,2249.452,0.510,2249.242,0.510,434.375,434.377,176.450,52.159,359.987,12.834,-0.033,0.0001,-0.2562,0.0000,0.9498,0.5000,0.0000,0.0000
44.031,Upwind,2267.445,0.506,2267.235,0.506,444.817,444.819,176.506,52.255,359.987,12.838,-0.032,0.0001,-0.2550,0.0000,0.9490,0.5000,0.0000,0.0000
44.221,Upwind,2283.946,0.503,2283.736,0.503,454.405,454.407,176.556,52.342,359.987,12.844,-0.032,0.0001,-0.2535,0.0000,0.9483,0.5000,0.0000,0.0000
44.424,Upwind,2301.953,0.500,2301.743,0.500,464.883,464.885,176.607,52.437,359.987,12.852,-0.031,0.0001,-0.2517,0.0000,0.9476,0.5000,0.0000,0.0000
44.630,Upwind,2321.469,0.496,2321.259,0.496,476.255,476.257,176.659,52.540,359.987,12.861,-0.030,0.0001,-0.2499,0.0000,0.9469,0.5000,0.0000,0.0000
44.821,Upwind,2337.989,0.493,2337.779,0.493,485.895,485.898,176.701,52.626,359.988,12.867,-0.030,0.0001,-0.2486,0.0000,0.9463,0.5000,0.0000,0.0000
45.029,Upwind,2357.519,0.489,2357.309,0.489,497.309,497.311,176.747,52.727,359.988,12.873,-0.029,0.0000,-0.2475,0.0000,0.9456,0.5000,0.0000,0.0000
45.221,Upwind,2374.050,0.486,2373.840,0.486,506.983,506.985,176.784,52.810,359.988,12.877,-0.029,0.0000,-0.2468,0.0000,0.9451,0.5000,0.0000,0.0000
45.424,Upwind,2392.090,0.483,2391.880,0.483,518.435,518.438,176.826,52.904,359.988,12.879,-0.028,0.0000,-0.2464,0.0000,0.9445,0.5000,0.0000,0.0000
45.630,Upwind,2411.640,0.479,2411.430,0.479,529.024,529.027,176.862,52.987,359.988,12.880,-0.028,0.0000,-0.2463,0.0000,0.9440,0.5000,0.0000,0.0000
45.823,Upwind,2428.187,0.476,2427.977,0.476,538.745,538.748,176.893,53.058,359.988,12.881,-0.028,0.0001,-0.2462,0.0000,0.9436,0.5000,0.0000,0.0000
46.026,Upwind,2446.243,0.473,2446.033,0.473,550.250,550.252,176.927,53.138,359.988,12.881,-0.028,0.0000,-0.2461,0.0000,0.9431,0.5000,0.0000,0.0000
46.226,Upwind,2464.305,0.469,2464.095,0.469,560.884,560.887,176.957,53.207,359.988,12.882,-0.028,0.0001,-0.2460,0.0000,0.9427,0.5000,0.0000,0.0000
46.428,Upwind,2482.372,0.466,2482.162,0.466,571.532,571.535,176.986,53.273,359.988,12.883,-0.027,0.0000,-0.2457,0.0000,0.9423,0.5000,0.0000,0.0000
46.623,Upwind,2500.445,0.463,2500.235,0.463,581.304,581.307,177.010,53.330,359.988,12.884,-0.027,0.0001,-0.2453,0.0000,0.9419,0.5000,0.0000,0.0000
46.825,Upwind,2518.522,0.460,2518.312,0.460,592.866,592.869,177.037,53.396,359.988,12.886,-0.027,0.0000,-0.2448,0.0000,0.9416,0.5000,0.0000,0.0000
47.030,Upwind,2538.110,0.456,2537.900,0.456,603.551,603.554,177.061,53.454,359.988,12.889,-0.027,0.0000,-0.2442,0.0000,0.9412,0.5000,0.0000,0.0000
47.225,Upwind,2554.690,0.453,2554.480,0.453,613.356,613.359,177.081,53.506,359.989,12.891,-0.027,0.0000,-0.2437,0.0000,0.9409,0.5000,0.0000,0.0000
47.429,Upwind,2574.288,0.450,2574.078,0.450,624.955,624.958,177.103,53.565,359.989,12.894,-0.027,0.0000,-0.2431,0.0000,0.9406,0.5000,0.0000,0.0000
47.626,Upwind,2590.876,0.447,2590.666,0.447,635.674,635.677,177.123,53.618,359.989,12.897,-0.026,0.0000,-0.2426,0.0000,0.9404,0.5000,0.0000,0.0000
47.828,Upwind,2608.975,0.444,2608.765,0.444,646.402,646.406,177.140,53.670,359.989,12.899,-0.026,0.0000,-0.2422,0.0000,0.9401,0.5000,0.0000,0.0000
48.025,Upwind,2627.079,0.441,2626.869,0.441,656.246,656.249,177.156,53.715,359.989,12.900,-0.026,0.0001,-0.2418,0.0000,0.9399,0.5000,0.0000,0.0000
48.229,Upwind,2646.696,0.438,2646.486,0.438,667.890,667.893,177.173,53.766,359.989,12.902,-0.026,0.0000,-0.2416,0.0000,0.9397,0.5000,0.0000,0.0000
48.434,Upwind,2664.808,0.435,2664.598,0.435,678.648,678.651,177.187,53.811,359.989,12.903,-0.026,0.0000,-0.2413,0.0000,0.9395,0.5000,0.0000,0.0000
48.620,Upwind,2681.414,0.432,2681.204,0.432,688.517,688.520,177.199,53.851,359.989,12.904,-0.026,0.0000,-0.2412,0.0000,0.9393,0.5000,0.0000,0.0000
48.822,Upwind,2699.533,0.429,2699.323,0.429,699.291,699.294,177.212,53.892,359.989,12.904,-0.026,0.0001,-0.2410,0.0000,0.9391,0.5000,0.0000,0.0000
49.026,Upwind,2717.656,0.426,2717.446,0.426,710.972,710.975,177.224,53.934,359.990,12.905,-0.026,0.0000,-0.2408,0.0000,0.9389,0.5000,0.0000,0.0000
49.222,Upwind,2735.783,0.423,2735.573,0.423,720.863,720.866,177.234,53.968,359.990,12.906,-0.026,0.0000,-0.2406,0.0000,0.9388,0.5000,0.0000,0.0000
49.422,Upwind,2753.913,0.421,2753.703,0.421,731.660,731.663,177.243,54.003,359.990,12.907,-0.026,0.0000,-0.2404,0.0000,0.9387,0.5000,0.0000,0.0000
49.632,Upwind,2773.558,0.418,2773.348,0.418,743.365,743.368,177.253,54.040,359.990,12.908,-0.026,0.0000,-0.2401,0.0000,0.9385,0.5000,0.0000,0.0000
49.820,Upwind,2790.184,0.415,2789.974,0.415,753.275,753.278,177.260,54.070,359.990,12.909,-0.026,0.0000,-0.2399,0.0000,0.9384,0.5000,0.0000,0.0000
50.027,Upwind,2808.324,0.413,2808.114,0.413,764.993,764.997,177.268,54.104,359.990,12.910,-0.026,0.0000,-0.2397,0.0000,0.9383,0.5000,0.0000,0.0000
50.228,Upwind,2826.468,0.410,2826.258,0.410,775.817,775.821,177.275,54.133,359.990,12.911,-0.026,0.0000,-0.2394,0.0000,0.9382,0.5000,0.0000,0.0000
50.424,Upwind,2844.615,0.407,2844.405,0.407,785.744,785.748,177.280,54.160,359.990,12.912,-0.026,0.0000,-0.2393,0.0000,0.9381,0.5000,0.0000,0.0000
50.621,Upwind,2862.765,0.405,2862.555,0.405,796.579,796.582,177.285,54.188,359.991,12.913,-0.026,0.0000,-0.2391,0.0000,0.9381,0.5000,0.0000,0.0000
50.828,Upwind,2880.919,0.402,2880.709,0.402,808.322,808.326,177.290,54.216,359.991,12.914,-0.026,0.0000,-0.2389,0.0000,0.9380,0.5000,0.0000,0.0000
51.023,Upwind,2899.075,0.400,2898.865,0.400,818.264,818.268,177.294,54.239,359.991,12.914,-0.026,0.0000,-0.2388,0.0000,0.9380,0.5000,0.0000,0.0000
51.232,Upwind,2918.748,0.397,2918.538,0.397,830.019,830.023,177.298,54.265,359.991,12.915,-0.026,0.0000,-0.2387,0.0000,0.9379,0.5000,0.0000,0.0000
51.428,Upwind,2935.397,0.395,2935.187,0.395,840.874,840.878,177.301,54.288,359.991,12.916,-0.026,0.0000,-0.2386,0.0000,0.9379,0.5000,0.0000,0.0000
51.621,Upwind,2953.562,0.393,2953.352,0.393,850.829,850.833,177.303,54.308,359.991,12.916,-0.026,0.0000,-0.2385,0.0000,0.9378,0.5000,0.0000,0.0000
51.828,Upwind,2971.731,0.390,2971.521,0.390,862.598,862.602,177.305,54.331,359.991,12.917,-0.026,0.0000,-0.2383,0.0000,0.9378,0.5000,0.0000,0.0000
52.026,Upwind,2989.902,0.388,2989.692,0.388,873.466,873.470,177.307,54.351,359.991,12.917,-0.026,0.0000,-0.2382,0.0000,0.9378,0.5000,0.0000,0.0000
52.223,Upwind,3008.076,0.386,3007.866,0.386,883.432,883.436,177.308,54.369,359.992,12.917,-0.026,0.0000,-0.2382,0.0000,0.9378,0.5000,0.0000,0.0000
52.422,Upwind,3026.253,0.384,3026.043,0.384,894.308,894.312,177.308,54.387,359.992,12.918,-0.026,0.0000,-0.2381,0.0000,0.9378,0.5000,0.0000,0.0000
52.630,Upwind,3045.947,0.381,3045.737,0.381,906.094,906.098,177.309,54.406,359.992,12.918,-0.026,0.0000,-0.2380,0.0000,0.9377,0.5000,0.0000,0.0000
52.829,Upwind,3064.130,0.379,3063.920,0.379,916.976,916.981,177.309,54.423,359.992,12.919,-0.026,0.0000,-0.2379,0.0000,0.9378,0.5000,0.0000,0.0000
53.021,Upwind,3080.800,0.377,3080.590,0.377,926.955,926.960,177.308,54.437,359.992,12.919,-0.026,0.0000,-0.2378,0.0000,0.9378,0.5000,0.0000,0.0000
53.227,Upwind,3098.988,0.375,3098.778,0.375,938.752,938.756,177.307,54.454,359.992,12.919,-0.026,0.0000,-0.2377,0.0000,0.9378,0.5000,0.0000,0.0000
53.427,Upwind,3117.178,0.373,3116.968,0.373,949.644,949.648,177.306,54.469,359.992,12.920,-0.026,0.0000,-0.2377,0.0000,0.9378,0.5000,0.0000,0.0000
53.622,Upwind,3135.371,0.371,3135.161,0.371,959.631,959.635,177.305,54.481,359.992,12.920,-0.026,0.0000,-0.2376,0.0000,0.9378,0.5000,0.0000,0.0000
53.822,Upwind,3153.567,0.369,3153.357,0.369,970.528,970.533,177.303,54.495,359.993,12.920,-0.026,0.0000,-0.2375,0.0000,0.9378,0.5000,0.0000,0.0000
54.024,Upwind,3171.765,0.367,3171.555,0.367,981.429,981.433,177.301,54.508,359.993,12.920,-0.026,0.0000,-0.2375,0.0000,0.9379,0.5000,0.0000,0.0000
54.227,Upwind,3189.966,0.365,3189.756,0.365,993.240,993.245,177.299,54.521,359.993,12.921,-0.026,0.0000,-0.2374,0.0000,0.9379,0.5000,0.0000,0.0000
54.424,Upwind,3208.169,0.364,3207.959,0.364,1003.236,1003.241,177.296,54.532,359.993,12.921,-0.026,0.0000,-0.2374,0.0000,0.9379,0.5000,0.0000,0.0000
54.629,Upwind,3227.893,0.362,3227.683,0.362,1015.053,1015.058,177.293,54.544,359.993,12.921,-0.026,0.0000,-0.2374,0.0000,0.9380,0.5000,0.0000,0.0000
54.825,Upwind,3244.584,0.360,3244.374,0.360,1025.963,1025.968,177.290,54.554,359.993,12.921,-0.027,0.0000,-0.2373,0.0000,0.9380,0.5000,0.0000,0.0000
55.030,Upwind,3264.313,0.358,3264.103,0.358,1036.874,1036.879,177.287,54.564,359.993,12.921,-0.027,0.0000,-0.2373,0.0000,0.9381,0.5000,0.0000,0.0000
55.223,Upwind,3281.008,0.357,3280.798,0.357,1046.879,1046.884,177.284,54.573,359.993,12.921,-0.027,0.0000,-0.2373,0.0000,0.9381,0.5000,0.0000,0.0000
55.420,Upwind,3299.224,0.355,3299.014,0.355,1057.794,1057.799,177.280,54.583,359.993,12.922,-0.027,0.0000,-0.2373,0.0000,0.9381,0.5000,0.0000,0.0000
55.625,Upwind,3317.443,0.353,3317.233,0.353,1069.621,1069.627,177.276,54.592,359.994,12.922,-0.027,0.0000,-0.2372,0.0000,0.9382,0.5000,0.0000,0.0000
55.822,Upwind,3335.664,0.352,3335.454,0.352,1079.631,1079.636,177.273,54.600,359.994,12.922,-0.027,0.0000,-0.2372,0.0000,0.9383,0.5000,0.0000,0.0000
56.030,Upwind,3355.406,0.350,3355.196,0.350,1091.462,1091.467,177.268,54.609,359.994,12.922,-0.027,0.0000,-0.2372,0.0000,0.9383,0.5000,0.0000,0.0000
56.223,Upwind,3372.113,0.349,3371.903,0.349,1101.474,1101.479,177.264,54.616,359.994,12.922,-0.027,0.0000,-0.2372,0.0000,0.9384,0.5000,0.0000,0.0000
56.422,Upwind,3390.341,0.347,3390.131,0.347,1112.398,1112.403,177.260,54.624,359.994,12.922,-0.027,0.0000,-0.2372,0.0000,0.9384,0.5000,0.0000,0.0000
56.623,Upwind,3408.571,0.346,3408.361,0.346,1123.323,1123.329,177.255,54.631,359.994,12.922,-0.027,0.0000,-0.2372,0.0000,0.9385,0.5000,0.0000,0.0000
56.825,Upwind,3426.804,0.344,3426.594,0.344,1135.161,1135.166,177.250,54.638,359.994,12.922,-0.027,0.0000,-0.2372,0.0000,0.9386,0.5000,0.0000,0.0000
57.026,Upwind,3445.039,0.343,3444.829,0.343,1146.089,1146.094,177.245,54.645,359.994,12.922,-0.027,0.0000,-0.2372,0.0000,0.9386,0.5000,0.0000,0.0000
57.239,Upwind,3464.797,0.341,3464.587,0.341,1157.018,1157.024,177.240,54.651,359.994,12.922,-0.027,0.0000,-0.2371,0.0000,0.9387,0.5000,0.0000,0.0000
57.423,Upwind,3481.517,0.340,3481.307,0.340,1167.038,1167.044,177.236,54.657,359.994,12.922,-0.027,0.0000,-0.2371,0.0000,0.9388,0.5000,0.0000,0.0000
57.623,Upwind,3499.759,0.339,3499.549,0.339,1177.970,1177.976,177.230,54.662,359.995,12.922,-0.027,0.0000,-0.2372,0.0000,0.9388,0.5000,0.0000,0.0000
57.821,Upwind,3518.004,0.338,3517.794,0.338,1188.903,1188.909,177.225,54.668,359.995,12.922,-0.027,0.0000,-0.2372,0.0000,0.9389,0.5000,0.0000,0.0000
58.029,Upwind,3537.772,0.336,3537.562,0.336,1200.748,1200.754,177.219,54.674,359.995,12.922,-0.027,0.0000,-0.2372,0.0000,0.9390,0.5000,0.0000,0.0000
58.222,Upwind,3554.500,0.335,3554.290,0.335,1210.772,1210.778,177.214,54.678,359.995,12.922,-0.027,0.0000,-0.2372,0.0000,0.9391,0.5000,0.0000,0.0000
58.431,Upwind,3574.273,0.334,3574.063,0.334,1222.620,1222.626,177.208,54.684,359.995,12.922,-0.027,0.0000,-0.2372,0.0000,0.9392,0.5000,0.0000,0.0000
58.621,Upwind,3591.006,0.333,3590.796,0.333,1232.645,1232.651,177.203,54.688,359.995,12.922,-0.027,0.0000,-0.2372,0.0000,0.9392,0.5000,0.0000,0.0000
58.828,Upwind,3609.262,0.332,3609.052,0.332,1244.495,1244.501,177.197,54.693,359.995,12.922,-0.028,0.0000,-0.2372,0.0000,0.9393,0.5000,0.0000,0.0000
59.025,Upwind,3627.521,0.331,3627.311,0.331,1254.522,1254.528,177.191,54.697,359.995,12.922,-0.028,0.0000,-0.2372,0.0000,0.9394,0.5000,0.0000,0.0000
59.226,Upwind,3645.782,0.330,3645.572,0.330,1266.374,1266.380,177.185,54.701,359.995,12.922,-0.028,0.0000,-0.2373,0.0000,0.9395,0.5000,0.0000,0.0000
59.422,Upwind,3664.045,0.329,3663.835,0.329,1276.403,1276.409,177.179,54.705,359.995,12.922,-0.028,0.0000,-0.2373,0.0000,0.9396,0.5000,0.0000,0.0000
59.629,Upwind,3682.310,0.328,3682.100,0.328,1288.256,1288.262,177.173,54.709,359.996,12.921,-0.028,0.0000,-0.2373,0.0000,0.9397,0.5000,0.0000,0.0000
59.830,Upwind,3702.100,0.327,3701.890,0.327,1299.198,1299.204,177.167,54.712,359.996,12.921,-0.028,0.0000,-0.2373,0.0000,0.9397,0.5000,0.0000,0.0000
60.029,Upwind,3720.371,0.326,3720.161,0.326,1310.141,1310.147,177.160,54.716,359.996,12.921,-0.028,0.0000,-0.2374,0.0000,0.9398,0.5000,0.0000,0.0000
60.221,Upwind,3737.120,0.325,3736.910,0.325,1320.172,1320.178,177.155,54.719,359.996,12.921,-0.028,0.0000,-0.2374,0.0000,0.9399,0.5000,0.0000,0.0000
60.427,Upwind,3755.395,0.324,3755.185,0.324,1332.028,1332.035,177.148,54.722,359.996,12.921,-0.028,0.0000,-0.2374,0.0000,0.9400,0.5000,0.0000,0.0000
60.632,Upwind,3775.195,0.323,3774.985,0.323,1342.973,1342.979,177.142,54.725,359.996,12.921,-0.028,0.0000,-0.2374,0.0000,0.9401,0.5000,0.0000,0.0000
60.829,Upwind,3793.474,0.322,3793.264,0.322,1353.918,1353.925,177.135,54.728,359.996,12.921,-0.028,0.0000,-0.2374,0.0000,0.9402,0.5000,0.0000,0.0000
61.033,Upwind,3811.755,0.321,3811.545,0.321,1364.864,1364.871,177.129,54.731,359.996,12.921,-0.028,0.0000,-0.2375,0.0000,0.9403,0.5000,0.0000,0.0000
61.224,Upwind,3828.515,0.321,3828.305,0.321,1374.899,1374.905,177.123,54.734,359.996,12.921,-0.028,0.0000,-0.2375,0.0000,0.9404,0.5000,0.0000,0.0000
61.431,Upwind,3848.325,0.320,3848.115,0.320,1386.758,1386.764,177.116,54.737,359.996,12.920,-0.028,0.0000,-0.2375,0.0000,0.9405,0.5000,0.0000,0.0000
61.631,Upwind,3866.613,0.319,3866.403,0.319,1397.705,1397.712,177.109,54.739,359.996,12.920,-0.028,0.0000,-0.2376,0.0000,0.9405,0.5000,0.0000,0.0000
61.821,Upwind,3883.379,0.319,3883.169,0.319,1407.741,1407.748,177.103,54.742,359.996,12.920,-0.028,0.0000,-0.2376,0.0000,0.9406,0.5000,0.0000,0.0000
62.029,Upwind,3903.196,0.318,3902.986,0.318,1419.602,1419.609,177.096,54.744,359.997,12.920,-0.028,0.0000,-0.2376,0.0000,0.9407,0.5000,0.0000,0.0000
62.226,Upwind,3919.967,0.317,3919.757,0.317,1430.551,1430.558,177.089,54.747,359.997,12.920,-0.028,0.0000,-0.2377,0.0000,0.9408,0.5000,0.0000,0.0000
62.433,Upwind,3939.789,0.317,3939.579,0.317,1441.501,1441.507,177.082,54.749,359.997,12.920,-0.028,0.0000,-0.2377,0.0000,0.9409,0.5000,0.0000,0.0000
62.627,Upwind,3956.563,0.316,3956.353,0.316,1452.450,1452.457,177.076,54.751,359.997,12.920,-0.028,0.0000,-0.2377,0.0000,0.9410,0.5000,0.0000,0.0000
62.830,Upwind,3976.390,0.315,3976.180,0.315,1463.401,1463.408,177.069,54.753,359.997,12.920,-0.028,0.0000,-0.2377,0.0000,0.9411,0.5000,0.0000,0.0000
63.027,Upwind,3993.168,0.315,3992.958,0.315,1474.352,1474.359,177.062,54.755,359.997,12.919,-0.028,0.0000,-0.2378,0.0000,0.9412,0.5000,0.0000,0.0000
63.221,Upwind,4011.474,0.314,4011.264,0.314,1484.390,1484.397,177.056,54.757,359.997,12.919,-0.029,0.0000,-0.2378,0.0000,0.9413,0.5000,0.0000,0.0000
63.430,Upwind,4031.308,0.314,4031.098,0.314,1496.254,1496.261,177.048,54.759,359.997,12.919,-0.029,-0.0001,-0.2378,0.0000,0.9414,0.5000,0.0000,0.0000
63.627,Upwind,4048.093,0.313,4047.883,0.313,1507.206,1507.213,177.041,54.761,359.997,12.919,-0.029,0.0000,-0.2379,0.0000,0.9415,0.5000,0.0000,0.0000
63.832,Upwind,4067.932,0.313,4067.722,0.313,1518.158,1518.166,177.035,54.762,359.997,12.919,-0.029,0.0000,-0.2379,0.0000,0.9416,0.5000,0.0000,0.0000
64.030,Upwind,4086.247,0.313,4086.037,0.313,1529.111,1529.118,177.028,54.764,359.997,12.919,-0.029,0.0000,-0.2380,0.0000,0.9417,0.5000,0.0000,0.0000
64.231,Upwind,4104.564,0.312,4104.354,0.312,1540.064,1540.071,177.021,54.766,359.997,12.918,-0.029,-0.0001,-0.2380,0.0000,0.9418,0.5000,0.0000,0.0000
64.428,Upwind,4121.357,0.312,4121.147,0.312,1551.017,1551.025,177.014,54.767,359.997,12.918,-0.029,0.0000,-0.2380,0.0000,0.9419,0.5000,0.0000,0.0000
64.629,Upwind,4141.205,0.311,4140.995,0.311,1561.971,1561.978,177.007,54.769,359.998,12.918,-0.029,0.0000,-0.2381,0.0000,0.9420,0.5000,0.0000,0.0000
64.824,Upwind,4158.002,0.311,4157.792,0.311,1572.012,1572.019,177.000,54.770,359.998,12.918,-0.030,0.0000,-0.2381,0.0000,0.9421,0.5000,0.0000,0.0000
65.022,Upwind,4176.328,0.311,4176.118,0.311,1582.966,1582.974,176.993,54.772,359.998,12.918,-0.030,0.0000,-0.2381,0.0000,0.9422,0.5000,0.0000,0.0000
65.227,Upwind,4194.656,0.310,4194.446,0.310,1594.833,1594.841,176.986,54.773,359.998,12.918,-0.030,0.0000,-0.2382,0.0000,0.9423,0.5000,0.0000,0.0000
65.424,Upwind,4212.986,0.310,4212.776,0.310,1604.875,1604.883,176.979,54.775,359.998,12.917,-0.030,0.0000,-0.2382,0.0000,0.9424,0.5000,0.0000,0.0000
65.626,Upwind,4231.319,0.310,4231.109,0.310,1615.830,1615.838,176.972,54.776,359.998,12.917,-0.030,0.0000,-0.2382,0.0000,0.9425,0.5000,0.0000,0.0000
65.831,Upwind,4251.182,0.310,4250.972,0.310,1627.699,1627.706,176.964,54.777,359.998,12.917,-0.030,0.0000,-0.2383,0.0000,0.9426,0.5000,0.0000,0.0000
66.028,Upwind,4267.991,0.309,4267.781,0.309,1638.654,1638.662,176.957,54.779,359.998,12.917,-0.030,0.0000,-0.2383,0.0000,0.9427,0.5000,0.0000,0.0000
66.223,Upwind,4286.330,0.309,4286.120,0.309,1648.697,1648.705,176.951,54.780,359.998,12.917,-0.030,0.0000,-0.2384,0.0000,0.9428,0.5000,0.0000,0.0000
66.421,Upwind,4304.672,0.309,4304.462,0.309,1659.653,1659.661,176.943,54.781,359.998,12.917,-0.030,0.0000,-0.2384,0.0000,0.9429,0.5000,0.0000,0.0000
66.626,Upwind,4323.015,0.309,4322.805,0.309,1671.522,1671.530,176.936,54.782,359.998,12.916,-0.030,0.0000,-0.2384,0.0000,0.9430,0.5000,0.0000,0.0000
66.833,Upwind,4342.890,0.309,4342.680,0.309,1682.479,1682.487,176.929,54.784,359.998,12.916,-0.030,0.0000,-0.2385,0.0000,0.9431,0.5000,0.0000,0.0000
67.027,Upwind,4359.709,0.308,4359.499,0.308,1693.436,1693.444,176.921,54.785,359.998,12.916,-0.031,0.0000,-0.2385,0.0000,0.9432,0.5000,0.0000,0.0000
67.226,Upwind,4378.060,0.308,4377.850,0.308,1704.393,1704.401,176.914,54.786,359.998,12.916,-0.031,0.0000,-0.2386,0.0000,0.9433,0.5000,0.0000,0.0000
67.433,Upwind,4397.942,0.308,4397.732,0.308,1715.350,1715.358,176.907,54.787,359.998,12.916,-0.031,0.0000,-0.2386,0.0000,0.9434,0.5000,0.0000,0.0000
67.625,Upwind,4414.767,0.308,4414.557,0.308,1726.307,1726.316,176.900,54.788,359.998,12.915,-0.031,0.0000,-0.2386,0.0000,0.9435,0.5000,0.0000,0.0000
67.829,Upwind,4434.654,0.308,4434.444,0.308,1737.265,1737.273,176.893,54.789,359.998,12.915,-0.031,0.0000,-0.2387,0.0000,0.9436,0.5000,0.0000,0.0000
68.022,Upwind,4451.483,0.308,4451.273,0.308,1747.310,1747.318,176.886,54.790,359.998,12.915,-0.031,0.0000,-0.2387,0.0000,0.9437,0.5000,0.0000,0.0000
68.227,Upwind,4469.845,0.308,4469.635,0.308,1759.181,1759.189,176.878,54.791,359.998,12.915,-0.031,0.0000,-0.2388,0.0000,0.9438,0.5000,0.0000,0.0000
68.421,Upwind,4488.208,0.308,4487.998,0.308,1769.226,1769.234,176.871,54.792,359.998,12.915,-0.031,0.0000,-0.2388,0.0000,0.9439,0.5000,0.0000,0.0000
68.629,Upwind,4508.104,0.307,4507.894,0.307,1781.098,1781.106,176.864,54.793,359.998,12.914,-0.031,0.0000,-0.2388,0.0000,0.9440,0.5000,0.0000,0.0000
68.823,Upwind,4524.942,0.307,4524.732,0.307,1791.143,1791.152,176.857,54.794,359.998,12.914,-0.031,0.0000,-0.2389,0.0000,0.9441,0.5000,0.0000,0.0000
69.030,Upwind,4544.843,0.307,4544.633,0.307,1803.015,1803.024,176.849,54.795,359.998,12.914,-0.031,0.0000,-0.2389,0.0000,0.9442,0.5000,0.0000,0.0000
69.223,Upwind,4561.685,0.307,4561.475,0.307,1813.061,1813.070,176.842,54.796,359.998,12.914,-0.031,0.0000,-0.2390,0.0000,0.9443,0.5000,0.0000,0.0000
69.420,Upwind,4580.059,0.307,4579.849,0.307,1824.020,1824.029,176.835,54.796,359.998,12.914,-0.031,0.0000,-0.2390,0.0000,0.9444,0.5000,0.0000,0.0000
69.631,Upwind,4599.968,0.307,4599.758,0.307,1835.893,1835.901,176.827,54.797,359.998,12.914,-0.031,0.0000,-0.2391,0.0000,0.9445,0.5000,0.0000,0.0000
69.833,Upwind,4618.347,0.307,4618.137,0.307,1846.852,1846.861,176.820,54.798,359.998,12.913,-0.031,0.0000,-0.2391,0.0000,0.9446,0.5000,0.0000,0.0000
70.032,Upwind,4636.728,0.307,4636.518,0.307,1857.812,1857.821,176.813,54.799,359.998,12.913,-0.031,0.0000,-0.2391,0.0000,0.9447,0.5000,0.0000,0.0000
70.221,Upwind,4653.580,0.307,4653.370,0.307,1867.858,1867.867,176.806,54.800,359.998,12.913,-0.032,0.0000,-0.2392,0.0000,0.9448,0.5000,0.0000,0.0000
70.430,Upwind,4673.498,0.307,4673.288,0.307,1879.732,1879.741,176.798,54.801,359.999,12.913,-0.032,0.0000,-0.2392,0.0000,0.9449,0.5000,0.0000,0.0000
70.632,Upwind,4691.886,0.307,4691.676,0.307,1890.692,1890.701,176.791,54.802,359.999,12.913,-0.032,0.0000,-0.2393,0.0000,0.9450,0.5000,0.0000,0.0000
70.823,Upwind,4708.744,0.307,4708.534,0.307,1900.739,1900.748,176.784,54.802,359.999,12.912,-0.032,0.0000,-0.2393,0.0000,0.9451,0.5000,0.0000,0.0000
71.024,Upwind,4727.136,0.307,4726.926,0.307,1911.699,1911.709,176.777,54.803,359.999,12.912,-0.032,-0.0001,-0.2394,0.0000,0.9452,0.5000,0.0000,0.0000
71.231,Upwind,4747.063,0.307,4746.853,0.307,1923.573,1923.583,176.769,54.804,359.999,12.912,-0.032,0.0000,-0.2394,0.0000,0.9453,0.5000,0.0000,0.0000
71.424,Upwind,4763.927,0.307,4763.717,0.307,1934.534,1934.544,176.761,54.805,359.999,12.912,-0.032,0.0000,-0.2394,0.0000,0.9454,0.5000,0.0000,0.0000
71.628,Upwind,4782.326,0.307,4782.116,0.307,1945.495,1945.505,176.754,54.805,359.999,12.912,-0.032,0.0000,-0.2395,0.0000,0.9455,0.5000,0.0000,0.0000
71.823,Upwind,4800.727,0.307,4800.517,0.307,1955.543,1955.552,176.747,54.806,359.999,12.911,-0.032,0.0000,-0.2395,0.0000,0.9456,0.5000,0.0000,0.0000
72.027,Upwind,4819.131,0.307,4818.921,0.307,1967.418,1967.427,176.739,54.807,359.999,12.911,-0.032,0.0000,-0.2396,0.0000,0.9457,0.5000,0.0000,0.0000
72.223,Upwind,4837.536,0.307,4837.326,0.307,1977.465,1977.475,176.732,54.807,359.999,12.911,-0.032,0.0000,-0.2396,0.0000,0.9458,0.5000,0.0000,0.0000
72.431,Upwind,4857.478,0.307,4857.268,0.307,1989.340,1989.350,176.724,54.808,359.999,12.911,-0.032,0.0000,-0.2397,0.0000,0.9459,0.5000,0.0000,0.0000
72.633,Crosswind,4875.888,0.307,4875.678,0.307,2000.302,2000.312,176.717,54.809,359.999,12.911,-0.032,-0.0001,-0.2397,0.0000,0.9460,0.5000,0.0000,0.0000
72.835,Crosswind,4894.298,0.307,4894.088,0.307,2011.260,2011.270,176.640,54.741,359.997,12.916,0.129,0.4000,-0.3304,0.0001,0.8453,0.0000,0.0000,0.0000
73.026,Crosswind,4911.161,0.309,4910.951,0.309,2021.278,2021.287,176.403,54.519,359.993,12.960,0.687,0.4000,-0.4166,0.0001,0.7495,0.0000,0.0000,0.0000
73.230,Crosswind,4931.054,0.316,4930.844,0.316,2033.048,2033.058,175.940,54.111,359.991,13.115,1.750,0.4000,-0.5084,0.0001,0.7000,0.0000,0.0000,0.0000
73.427,Crosswind,4947.849,0.331,4947.639,0.331,2043.829,2043.839,175.472,53.708,0.002,13.396,3.029,0.4000,-0.5967,-0.0001,0.7000,0.0000,0.0000,0.0000
73.626,Crosswind,4966.128,0.366,4965.918,0.366,2053.646,2053.656,175.037,53.393,0.036,13.795,4.389,0.4000,-0.6863,-0.0003,0.7012,0.0000,0.0000,0.0000
73.827,Crosswind,4984.362,0.426,4984.152,0.426,2065.186,2065.196,174.518,53.172,0.124,14.457,6.168,0.4000,-0.7770,-0.0007,0.7132,0.0000,0.0000,0.0000
74.023,Crosswind,5002.548,0.524,5002.338,0.524,2074.932,2074.942,174.079,53.184,0.257,15.183,7.776,0.4000,-0.8000,-0.0013,0.7236,0.0000,0.0000,0.0000
74.236,Crosswind,5022.191,0.686,5021.981,0.686,2086.486,2086.496,173.554,53.524,0.503,16.201,9.759,0.4000,-0.8000,-0.0021,0.7363,0.0000,0.0000,0.0000
74.432,Crosswind,5040.265,0.901,5040.055,0.901,2097.250,2097.260,173.060,54.169,0.826,17.229,11.636,0.4000,-0.7855,-0.0031,0.7482,0.0000,0.0000,0.0000
74.632,Crosswind,5058.278,1.196,5058.068,1.196,2108.174,2108.184,172.553,55.120,1.248,18.278,13.533,0.4000,-0.7555,-0.0043,0.7603,0.0000,0.0000,0.0000
74.824,Crosswind,5074.731,1.550,5074.521,1.550,2118.377,2118.387,172.075,56.228,1.718,19.204,15.270,0.4000,-0.7267,-0.0056,0.7717,0.0000,0.0000,0.0000
75.028,Crosswind,5092.610,2.043,5092.400,2.043,2130.723,2130.733,171.493,57.764,2.372,20.198,17.306,0.4000,-0.6960,-0.0072,0.7852,0.0000,0.0000,0.0000
75.228,Crosswind,5110.412,2.663,5110.202,2.663,2142.429,2142.439,170.944,59.312,3.061,20.978,19.151,0.3393,-0.6660,-0.0089,0.7978,0.0000,0.0000,0.0000
75.423,Crosswind,5128.131,3.426,5127.921,3.426,2153.436,2153.446,170.435,60.762,3.752,21.557,20.764,0.2844,-0.6368,-0.0107,0.8093,0.0000,0.0000,0.0000
75.628,Crosswind,5145.767,4.346,5145.557,4.346,2166.783,2166.794,169.834,62.432,4.627,22.056,22.504,0.2271,-0.6061,-0.0125,0.8223,0.0000,0.0000,0.0000
75.822,Crosswind,5163.316,5.432,5163.106,5.432,2178.352,2178.362,169.331,63.747,5.401,22.321,23.803,0.1881,-0.5769,-0.0141,0.8328,0.0000,0.0000,0.0000
76.029,Crosswind,5182.232,6.808,5182.022,6.808,2192.317,2192.327,168.752,65.126,6.337,22.453,25.120,0.1490,-0.5459,-0.0156,0.8445,0.0000,0.0000,0.0000
76.231,Crosswind,5199.604,8.268,5199.394,8.268,2205.452,2205.462,168.236,66.188,7.201,22.415,26.132,0.1196,-0.5157,-0.0167,0.8544,0.0000,0.0000,0.0000
76.425,Crosswind,5215.458,9.770,5215.248,9.770,2217.660,2217.670,167.785,66.956,7.980,22.259,26.903,0.0974,-0.4865,-0.0174,0.8627,0.0000,0.0000,0.0000
76.631,Crosswind,5234.111,11.747,5233.901,11.747,2232.241,2232.252,167.283,67.589,8.866,21.949,27.646,0.0757,-0.4556,-0.0178,0.8718,0.0000,0.0000,0.0000
76.829,Crosswind,5251.253,13.768,5251.043,13.768,2245.794,2245.805,166.853,67.896,9.640,21.561,28.198,0.0588,-0.4260,-0.0178,0.8793,0.0000,0.0000,0.0000
77.025,Crosswind,5266.908,15.782,5266.698,15.782,2258.249,2258.260,166.489,67.939,10.303,21.138,28.611,0.0463,-0.3965,-0.0175,0.8854,0.0000,0.0000,0.0000
77.230,Crosswind,5285.344,18.361,5285.134,18.361,2272.948,2272.959,166.100,67.695,11.021,20.574,29.008,0.0334,-0.3657,-0.0170,0.8920,0.0000,0.0000,0.0000
77.423,Crosswind,5300.895,20.706,5300.685,20.706,2285.321,2285.332,165.805,67.243,11.570,20.056,29.282,0.0241,-0.3369,-0.0163,0.8968,0.0000,0.0000,0.0000
77.632,Crosswind,5319.221,23.668,5319.011,23.668,2299.807,2299.819,165.499,66.427,12.148,19.409,29.549,0.0148,-0.3055,-0.0154,0.9018,0.0000,0.0000,0.0000
77.833,Crosswind,5336.096,26.579,5335.886,26.579,2312.996,2313.007,165.259,65.416,12.613,18.788,29.748,0.0078,-0.3358,-0.0145,0.9057,0.0000,0.0000,0.0000
78.031,Crosswind,5352.937,29.654,5352.727,29.654,2325.956,2325.967,165.052,64.147,13.031,18.175,29.911,0.0022,-0.4249,-0.0136,0.9090,0.0000,0.0000,0.0000
78.223,Crosswind,5368.351,32.613,5368.141,32.613,2337.594,2337.605,164.892,62.785,13.404,17.669,30.040,-0.0019,-0.5112,-0.0129,0.9115,0.0000,0.0000,0.0000
78.426,Crosswind,5385.145,35.989,5384.935,35.989,2351.006,2351.018,164.734,60.993,13.870,17.194,30.174,-0.0058,-0.6025,-0.0122,0.9137,0.0000,0.0000,0.0000
78.624,Crosswind,5401.919,39.517,5401.709,39.517,2363.031,2363.042,164.615,59.245,14.355,16.911,30.284,-0.0085,-0.6918,-0.0116,0.9154,0.0000,0.0000,0.0000
78.829,Crosswind,5420.070,43.508,5419.860,43.508,2374.704,2374.715,164.516,57.492,14.917,16.800,30.384,-0.0102,-0.7840,-0.0111,0.9168,0.0000,0.0000,0.0000
79.027,Crosswind,5435.411,47.024,5435.201,47.024,2386.033,2386.045,164.433,55.826,15.571,16.874,30.473,-0.0115,-0.8000,-0.0108,0.9179,0.0000,0.0000,0.0000
79.231,Crosswind,5453.517,51.348,5453.307,51.348,2397.047,2397.058,164.361,54.345,16.312,17.106,30.548,-0.0117,-0.7820,-0.0107,0.9190,0.0000,0.0000,0.0000
79.431,Crosswind,5470.202,55.509,5469.992,55.509,2407.787,2407.799,164.295,53.107,17.119,17.447,30.602,-0.0112,-0.7520,-0.0107,0.9199,0.0000,0.0000,0.0000
79.630,Crosswind,5486.851,59.839,5486.641,59.839,2418.307,2418.318,164.231,52.129,17.963,17.842,30.630,-0.0097,-0.7222,-0.0108,0.9208,0.0000,0.0000,0.0000
79.820,Crosswind,5502.077,63.963,5501.867,63.963,2427.799,2427.810,164.170,51.456,18.750,18.211,30.629,-0.0075,-0.6937,-0.0110,0.9216,0.0000,0.0000,0.0000
80.031,Crosswind,5520.018,69.033,5519.808,69.033,2438.883,2438.895,164.095,50.906,19.674,18.613,30.593,-0.0040,-0.6620,-0.0112,0.9227,0.0000,0.0000,0.0000
80.226,Crosswind,5535.150,73.493,5534.940,73.493,2449.030,2449.042,164.022,50.591,20.501,18.921,30.527,-0.0001,-0.6328,-0.0114,0.9237,0.0000,0.0000,0.0000
80.426,Crosswind,5551.600,78.540,5551.390,78.540,2459.129,2459.141,163.948,50.411,21.289,19.145,30.433,0.0045,-0.6028,-0.0116,0.9247,0.0000,0.0000,0.0000
80.631,Crosswind,5569.349,84.222,5569.139,84.222,2469.200,2469.212,163.874,50.311,22.029,19.272,30.315,0.0095,-0.5721,-0.0119,0.9258,0.0000,0.0000,0.0000
80.823,Crosswind,5584.306,89.204,5584.096,89.204,2478.418,2478.430,163.810,50.245,22.658,19.297,30.192,0.0142,-0.5433,-0.0120,0.9267,0.0000,0.0000,0.0000
81.031,Crosswind,5601.909,95.296,5601.699,95.296,2489.294,2489.306,163.743,50.141,23.338,19.213,30.033,0.0198,-0.5120,-0.0121,0.9276,0.0000,0.0000,0.0000
81.223,Crosswind,5616.742,100.621,5616.532,100.621,2498.474,2498.486,163.698,49.992,23.859,19.049,29.893,0.0243,-0.4833,-0.0121,0.9279,0.0000,0.0000,0.0000
81.432,Crosswind,5634.201,107.111,5633.991,107.111,2509.276,2509.288,163.660,49.697,24.413,18.751,29.728,0.0293,-0.4520,-0.0121,0.9280,0.0000,0.0000,0.0000
81.629,Crosswind,5650.251,113.286,5650.041,113.286,2519.176,2519.188,163.643,49.276,24.869,18.386,29.582,0.0335,-0.4560,-0.0121,0.9279,0.0000,0.0000,0.0000
81.826,Crosswind,5664.911,119.099,5664.701,119.099,2528.974,2528.986,163.645,48.667,25.284,17.959,29.447,0.0374,-0.5443,-0.0121,0.9275,0.0000,0.0000,0.0000
82.026,Crosswind,5680.851,125.599,5680.641,125.599,2538.630,2538.642,163.663,47.861,25.696,17.531,29.336,0.0402,-0.6346,-0.0120,0.9269,0.0000,0.0000,0.0000
82.223,Crosswind,5696.741,132.261,5696.531,132.261,2547.325,2547.337,163.694,46.976,26.101,17.189,29.262,0.0417,-0.7232,-0.0120,0.9263,0.0000,0.0000,0.0000
82.432,Crosswind,5713.900,139.655,5713.690,139.655,2557.378,2557.391,163.745,45.810,26.641,16.897,29.214,0.0423,-0.8000,-0.0119,0.9255,0.0000,0.0000,0.0000
82.625,Crosswind,5728.376,146.055,5728.166,146.055,2566.429,2566.442,163.806,44.706,27.218,16.765,29.209,0.0417,-0.8000,-0.0119,0.9246,0.0000,0.0000,0.0000
82.828,Crosswind,5744.123,153.186,5743.913,153.186,2575.264,2575.276,163.876,43.654,27.863,16.749,29.234,0.0402,-0.8000,-0.0119,0.9237,0.0000,0.0000,0.0000
83.030,Crosswind,5761.124,161.088,5760.914,161.088,2583.898,2583.910,163.952,42.700,28.561,16.825,29.281,0.0381,-0.8000,-0.0119,0.9228,0.0000,0.0000,0.0000
83.221,Crosswind,5775.459,167.923,5775.249,167.923,2591.654,2591.666,164.024,41.936,29.239,16.955,29.337,0.0360,-0.8000,-0.0120,0.9219,0.0000,0.0000,0.0000
83.425,Crosswind,5791.040,175.535,5790.830,175.535,2600.656,2600.669,164.108,41.190,30.071,17.156,29.412,0.0333,-0.7714,-0.0120,0.9209,0.0000,0.0000,0.0000
