time_s,leg,north_m,east_m,along_m,cross_m,agl_ft,altitude_ft,speed_kts,vertical_speed_fps,heading_deg,pitch_deg,roll_deg,aileron_cmd,elevator_cmd,rudder_cmd,throttle_cmd,flaps_cmd,gear_cmd,brake_cmd
0.000,Upwind,0.772,0.000,0.000,0.000,3.691,3.691,0.000,0.000,0.000,0.449,0.000,0.0000,0.0022,0.0000,0.1580,0.5000,1.0000,1.0000
0.195,Upwind,0.772,0.000,0.000,0.000,3.691,3.691,0.000,0.000,0.000,0.449,0.000,0.0000,0.0314,0.0000,0.0607,0.5000,1.0000,1.0000
0.391,Upwind,0.772,0.000,0.000,0.000,3.691,3.691,0.000,0.000,0.000,0.449,0.000,0.0000,0.0609,0.0000,0.0000,0.5000,1.0000,1.0000
0.587,Upwind,0.772,0.000,0.000,0.000,3.691,3.691,0.000,-0.001,0.000,0.450,0.000,0.0000,0.0630,0.0000,0.0000,0.5000,1.0000,1.0000
0.790,Upwind,0.772,0.000,0.000,0.000,3.691,3.691,0.000,0.000,0.000,0.450,0.000,0.0000,0.0630,0.0000,0.0147,0.5000,1.0000,0.0000
0.992,Upwind,0.772,0.000,0.000,0.000,3.691,3.691,0.000,0.000,0.000,0.450,0.000,0.0000,0.0629,0.0000,0.1157,0.5000,1.0000,0.0000
1.195,Upwind,0.772,0.000,0.000,0.000,3.691,3.691,0.000,0.000,0.000,0.450,0.000,0.0000,0.0629,0.0000,0.2171,0.5000,1.0000,0.0000
1.392,Upwind,0.772,0.000,0.000,0.000,3.691,3.691,0.000,0.000,0.000,0.450,0.000,0.0000,0.0629,0.0000,0.3155,0.5000,1.0000,0.0000
1.595,Upwind,0.772,0.000,0.000,0.000,3.691,3.691,0.000,0.000,0.000,0.449,0.000,0.0000,0.0629,0.0000,0.4174,0.5000,1.0000,0.0000
1.791,Upwind,0.772,0.000,0.000,0.000,3.691,3.691,0.000,0.000,0.000,0.449,0.000,0.0000,0.0629,0.0000,0.5154,0.5000,1.0000,0.0000
1.988,Upwind,0.772,0.000,0.000,0.000,3.691,3.691,0.000,0.000,0.000,0.449,0.000,0.0000,0.0628,0.0000,0.6139,0.5000,1.0000,0.0000
2.196,Upwind,0.772,0.000,0.000,0.000,3.691,3.691,0.002,0.000,0.000,0.449,0.000,0.0000,0.0628,0.0000,0.7177,0.5000,1.0000,0.0000
2.391,Upwind,0.773,0.000,0.001,0.000,3.691,3.691,0.010,0.000,0.000,0.449,0.000,0.0000,0.0628,0.0000,0.8150,0.5000,1.0000,0.0000
2.588,Upwind,0.775,0.000,0.003,0.000,3.691,3.691,0.027,0.000,0.000,0.449,0.000,0.0000,0.0629,0.0000,0.9137,0.5000,1.0000,0.0000
2.790,Upwind,0.779,0.000,0.007,0.000,3.691,3.691,0.055,0.000,0.000,0.449,0.000,0.0000,0.0629,0.0000,1.0000,0.5000,1.0000,0.0000
2.988,Upwind,0.787,0.000,0.015,0.000,3.691,3.691,0.095,0.000,0.000,0.449,0.000,0.0000,0.0629,0.0000,1.0000,0.5000,1.0000,0.0000
3.189,Upwind,0.800,0.000,0.028,0.000,3.691,3.691,0.150,0.000,0.000,0.449,0.000,0.0000,0.0629,0.0000,1.0000,0.5000,1.0000,0.0000
3.395,Upwind,0.820,0.000,0.048,0.000,3.691,3.691,0.231,0.000,0.000,0.449,0.000,0.0000,0.0629,0.0000,1.0000,0.5000,1.0000,0.0000
3.587,Upwind,0.848,0.000,0.076,0.000,3.691,3.691,0.318,0.000,0.000,0.449,0.000,0.0000,0.0629,0.0000,1.0000,0.5000,1.0000,0.0000
3.790,Upwind,0.888,0.000,0.116,0.000,3.691,3.691,0.437,0.000,0.000,0.449,0.000,0.0000,0.0629,0.0000,1.0000,0.5000,1.0000,0.0000
3.997,Upwind,0.941,0.000,0.169,0.000,3.691,3.691,0.600,0.000,0.000,0.450,0.000,0.0000,0.0630,0.0000,1.0000,0.5000,1.0000,0.0000
4.186,Upwind,1.012,0.000,0.240,0.000,3.691,3.691,0.769,0.000,0.000,0.450,0.000,0.0000,0.0630,0.0000,1.0000,0.5000,1.0000,0.0000
4.388,Upwind,1.104,0.000,0.332,0.000,3.691,3.691,0.991,0.000,0.000,0.450,0.000,0.0000,0.0630,0.0000,1.0000,0.5000,1.0000,0.0000
4.594,Upwind,1.222,0.000,0.450,0.000,3.691,3.691,1.285,0.000,0.000,0.450,0.000,0.0000,0.0631,0.0000,1.0000,0.5000,1.0000,0.0000
4.793,Upwind,1.371,0.000,0.599,0.000,3.691,3.691,1.611,0.000,0.000,0.451,0.000,0.0000,0.0631,0.0000,1.0000,0.5000,1.0000,0.0000
4.987,Upwind,1.556,0.000,0.784,0.000,3.691,3.691,1.964,0.000,0.000,0.451,0.000,0.0000,0.0631,0.0000,1.0000,0.5000,1.0000,0.0000
5.194,Upwind,1.784,0.000,1.012,0.000,3.691,3.691,2.456,0.000,0.000,0.451,0.000,0.0000,0.0632,0.0000,1.0000,0.5000,1.0000,0.0000
5.387,Upwind,2.064,0.000,1.292,0.000,3.691,3.691,2.944,0.000,0.000,0.452,0.000,0.0000,0.0632,0.0000,1.0000,0.5000,1.0000,0.0000
5.596,Upwind,2.403,0.000,1.631,0.000,3.691,3.691,3.612,0.000,0.000,0.452,0.000,0.0000,0.0633,0.0000,1.0000,0.5000,1.0000,0.0000
5.793,Upwind,2.810,0.000,2.038,0.000,3.691,3.691,4.327,0.000,0.000,0.452,0.000,0.0000,0.0634,0.0000,1.0000,0.5000,1.0000,0.0000
5.990,Upwind,3.297,0.000,2.525,0.000,3.691,3.691,5.070,0.000,0.000,0.453,0.000,0.0000,0.0634,0.0000,1.0000,0.5000,1.0000,0.0000
6.187,Upwind,3.872,0.000,3.100,0.000,3.691,3.691,5.985,0.000,0.000,0.453,0.000,0.0000,0.0635,0.0000,1.0000,0.5000,1.0000,0.0000
6.394,Upwind,4.549,0.000,3.777,0.000,3.691,3.691,7.104,0.000,0.000,0.454,0.000,0.0000,0.0636,0.0000,1.0000,0.5000,1.0000,0.0000
6.588,Upwind,5.338,0.000,4.566,0.000,3.691,3.691,8.162,0.001,0.000,0.454,0.000,0.0000,0.0636,0.0000,1.0000,0.5000,1.0000,0.0000
6.795,Upwind,6.253,0.000,5.481,0.000,3.691,3.691,9.534,0.001,0.000,0.455,0.000,0.0000,0.0637,0.0000,1.0000,0.5000,1.0000,0.0000
6.987,Upwind,7.300,0.000,6.529,0.000,3.691,3.691,10.712,0.001,0.000,0.455,0.000,0.0000,0.0636,0.0000,1.0000,0.5000,1.0000,0.0000
7.193,Upwind,8.480,0.000,7.708,0.000,3.692,3.692,12.103,0.001,0.000,0.454,0.000,0.0000,0.0636,0.0000,1.0000,0.5000,1.0000,0.0000
7.388,Upwind,9.791,0.000,9.019,0.000,3.692,3.692,13.279,0.001,0.000,0.454,0.000,0.0000,0.0635,0.0000,1.0000,0.5000,1.0000,0.0000
7.594,Upwind,11.234,0.000,10.462,0.000,3.692,3.692,14.668,0.001,0.000,0.454,0.000,0.0000,0.0635,0.0000,1.0000,0.5000,1.0000,0.0000
7.795,Upwind,12.809,0.000,12.037,0.000,3.692,3.692,15.949,0.001,0.000,0.453,0.000,0.0000,0.0634,0.0000,1.0000,0.5000,1.0000,0.0000
7.993,Upwind,14.516,0.000,13.744,0.000,3.693,3.693,17.229,0.002,0.000,0.453,0.000,0.0000,0.0634,0.0000,1.0000,0.5000,1.0000,0.0000
8.191,Upwind,16.355,0.000,15.583,0.000,3.693,3.693,18.401,0.002,0.000,0.453,0.000,0.0000,0.0633,0.0000,1.0000,0.5000,1.0000,0.0000
8.396,Upwind,18.325,0.000,17.553,0.000,3.693,3.693,19.785,0.002,0.000,0.452,0.000,0.0000,0.0632,0.0000,1.0000,0.5000,1.0000,0.0000
8.592,Upwind,20.426,0.000,19.654,0.000,3.694,3.694,20.955,0.002,0.000,0.452,0.000,0.0000,0.0632,0.0000,1.0000,0.5000,1.0000,0.0000
8.787,Upwind,22.659,0.000,21.887,0.000,3.694,3.694,22.230,0.002,0.000,0.451,0.000,0.0000,0.0631,0.0000,1.0000,0.5000,1.0000,0.0000
8.989,Upwind,25.022,0.000,24.250,0.000,3.694,3.694,23.504,0.002,0.000,0.450,0.000,0.0000,0.0630,0.0000,1.0000,0.5000,1.0000,0.0000
9.196,Upwind,27.517,0.000,26.745,0.000,3.695,3.695,24.776,0.003,0.000,0.450,0.000,0.0000,0.0629,0.0000,1.0000,0.5000,1.0000,0.0000
9.393,Upwind,30.143,0.000,29.371,0.000,3.695,3.696,26.048,0.003,0.000,0.449,0.000,0.0000,0.0628,0.0000,1.0000,0.5000,1.0000,0.0000
9.586,Upwind,32.899,0.000,32.127,0.000,3.696,3.696,27.318,0.003,0.000,0.448,0.000,0.0000,0.0627,0.0000,1.0000,0.5000,1.0000,0.0000
9.796,Upwind,35.786,0.000,35.014,0.000,3.697,3.697,28.692,0.003,0.000,0.447,0.000,0.0000,0.0625,0.0000,1.0000,0.5000,1.0000,0.0000
9.988,Upwind,38.804,0.000,38.032,0.000,3.697,3.697,29.854,0.004,0.000,0.447,0.000,0.0000,0.0624,0.0000,1.0000,0.5000,1.0000,0.0000
10.193,Upwind,41.951,0.000,41.179,0.000,3.698,3.698,31.120,0.004,0.000,0.446,0.000,0.0000,0.0623,0.0000,1.0000,0.5000,1.0000,0.0000
10.388,Upwind,45.229,0.001,44.457,0.001,3.699,3.699,32.384,0.004,0.000,0.445,0.000,0.0000,0.0621,0.0000,1.0000,0.5000,1.0000,0.0000
10.595,Upwind,48.637,0.001,47.865,0.001,3.700,3.700,33.753,0.004,0.000,0.443,0.000,0.0000,0.0620,0.0000,1.0000,0.5000,1.0000,0.0000
10.789,Upwind,52.175,0.001,51.403,0.001,3.700,3.700,34.909,0.004,0.000,0.442,0.000,0.0000,0.0618,0.0000,1.0000,0.5000,1.0000,0.0000
10.993,Upwind,55.843,0.001,55.071,0.001,3.701,3.701,36.274,0.005,0.000,0.441,0.000,0.0000,0.0616,0.0000,1.0000,0.5000,1.0000,0.0000
11.197,Upwind,59.640,0.001,58.868,0.001,3.702,3.702,37.532,0.005,0.000,0.440,0.000,0.0000,0.0615,0.0000,1.0000,0.5000,1.0000,0.0000
11.388,Upwind,63.566,0.001,62.794,0.001,3.703,3.703,38.684,0.005,0.000,0.439,0.000,0.0000,0.0613,0.0000,1.0000,0.5000,1.0000,0.0000
11.595,Upwind,67.622,0.001,66.850,0.001,3.704,3.704,40.044,0.005,0.000,0.437,0.000,0.0000,0.0611,0.0000,1.0000,0.5000,1.0000,0.0000
11.787,Upwind,71.807,0.001,71.035,0.001,3.705,3.705,41.193,0.006,0.000,0.436,0.000,0.0000,0.0609,0.0000,1.0000,0.5000,1.0000,0.0000
11.990,Upwind,76.120,0.001,75.348,0.001,3.707,3.707,42.444,0.006,0.000,0.434,0.000,0.0000,0.0607,0.0000,1.0000,0.5000,1.0000,0.0000
12.197,Upwind,80.562,0.001,79.790,0.001,3.708,3.708,43.798,0.007,0.000,0.433,0.000,0.0000,0.0604,0.0000,1.0000,0.5000,1.0000,0.0000
12.396,Upwind,85.133,0.001,84.361,0.001,3.709,3.709,45.046,0.007,0.000,0.431,0.000,0.0000,0.0602,0.0000,1.0000,0.5000,1.0000,0.0000
12.585,Upwind,89.832,0.002,89.060,0.002,3.711,3.711,46.188,0.007,0.000,0.429,0.000,-0.0001,0.0599,0.0000,1.0000,0.5000,1.0000,0.0000
12.791,Upwind,94.659,0.002,93.887,0.002,3.712,3.712,47.432,0.008,0.000,0.427,0.000,-0.0001,0.0596,0.0000,1.0000,0.5000,1.0000,0.0000
12.996,Upwind,99.614,0.002,98.842,0.002,3.714,3.714,48.778,0.008,0.000,0.425,0.000,-0.0001,0.0593,0.0000,1.0000,0.5000,1.0000,0.0000
13.190,Upwind,104.697,0.002,103.925,0.002,3.715,3.715,49.915,0.009,0.000,0.423,0.000,-0.0001,0.0590,0.0000,1.0000,0.5000,1.0000,0.0000
13.387,Upwind,109.907,0.002,109.135,0.002,3.717,3.717,51.152,0.009,0.001,0.421,0.000,-0.0001,0.0587,0.0000,1.0000,0.5000,1.0000,0.0000
13.589,Upwind,115.245,0.002,114.473,0.002,3.719,3.719,52.388,0.009,0.001,0.419,0.000,-0.0001,0.0584,0.0000,1.0000,0.5000,1.0000,0.0000
13.794,Upwind,120.709,0.003,119.937,0.003,3.721,3.721,53.724,0.010,0.001,0.416,0.000,-0.0001,0.0580,0.0000,1.0000,0.5000,1.0000,0.0000
13.992,Upwind,126.300,0.003,125.529,0.003,3.723,3.723,54.853,0.010,0.001,0.414,0.000,-0.0001,0.0577,0.0000,1.0000,0.5000,1.0000,0.0000
14.186,Upwind,132.018,0.003,131.246,0.003,3.725,3.725,56.081,0.009,0.001,0.411,0.000,-0.0001,0.0573,0.0000,1.0000,0.5000,1.0000,0.0000
14.396,Upwind,137.862,0.003,137.090,0.003,3.726,3.726,57.410,0.008,0.001,0.409,0.000,-0.0001,0.0570,0.0000,1.0000,0.5000,1.0000,0.0000
14.588,Upwind,143.832,0.004,143.061,0.004,3.728,3.728,58.533,0.008,0.001,0.407,0.000,-0.0001,0.0568,0.0000,1.0000,0.5000,1.0000,0.0000
14.795,Upwind,149.929,0.004,149.157,0.004,3.729,3.729,59.756,0.008,0.001,0.405,0.000,-0.0001,0.0565,0.0000,1.0000,0.5000,1.0000,0.0000
14.998,Upwind,156.674,0.004,155.903,0.004,3.731,3.731,61.078,0.008,0.001,0.403,0.000,-0.0001,0.0562,0.0000,1.0000,0.5000,1.0000,0.0000
15.192,Upwind,162.498,0.005,161.726,0.005,3.733,3.733,62.195,0.008,0.001,0.401,0.000,-0.0001,0.0559,0.0000,1.0000,0.5000,1.0000,0.0000
15.389,Upwind,168.970,0.005,168.198,0.005,3.734,3.734,63.411,0.009,0.001,0.398,0.000,-0.0002,0.0556,0.0000,1.0000,0.5000,1.0000,0.0000
15.595,Upwind,175.567,0.005,174.796,0.005,3.736,3.736,64.727,0.009,0.001,0.396,0.000,-0.0002,0.0552,0.0000,1.0000,0.5000,1.0000,0.0000
15.797,Upwind,182.290,0.006,181.518,0.006,3.738,3.738,65.837,0.009,0.001,0.394,0.000,-0.0002,0.0549,0.0000,1.0000,0.5000,1.0000,0.0000
15.994,Upwind,189.137,0.006,188.365,0.006,3.740,3.740,67.148,0.009,0.002,0.392,0.000,-0.0002,0.0546,0.0000,1.0000,0.5000,1.0000,0.0000
16.190,Upwind,196.108,0.006,195.336,0.006,3.741,3.741,68.255,0.009,0.002,0.389,0.000,-0.0002,0.0543,0.0000,1.0000,0.5000,1.0000,0.0000
16.396,Upwind,203.203,0.007,202.431,0.007,3.743,3.743,69.561,0.009,0.002,0.387,0.000,-0.0002,0.0539,0.0000,1.0000,0.5000,1.0000,0.0000
16.591,Upwind,210.422,0.007,209.651,0.007,3.745,3.745,70.663,0.009,0.002,0.385,0.000,-0.0002,0.0536,0.0000,1.0000,0.5000,1.0000,0.0000
16.793,Upwind,217.765,0.008,216.993,0.008,3.747,3.747,71.864,0.010,0.002,0.382,0.000,-0.0003,0.0533,0.0000,1.0000,0.5000,1.0000,0.0000
16.990,Upwind,225.232,0.009,224.460,0.009,3.749,3.749,73.063,0.010,0.002,0.380,0.000,-0.0003,0.0529,0.0000,1.0000,0.5000,1.0000,0.0000
17.187,Upwind,232.821,0.009,232.049,0.009,3.751,3.751,74.259,0.010,0.002,0.377,0.000,-0.0003,0.0526,0.0000,1.0000,0.5000,1.0000,0.0000
17.386,Upwind,240.534,0.010,239.762,0.010,3.753,3.753,75.453,0.010,0.003,0.375,0.000,-0.0003,0.0522,0.0000,1.0000,0.5000,1.0000,0.0000
17.598,Upwind,248.369,0.010,247.597,0.010,3.755,3.755,76.743,0.010,0.003,0.372,0.000,-0.0003,0.0518,0.0000,1.0000,0.5000,1.0000,0.0000
17.790,Upwind,256.326,0.011,255.554,0.011,3.757,3.757,77.833,0.010,0.003,0.370,0.000,-0.0003,0.0515,0.0000,1.0000,0.5000,1.0000,0.0000
17.990,Upwind,264.406,0.012,263.634,0.012,3.759,3.759,79.020,0.010,0.003,0.367,0.000,-0.0004,0.0511,0.0000,1.0000,0.5000,1.0000,0.0000
18.194,Upwind,272.608,0.013,271.836,0.013,3.761,3.761,80.302,0.010,0.003,0.364,0.000,-0.0004,0.0507,0.0000,1.0000,0.5000,1.0000,0.0000
18.393,Upwind,280.931,0.013,280.159,0.013,3.763,3.763,81.484,0.011,0.003,0.361,0.000,-0.0004,0.0503,0.0000,1.0000,0.5000,1.0000,0.0000
18.585,Upwind,289.376,0.014,288.604,0.014,3.765,3.765,82.565,0.011,0.004,0.359,0.000,-0.0004,0.0500,0.0000,1.0000,0.5000,1.0000,0.0000
18.795,Upwind,297.942,0.015,297.170,0.015,3.767,3.767,83.742,0.011,0.004,0.356,0.000,-0.0005,0.0496,0.0000,1.0000,0.5000,1.0000,0.0000
18.990,Upwind,306.629,0.016,305.857,0.016,3.769,3.769,84.916,0.011,0.004,0.353,0.000,-0.0005,0.0492,0.0000,1.0000,0.5000,1.0000,0.0000
19.196,Upwind,315.437,0.017,314.665,0.017,3.772,3.772,86.185,0.011,0.004,0.350,0.000,-0.0005,0.0488,0.0000,1.0000,0.5000,1.0000,0.0000
19.393,Upwind,324.365,0.018,323.593,0.018,3.774,3.774,87.354,0.011,0.004,0.348,0.000,-0.0005,0.0484,0.0000,1.0000,0.5000,1.0000,0.0000
19.589,Upwind,333.413,0.019,332.641,0.019,3.776,3.776,88.424,0.011,0.005,0.345,0.000,-0.0006,0.0480,0.0000,1.0000,0.5000,1.0000,0.0000
19.795,Upwind,342.581,0.020,341.809,0.020,3.778,3.778,89.685,0.011,0.005,0.342,0.000,-0.0006,0.0476,0.0000,1.0000,0.5000,1.0000,0.0000
19.994,Upwind,351.869,0.022,351.097,0.022,3.781,3.781,90.846,0.012,0.005,0.339,0.000,-0.0006,0.0472,0.0000,1.0000,0.5000,1.0000,0.0000
20.187,Upwind,361.276,0.023,360.504,0.023,3.783,3.783,91.908,0.012,0.005,0.336,0.000,-0.0007,0.0468,0.0000,1.0000,0.5000,1.0000,0.0000
20.391,Upwind,370.802,0.024,370.030,0.024,3.785,3.785,93.064,0.012,0.006,0.333,0.000,-0.0007,0.0464,0.0000,1.0000,0.5000,1.0000,0.0000
20.594,Upwind,380.447,0.026,379.675,0.026,3.788,3.788,94.314,0.012,0.006,0.330,0.000,-0.0007,0.0459,0.0000,1.0000,0.5000,1.0000,0.0000
20.803,Upwind,391.030,0.027,390.258,0.027,3.790,3.790,95.464,0.012,0.006,0.327,0.000,-0.0008,0.0455,0.0000,1.0000,0.5000,1.0000,0.0000
20.988,Upwind,400.092,0.029,399.320,0.029,3.792,3.792,96.517,0.012,0.007,0.324,0.000,-0.0008,0.0451,0.0000,1.0000,0.5000,1.0000,0.0000
21.189,Upwind,410.092,0.030,409.320,0.030,3.795,3.795,97.662,0.012,0.007,0.321,0.000,-0.0008,0.0447,0.0000,1.0000,0.5000,1.0000,0.0000
21.390,Upwind,420.210,0.032,419.438,0.032,3.797,3.797,98.805,0.012,0.007,0.318,0.000,-0.0009,0.0442,0.0000,1.0000,0.5000,1.0000,0.0000
21.595,Upwind,430.445,0.034,429.673,0.034,3.800,3.800,100.040,0.012,0.008,0.315,0.000,-0.0009,0.0438,0.0000,1.0000,0.5000,1.0000,0.0000
21.789,Upwind,440.797,0.035,440.025,0.035,3.802,3.802,101.083,0.013,0.008,0.312,0.000,-0.0009,0.0433,0.0000,1.0000,0.5000,1.0000,0.0000
21.989,Upwind,451.266,0.037,450.494,0.037,3.804,3.804,102.217,0.013,0.008,0.309,0.000,-0.0010,0.0429,0.0000,1.0000,0.5000,1.0000,0.0000
22.191,Upwind,461.851,0.039,461.079,0.039,3.807,3.807,103.349,0.013,0.009,0.305,0.000,-0.0010,0.0425,0.0000,1.0000,0.5000,1.0000,0.0000
22.387,Upwind,472.553,0.042,471.781,0.042,3.809,3.809,104.478,0.013,0.009,0.302,0.000,-0.0011,0.0420,0.0000,1.0000,0.5000,1.0000,0.0000
22.593,Upwind,483.370,0.044,482.599,0.044,3.812,3.812,105.698,0.013,0.009,0.299,0.000,-0.0011,0.0415,0.0000,1.0000,0.5000,1.0000,0.0000
22.795,Upwind,494.304,0.046,493.532,0.046,3.815,3.815,106.821,0.013,0.010,0.296,0.000,-0.0012,0.0411,0.0000,1.0000,0.5000,1.0000,0.0000
22.995,Upwind,505.353,0.048,504.581,0.048,3.817,3.817,107.941,0.013,0.010,0.292,0.000,-0.0012,0.0406,0.0000,1.0000,0.5000,1.0000,0.0000
23.189,Upwind,516.517,0.051,515.745,0.051,3.820,3.820,108.966,0.013,0.010,0.289,0.000,-0.0013,0.0402,0.0000,1.0000,0.5000,1.0000,0.0000
23.395,Upwind,527.796,0.053,527.024,0.053,3.823,3.823,110.173,0.013,0.011,0.286,0.000,-0.0013,0.0397,0.0000,1.0000,0.5000,1.0000,0.0000
23.596,Upwind,539.189,0.056,538.417,0.056,3.825,3.825,111.285,0.013,0.011,0.282,0.000,-0.0014,0.0392,0.0000,1.0000,0.5000,1.0000,0.0000
23.788,Upwind,550.697,0.059,549.925,0.059,3.828,3.828,112.301,0.013,0.012,0.279,-0.001,-0.0014,0.0388,0.0000,1.0000,0.5000,1.0000,0.0000
23.991,Upwind,562.318,0.062,561.546,0.062,3.830,3.830,113.408,0.014,0.012,0.276,-0.001,-0.0015,0.0383,0.0000,1.0000,0.5000,1.0000,0.0000
24.193,Upwind,574.053,0.065,573.281,0.065,3.833,3.833,114.603,0.014,0.013,0.272,-0.001,-0.0015,0.0378,0.0000,1.0000,0.5000,1.0000,0.0000
24.389,Upwind,585.902,0.068,585.130,0.068,3.836,3.836,115.611,0.014,0.013,0.269,-0.001,-0.0016,0.0373,0.0000,1.0000,0.5000,1.0000,0.0000
24.595,Upwind,597.863,0.071,597.091,0.071,3.839,3.839,116.800,0.014,0.013,0.265,-0.001,-0.0017,0.0368,0.0000,1.0000,0.5000,1.0000,0.0000
24.791,Upwind,609.938,0.075,609.166,0.075,3.841,3.841,117.803,0.014,0.014,0.262,-0.001,-0.0017,0.0364,0.0000,1.0000,0.5000,1.0000,0.0000
24.989,Upwind,622.124,0.078,621.352,0.078,3.844,3.844,118.894,0.014,0.014,0.259,-0.001,-0.0018,0.0359,0.0000,1.0000,0.5000,1.0000,0.0000
25.186,Upwind,634.423,0.082,633.651,0.082,3.847,3.847,119.983,0.014,0.015,0.255,-0.001,-0.0018,0.0354,0.0000,1.0000,0.5000,1.0000,0.0000
25.396,Upwind,646.834,0.086,646.062,0.086,3.850,3.850,121.158,0.014,0.015,0.251,-0.001,-0.0019,0.0349,0.0000,1.0000,0.5000,1.0000,0.0000
25.594,Upwind,659.356,0.090,658.584,0.090,3.853,3.853,122.240,0.014,0.016,0.248,-0.001,-0.0020,0.0344,0.0000,1.0000,0.5000,1.0000,0.0000
25.785,Upwind,671.989,0.094,671.217,0.094,3.855,3.855,123.230,0.014,0.016,0.245,-0.001,-0.0020,0.0339,0.0000,1.0000,0.5000,1.0000,0.0000
25.993,Upwind,684.734,0.098,683.962,0.098,3.858,3.858,124.306,0.014,0.017,0.241,-0.001,-0.0021,0.0334,0.0000,1.0000,0.5000,1.0000,0.0000
26.185,Upwind,697.588,0.103,696.817,0.103,3.861,3.861,125.379,0.014,0.017,0.238,-0.001,-0.0022,0.0329,0.0000,1.0000,0.5000,1.0000,0.0000
26.388,Upwind,710.553,0.107,709.781,0.107,3.864,3.864,126.450,0.014,0.018,0.234,-0.001,-0.0022,0.0324,0.0000,1.0000,0.5000,1.0000,0.0000
26.593,Upwind,723.628,0.112,722.856,0.112,3.867,3.867,127.517,0.014,0.018,0.230,-0.001,-0.0023,0.0319,0.0000,1.0000,0.5000,1.0000,0.0000
26.795,Upwind,736.813,0.117,736.041,0.117,3.870,3.870,128.670,0.015,0.019,0.227,-0.001,-0.0024,0.0314,0.0000,1.0000,0.5000,1.0000,0.0000
26.990,Upwind,750.107,0.122,749.335,0.122,3.872,3.872,129.642,0.015,0.019,0.223,-0.002,-0.0024,0.0309,0.0000,1.0000,0.5000,1.0000,0.0000
27.192,Upwind,763.510,0.127,762.738,0.127,3.875,3.875,130.700,0.015,0.020,0.220,-0.002,-0.0025,0.0304,0.0000,1.0000,0.5000,1.0000,0.0000
27.391,Upwind,777.022,0.132,776.250,0.132,3.878,3.878,131.755,0.015,0.020,0.216,-0.002,-0.0026,0.0299,0.0000,1.0000,0.5000,1.0000,0.0000
27.588,Upwind,790.642,0.138,789.870,0.138,3.881,3.881,132.807,0.015,0.021,0.212,-0.002,-0.0027,0.0294,0.0000,1.0000,0.5000,1.0000,0.0000
27.789,Upwind,804.369,0.143,803.597,0.143,3.884,3.884,133.856,0.015,0.021,0.209,-0.002,-0.0027,0.0289,0.0000,1.0000,0.5000,1.0000,0.0000
27.988,Upwind,818.205,0.149,817.433,0.149,3.887,3.887,134.903,0.015,0.022,0.205,-0.002,-0.0028,0.0283,0.0000,1.0000,0.5000,1.0000,0.0000
28.196,Upwind,832.149,0.155,831.377,0.155,3.890,3.890,136.034,0.015,0.023,0.201,-0.002,-0.0029,0.0278,0.0000,1.0000,0.5000,1.0000,0.0000
28.388,Upwind,846.199,0.161,845.427,0.161,3.893,3.893,136.988,0.015,0.023,0.198,-0.002,-0.0030,0.0273,0.0000,1.0000,0.5000,1.0000,0.0000
28.595,Upwind,860.357,0.168,859.585,0.168,3.896,3.896,138.113,0.015,0.024,0.194,-0.002,-0.0031,0.0267,0.0000,1.0000,0.5000,1.0000,0.0000
28.787,Upwind,874.621,0.174,873.849,0.174,3.899,3.899,139.063,0.015,0.024,0.190,-0.002,-0.0031,0.0263,0.0000,1.0000,0.5000,1.0000,0.0000
28.990,Upwind,888.992,0.181,888.220,0.181,3.902,3.902,140.096,0.015,0.025,0.187,-0.002,-0.0032,0.0257,0.0000,1.0000,0.5000,1.0000,0.0000
29.211,Upwind,904.680,0.189,903.908,0.189,3.904,3.904,140.869,0.015,0.025,0.184,-0.003,-0.0033,0.0253,0.0000,1.0000,0.5000,1.0000,0.0000
29.393,Upwind,918.052,0.195,917.280,0.195,3.908,3.908,142.240,0.015,0.026,0.179,-0.003,-0.0034,0.0246,0.0000,1.0000,0.5000,1.0000,0.0000
29.590,Upwind,932.740,0.203,931.968,0.203,3.911,3.911,143.180,0.015,0.026,0.175,-0.003,-0.0035,0.0242,0.0000,1.0000,0.5000,1.0000,0.0000
29.788,Upwind,947.534,0.210,946.762,0.210,3.914,3.914,144.202,0.015,0.027,0.171,-0.003,-0.0036,0.0236,0.0000,1.0000,0.5000,1.0000,0.0000
29.986,Upwind,962.433,0.218,961.661,0.218,3.917,3.917,145.222,0.015,0.028,0.168,-0.003,-0.0037,0.0231,0.0000,1.0000,0.5000,1.0000,0.0000
30.186,Upwind,977.436,0.226,976.664,0.226,3.920,3.920,146.239,0.016,0.028,0.164,-0.003,-0.0038,0.0226,0.0000,1.0000,0.5000,1.0000,0.0000
30.396,Upwind,992.544,0.234,991.772,0.234,3.924,3.924,147.337,0.016,0.029,0.160,-0.003,-0.0039,0.0220,0.0000,1.0000,0.5000,1.0000,0.0000
30.592,Upwind,1007.756,0.243,1006.984,0.243,3.927,3.927,148.265,0.016,0.029,0.156,-0.003,-0.0040,0.0215,0.0000,1.0000,0.5000,1.0000,0.0000
30.793,Upwind,1023.072,0.252,1022.300,0.252,3.930,3.930,149.357,0.016,0.030,0.152,-0.004,-0.0041,0.0209,0.0000,1.0000,0.5000,1.0000,0.0000
30.993,Upwind,1038.492,0.260,1037.720,0.260,3.933,3.933,150.363,0.015,0.031,0.148,-0.004,-0.0042,-0.0131,0.0000,1.0000,0.5000,1.0000,0.0000
31.190,Upwind,1054.015,0.269,1053.243,0.269,3.935,3.935,151.282,0.005,0.031,0.152,-0.004,-0.0042,-0.1019,0.0000,1.0000,0.5000,1.0000,0.0000
31.396,Upwind,1069.641,0.279,1068.869,0.279,3.935,3.935,152.359,-0.007,0.032,0.170,-0.004,-0.0043,-0.1945,0.0000,1.0000,0.5000,1.0000,0.0000
31.593,Upwind,1085.368,0.288,1084.596,0.288,3.933,3.933,153.262,-0.007,0.033,0.188,-0.004,-0.0044,-0.2832,0.0000,1.0000,0.5000,1.0000,0.0000
31.788,Upwind,1101.197,0.298,1100.425,0.298,3.932,3.932,154.240,-0.003,0.033,0.205,-0.004,-0.0046,-0.3707,0.0000,1.0000,0.5000,1.0000,0.0000
31.997,Upwind,1117.126,0.308,1116.354,0.308,3.932,3.932,155.290,0.006,0.034,0.224,-0.005,-0.0047,-0.4649,0.0000,1.0000,0.5000,1.0000,0.0000
32.195,Upwind,1133.153,0.318,1132.381,0.318,3.936,3.936,156.250,0.032,0.035,0.276,-0.005,-0.0048,-0.5539,0.0000,1.0000,0.5000,1.0000,0.0000
32.393,Upwind,1149.280,0.329,1148.508,0.329,3.946,3.946,157.201,0.072,0.035,0.410,-0.005,-0.0049,-0.6433,0.0000,1.0000,0.5000,1.0000,0.0000
32.597,Upwind,1165.503,0.340,1164.731,0.340,3.966,3.966,158.142,0.133,0.036,0.666,-0.005,-0.0050,-0.6500,0.0000,1.0000,0.5000,1.0000,0.0000
32.793,Upwind,1181.823,0.351,1181.051,0.351,3.999,3.999,159.077,0.196,0.037,1.046,-0.005,-0.0052,-0.6500,0.0000,1.0000,0.5000,1.0000,0.0000
32.987,Upwind,1198.239,0.362,1197.467,0.362,4.040,4.040,159.927,0.245,0.038,1.495,-0.005,-0.0053,-0.6500,0.0000,1.0000,0.5000,1.0000,0.0000
33.192,Upwind,1214.750,0.373,1213.978,0.373,4.093,4.094,160.845,0.293,0.038,2.088,-0.006,-0.0054,-0.6500,0.0000,1.0000,0.5000,1.0000,0.0000
33.387,Upwind,1231.354,0.385,1230.582,0.385,4.156,4.156,161.752,0.335,0.039,2.777,-0.006,-0.0055,-0.6500,0.0000,1.0000,0.5000,1.0000,0.0000
33.593,Upwind,1248.052,0.397,1247.280,0.397,4.233,4.233,162.720,0.374,0.040,3.622,-0.006,-0.0056,-0.6500,0.0000,1.0000,0.5000,1.0000,0.0000
33.798,Upwind,1264.839,0.410,1264.068,0.410,4.329,4.329,163.593,0.671,0.041,4.476,-0.009,-0.0053,-0.6500,0.0000,1.0000,0.5000,1.0000,0.0000
33.994,Upwind,1281.716,0.422,1280.944,0.422,4.512,4.512,164.367,1.395,0.041,5.291,-0.017,-0.0048,-0.6500,0.0000,1.0000,0.5000,1.0000,0.0000
34.186,Upwind,1298.677,0.435,1297.905,0.435,4.907,4.907,165.176,2.632,0.042,6.183,-0.029,-0.0043,-0.6500,0.0000,1.0000,0.5000,1.0000,0.0000
34.394,Upwind,1315.718,0.448,1314.946,0.448,5.664,5.664,166.006,4.422,0.042,7.124,-0.044,-0.0037,-0.6500,0.0000,1.0000,0.5000,1.0000,0.0000
34.587,Upwind,1332.834,0.461,1332.062,0.461,6.637,6.637,166.666,6.229,0.042,7.882,-0.058,-0.0031,-0.6500,0.0000,1.0000,0.5000,1.0000,0.0000
34.793,Upwind,1350.018,0.474,1349.246,0.474,8.098,8.098,167.339,8.420,0.041,8.658,-0.073,-0.0026,-0.6500,0.0000,1.0000,0.5000,1.0000,0.0000
34.990,Upwind,1367.265,0.486,1366.493,0.486,10.014,10.014,167.961,10.759,0.040,9.379,-0.088,-0.0020,-0.6500,0.0000,1.0000,0.5000,1.0000,0.0000
35.195,Upwind,1384.568,0.498,1383.796,0.498,12.410,12.410,168.532,13.213,0.039,10.046,-0.101,-0.0015,-0.6500,0.0000,1.0000,0.5000,1.0000,0.0000
35.389,Upwind,1401.921,0.509,1401.149,0.509,15.304,15.304,169.051,15.738,0.036,10.661,-0.112,-0.0010,-0.6500,0.0000,1.0000,0.5000,1.0000,0.0000
35.590,Upwind,1419.316,0.520,1418.544,0.520,18.707,18.707,169.523,18.297,0.033,11.231,-0.121,-0.0005,-0.6242,0.0000,1.0000,0.5000,1.0000,0.0000
35.796,Upwind,1436.747,0.530,1435.975,0.530,22.972,22.972,169.983,21.067,0.029,11.792,-0.128,0.0000,-0.5933,0.0001,1.0000,0.5000,1.0000,0.0000
35.987,Upwind,1454.210,0.540,1453.438,0.540,27.047,27.047,170.334,23.376,0.025,12.214,-0.132,0.0003,-0.5647,0.0001,1.0000,0.5000,1.0000,0.0000
36.191,Upwind,1471.699,0.548,1470.927,0.548,31.970,31.970,170.680,25.840,0.021,12.613,-0.135,0.0007,-0.5341,0.0001,1.0000,0.5000,1.0000,0.0000
36.390,Upwind,1489.209,0.556,1488.438,0.556,37.377,37.377,170.992,28.218,0.016,12.946,-0.135,0.0010,-0.5043,0.0001,1.0000,0.5000,1.0000,0.0000
36.591,Upwind,1506.738,0.562,1505.966,0.562,43.251,43.251,171.273,30.505,0.012,13.212,-0.134,0.0013,-0.4741,0.0001,1.0000,0.5000,1.0000,0.0000
36.789,Upwind,1524.281,0.568,1523.509,0.568,49.571,49.571,171.528,32.678,0.007,13.413,-0.131,0.0015,-0.4444,0.0001,1.0000,0.5000,1.0000,0.0000
36.996,Upwind,1541.837,0.573,1541.065,0.573,56.893,56.893,171.779,34.881,0.002,13.559,-0.126,0.0017,-0.4133,0.0001,1.0000,0.5000,1.0000,0.0000
37.194,Upwind,1559.402,0.577,1558.630,0.577,64.059,64.059,171.991,36.756,359.999,13.631,-0.121,0.0018,-0.3836,0.0001,1.0000,0.5000,1.0000,0.0000
37.392,Upwind,1576.977,0.581,1576.205,0.581,70.945,70.945,172.174,38.338,359.996,13.647,-0.115,0.0018,-0.3539,0.0001,1.0000,0.5000,1.0000,0.0000
37.586,Upwind,1594.561,0.583,1593.789,0.583,78.772,78.772,172.363,39.902,359.993,13.613,-0.109,0.0018,-0.3249,0.0001,1.0000,0.5000,1.0000,0.0000
37.785,Upwind,1612.154,0.585,1611.382,0.585,86.893,86.894,172.548,41.286,359.991,13.529,-0.102,0.0018,-0.2950,0.0000,1.0000,0.5000,1.0000,0.0000
37.997,Upwind,1629.757,0.586,1628.985,0.586,95.983,95.984,172.744,42.584,359.989,13.385,-0.094,0.0016,-0.2633,0.0000,1.0000,0.5000,1.0000,0.0000
38.188,Upwind,1647.370,0.587,1646.599,0.587,103.877,103.878,172.909,43.509,359.988,13.222,-0.088,0.0015,-0.2345,0.0000,0.9995,0.5000,1.0000,0.0000
38.396,Upwind,1664.997,0.587,1664.225,0.587,113.405,113.406,173.102,44.402,359.988,12.985,-0.081,0.0012,-0.2462,0.0000,0.9968,0.5000,1.0000,0.0000
38.595,Upwind,1682.638,0.587,1681.866,0.587,122.349,122.350,173.274,45.007,359.988,12.746,-0.075,0.0010,-0.2980,0.0000,0.9944,0.5000,1.0000,0.0000
38.796,Upwind,1700.293,0.586,1699.521,0.586,131.395,131.396,173.441,45.422,359.989,12.538,-0.069,0.0008,-0.3389,0.0000,0.9920,0.5000,1.0000,0.0000
38.985,Upwind,1717.965,0.586,1717.193,0.586,139.748,139.748,173.589,45.680,359.989,12.404,-0.064,0.0006,-0.3609,0.0000,0.9899,0.5000,1.0000,0.0000
39.186,Upwind,1735.654,0.584,1734.882,0.584,148.905,148.905,173.746,45.883,359.990,12.336,-0.060,0.0004,-0.3680,0.0000,0.9877,0.5000,1.0000,0.0000
39.389,Upwind,1753.359,0.583,1752.587,0.583,158.099,158.100,173.896,46.063,359.991,12.347,-0.056,0.0002,-0.3587,0.0000,0.9856,0.5000,1.0000,0.0000
39.595,Upwind,1771.081,0.582,1770.309,0.582,168.103,168.104,174.050,46.287,359.991,12.429,-0.052,0.0000,-0.3363,0.0000,0.9834,0.5000,1.0000,0.0000
39.793,Upwind,1788.816,0.580,1788.044,0.580,176.610,176.610,174.172,46.524,359.992,12.534,-0.050,-0.0001,-0.3106,0.0000,0.9817,0.5000,1.0000,0.0000
39.988,Upwind,1806.565,0.578,1805.793,0.578,185.945,185.946,174.297,46.842,359.992,12.660,-0.048,-0.0002,-0.2831,0.0000,0.9800,0.5000,1.0000,0.0000
40.188,Upwind,1824.325,0.576,1823.553,0.576,195.350,195.351,174.411,47.214,359.993,12.775,-0.047,-0.0002,-0.2600,0.0000,0.9784,0.5000,1.0000,0.0000
40.390,Upwind,1842.095,0.574,1841.323,0.574,204.833,204.834,174.516,47.621,359.993,12.862,-0.046,-0.0002,-0.2440,0.0000,0.9769,0.5000,1.0000,0.0000
40.589,Upwind,1859.873,0.572,1859.101,0.572,214.399,214.400,174.612,48.038,359.993,12.913,-0.045,-0.0003,-0.2362,0.0000,0.9755,0.5000,1.0000,0.0000
40.793,Upwind,1877.660,0.570,1876.888,0.570,224.047,224.048,174.701,48.438,359.993,12.929,-0.044,-0.0002,-0.2358,0.0000,0.9743,0.5000,1.0000,0.0000
40.987,Upwind,1895.455,0.568,1894.683,0.568,233.772,233.773,174.784,48.804,359.993,12.917,-0.044,-0.0002,-0.2408,0.0000,0.9731,0.5000,1.0000,0.0000
41.196,Upwind,1913.256,0.566,1912.484,0.566,244.385,244.386,174.868,49.148,359.992,12.882,-0.044,-0.0002,-0.2494,0.0000,0.9720,0.5000,1.0000,0.0000
41.393,Upwind,1931.066,0.563,1930.294,0.563,254.242,254.243,174.941,49.414,359.992,12.844,-0.044,-0.0001,-0.2578,0.0000,0.9709,0.5000,1.0000,0.0000
41.593,Upwind,1948.883,0.561,1948.111,0.561,263.320,263.321,175.004,49.619,359.991,12.813,-0.044,-0.0001,-0.2640,0.0000,0.9701,0.5000,1.0000,0.0000
41.793,Upwind,1966.707,0.558,1965.935,0.558,273.263,273.264,175.070,49.808,359.991,12.789,-0.044,0.0000,-0.2680,0.0000,0.9691,0.5000,1.0000,0.0000
41.989,Upwind,1984.539,0.556,1983.767,0.556,283.241,283.243,175.132,49.972,359.990,12.779,-0.044,0.0000,-0.2687,0.0000,0.9683,0.5000,1.0000,0.0000
42.196,Upwind,2002.378,0.553,2001.606,0.553,294.087,294.088,175.195,50.136,359.990,12.785,-0.043,0.0001,-0.2661,0.0000,0.9674,0.5000,1.0000,0.0000
42.393,Upwind,2020.225,0.550,2019.453,0.550,304.129,304.130,175.250,50.285,359.989,12.802,-0.043,0.0001,-0.2614,0.0000,0.9666,0.5000,1.0000,0.0000
42.592,Upwind,2038.078,0.547,2037.306,0.547,313.360,313.362,175.297,50.424,359.989,12.824,-0.043,0.0002,-0.2561,0.0000,0.9660,0.5000,1.0000,0.0000
42.792,Upwind,2055.937,0.545,2055.165,0.545,323.461,323.462,175.345,50.581,359.988,12.851,-0.042,0.0002,-0.2503,0.0000,0.9653,0.5000,1.0000,0.0000
42.986,Upwind,2073.802,0.542,2073.030,0.542,333.593,333.595,175.390,50.742,359.988,12.876,-0.042,0.0002,-0.2452,0.0000,0.9647,0.5000,1.0000,0.0000
43.191,Upwind,2091.672,0.539,2090.900,0.539,343.758,343.759,175.430,50.905,359.988,12.895,-0.041,0.0002,-0.2415,0.0000,0.9641,0.5000,1.0000,0.0000
43.394,Upwind,2109.547,0.535,2108.775,0.535,354.806,354.808,175.471,51.078,359.987,12.909,-0.040,0.0002,-0.2391,0.0000,0.9635,0.5000,1.0000,0.0000
43.585,Upwind,2127.428,0.532,2126.656,0.532,364.183,364.185,175.503,51.218,359.987,12.915,-0.039,0.0002,-0.2384,0.0000,0.9631,0.5000,1.0000,0.0000
43.790,Upwind,2145.313,0.529,2144.541,0.529,374.441,374.443,175.535,51.360,359.987,12.916,-0.038,0.0002,-0.2387,0.0000,0.9626,0.5000,1.0000,0.0000
43.998,Upwind,2164.693,0.526,2163.921,0.525,385.584,385.586,175.567,51.500,359.987,12.913,-0.037,0.0002,-0.2396,0.0000,0.9622,0.5000,1.0000,0.0000
44.192,Upwind,2181.096,0.522,2180.324,0.522,395.896,395.898,175.595,51.615,359.987,12.908,-0.036,0.0002,-0.2406,0.0000,0.9618,0.5000,1.0000,0.0000
44.389,Upwind,2198.994,0.519,2198.222,0.519,405.368,405.370,175.618,51.710,359.987,12.904,-0.035,0.0002,-0.2413,0.0000,0.9614,0.5000,1.0000,0.0000
44.587,Upwind,2216.897,0.516,2216.125,0.516,415.719,415.721,175.642,51.804,359.987,12.902,-0.035,0.0002,-0.2417,0.0000,0.9611,0.5000,1.0000,0.0000
44.786,Upwind,2234.803,0.512,2234.031,0.512,426.089,426.091,175.664,51.890,359.987,12.902,-0.034,0.0001,-0.2414,0.0000,0.9608,0.5000,1.0000,0.0000
44.991,Upwind,2252.714,0.509,2251.942,0.509,436.475,436.477,175.685,51.971,359.987,12.904,-0.033,0.0001,-0.2407,0.0000,0.9605,0.5000,1.0000,0.0000
45.197,Upwind,2270.629,0.505,2269.857,0.505,447.744,447.746,175.705,52.054,359.987,12.909,-0.032,0.0001,-0.2394,0.0000,0.9602,0.5000,1.0000,0.0000
45.392,Upwind,2288.548,0.502,2287.776,0.502,457.294,457.296,175.721,52.121,359.987,12.915,-0.031,0.0001,-0.2381,0.0000,0.9600,0.5000,1.0000,0.0000
45.591,Upwind,2306.470,0.499,2305.698,0.499,467.725,467.727,175.737,52.194,359.987,12.921,-0.031,0.0001,-0.2367,0.0000,0.9598,0.5000,1.0000,0.0000
45.790,Upwind,2324.396,0.495,2323.624,0.495,478.171,478.173,175.752,52.265,359.987,12.927,-0.030,0.0001,-0.2355,0.0000,0.9596,0.5000,1.0000,0.0000
45.995,Upwind,2342.326,0.492,2341.554,0.492,489.503,489.505,175.766,52.339,359.988,12.933,-0.029,0.0000,-0.2344,0.0000,0.9593,0.5000,1.0000,0.0000
46.193,Upwind,2360.259,0.488,2359.487,0.488,499.104,499.106,175.777,52.399,359.988,12.936,-0.029,0.0000,-0.2338,0.0000,0.9592,0.5000,1.0000,0.0000
46.388,Upwind,2378.195,0.485,2377.423,0.485,509.590,509.593,175.788,52.462,359.988,12.938,-0.028,0.0000,-0.2334,0.0000,0.9590,0.5000,1.0000,0.0000
46.593,Upwind,2396.134,0.482,2395.362,0.482,520.964,520.966,175.798,52.526,359.988,12.940,-0.028,0.0000,-0.2332,0.0000,0.9589,0.5000,1.0000,0.0000
46.791,Upwind,2414.077,0.478,2413.305,0.478,530.598,530.601,175.806,52.576,359.988,12.940,-0.028,0.0000,-0.2331,0.0000,0.9588,0.5000,1.0000,0.0000
46.995,Upwind,2432.022,0.475,2431.250,0.475,541.118,541.121,175.814,52.626,359.988,12.940,-0.028,0.0000,-0.2331,0.0000,0.9587,0.5000,1.0000,0.0000
47.191,Upwind,2449.971,0.472,2449.199,0.472,551.648,551.651,175.821,52.673,359.988,12.941,-0.028,0.0000,-0.2331,0.0000,0.9586,0.5000,1.0000,0.0000
47.388,Upwind,2467.923,0.468,2467.151,0.468,562.187,562.190,175.827,52.716,359.988,12.941,-0.027,0.0000,-0.2330,0.0000,0.9585,0.5000,1.0000,0.0000
47.593,Upwind,2485.877,0.465,2485.105,0.465,573.614,573.617,175.833,52.759,359.988,12.942,-0.027,0.0000,-0.2328,0.0000,0.9584,0.5000,1.0000,0.0000
47.793,Upwind,2503.835,0.462,2503.063,0.462,583.290,583.292,175.837,52.794,359.988,12.943,-0.027,0.0001,-0.2325,0.0000,0.9584,0.5000,1.0000,0.0000
47.986,Upwind,2521.795,0.459,2521.023,0.459,593.852,593.855,175.841,52.830,359.988,12.944,-0.027,0.0001,-0.2321,0.0000,0.9583,0.5000,1.0000,0.0000
48.193,Upwind,2539.758,0.455,2538.986,0.455,605.302,605.305,175.844,52.867,359.988,12.946,-0.027,0.0000,-0.2317,0.0000,0.9583,0.5000,1.0000,0.0000
48.397,Upwind,2557.724,0.452,2556.952,0.452,615.879,615.882,175.847,52.899,359.989,12.948,-0.027,0.0000,-0.2313,0.0000,0.9582,0.5000,1.0000,0.0000
48.587,Upwind,2575.693,0.449,2574.921,0.449,625.580,625.583,175.848,52.927,359.989,12.949,-0.026,0.0000,-0.2310,0.0000,0.9582,0.5000,1.0000,0.0000
48.796,Upwind,2593.664,0.446,2592.892,0.446,637.051,637.054,175.850,52.960,359.989,12.951,-0.026,0.0000,-0.2307,0.0000,0.9582,0.5000,1.0000,0.0000
48.995,Upwind,2611.638,0.443,2610.866,0.443,647.645,647.649,175.851,52.988,359.989,12.952,-0.026,0.0000,-0.2305,0.0000,0.9582,0.5000,1.0000,0.0000
49.187,Upwind,2629.615,0.440,2628.843,0.440,657.362,657.365,175.851,53.012,359.989,12.953,-0.026,0.0000,-0.2303,0.0000,0.9582,0.5000,1.0000,0.0000
49.393,Upwind,2647.594,0.437,2646.822,0.437,668.851,668.854,175.851,53.040,359.989,12.953,-0.026,0.0000,-0.2302,0.0000,0.9582,0.5000,1.0000,0.0000
49.586,Upwind,2665.576,0.434,2664.804,0.434,678.577,678.580,175.851,53.061,359.989,12.954,-0.026,0.0000,-0.2301,0.0000,0.9582,0.5000,1.0000,0.0000
49.790,Upwind,2683.560,0.431,2682.788,0.431,689.192,689.195,175.850,53.084,359.989,12.954,-0.026,0.0000,-0.2301,0.0000,0.9582,0.5000,1.0000,0.0000
49.993,Upwind,2701.547,0.429,2700.775,0.429,700.695,700.699,175.849,53.106,359.989,12.955,-0.026,0.0001,-0.2300,0.0000,0.9582,0.5000,1.0000,0.0000
50.186,Upwind,2719.536,0.426,2718.764,0.426,710.433,710.436,175.847,53.124,359.990,12.955,-0.026,0.0001,-0.2299,0.0000,0.9582,0.5000,1.0000,0.0000
50.392,Upwind,2737.528,0.423,2736.756,0.423,721.945,721.949,175.845,53.143,359.990,12.955,-0.026,0.0000,-0.2298,0.0000,0.9582,0.5000,1.0000,0.0000
50.590,Upwind,2755.522,0.420,2754.750,0.420,731.690,731.693,175.843,53.159,359.990,12.956,-0.026,0.0000,-0.2297,0.0000,0.9583,0.5000,1.0000,0.0000
50.794,Upwind,2773.518,0.418,2772.746,0.417,743.209,743.213,175.841,53.177,359.990,12.956,-0.026,0.0000,-0.2296,0.0000,0.9583,0.5000,1.0000,0.0000
50.991,Upwind,2791.517,0.415,2790.745,0.415,752.960,752.963,175.838,53.191,359.990,12.957,-0.026,0.0000,-0.2295,0.0000,0.9583,0.5000,1.0000,0.0000
51.191,Upwind,2809.519,0.412,2808.747,0.412,763.599,763.603,175.835,53.205,359.990,12.957,-0.026,0.0000,-0.2294,0.0000,0.9584,0.5000,1.0000,0.0000
51.398,Upwind,2827.522,0.410,2826.750,0.410,775.129,775.132,175.831,53.220,359.990,12.958,-0.026,0.0000,-0.2293,0.0000,0.9584,0.5000,1.0000,0.0000
51.587,Upwind,2845.528,0.407,2844.756,0.407,784.887,784.891,175.828,53.232,359.990,12.958,-0.026,0.0000,-0.2292,0.0000,0.9585,0.5000,1.0000,0.0000
51.792,Upwind,2863.537,0.405,2862.765,0.405,795.534,795.538,175.824,53.245,359.991,12.958,-0.026,0.0000,-0.2292,0.0000,0.9585,0.5000,1.0000,0.0000
51.995,Upwind,2881.547,0.402,2880.775,0.402,807.072,807.076,175.820,53.257,359.991,12.959,-0.026,0.0000,-0.2291,0.0000,0.9586,0.5000,1.0000,0.0000
52.195,Upwind,2899.560,0.400,2898.788,0.400,817.725,817.729,175.816,53.269,359.991,12.959,-0.026,0.0000,-0.2291,0.0000,0.9586,0.5000,1.0000,0.0000
52.393,Upwind,2917.575,0.397,2916.803,0.397,827.491,827.495,175.812,53.278,359.991,12.959,-0.026,0.0000,-0.2290,0.0000,0.9587,0.5000,1.0000,0.0000
52.586,Upwind,2935.593,0.395,2934.821,0.395,838.148,838.152,175.807,53.288,359.991,12.959,-0.026,0.0000,-0.2290,0.0000,0.9588,0.5000,1.0000,0.0000
52.791,Upwind,2953.613,0.393,2952.841,0.393,848.807,848.811,175.803,53.297,359.991,12.959,-0.026,0.0000,-0.2290,0.0000,0.9588,0.5000,1.0000,0.0000
52.996,Upwind,2971.635,0.390,2970.863,0.390,860.355,860.359,175.798,53.307,359.991,12.959,-0.026,0.0000,-0.2290,0.0000,0.9589,0.5000,1.0000,0.0000
53.189,Upwind,2989.659,0.388,2988.887,0.388,870.129,870.133,175.793,53.314,359.991,12.959,-0.026,0.0000,-0.2290,0.0000,0.9590,0.5000,1.0000,0.0000
53.388,Upwind,3007.686,0.386,3006.914,0.386,880.792,880.797,175.788,53.322,359.992,12.959,-0.026,0.0000,-0.2289,0.0000,0.9590,0.5000,1.0000,0.0000
53.592,Upwind,3025.715,0.384,3024.943,0.384,891.458,891.462,175.783,53.329,359.992,12.959,-0.026,0.0000,-0.2289,0.0000,0.9591,0.5000,1.0000,0.0000
53.797,Upwind,3043.746,0.382,3042.974,0.382,903.013,903.017,175.777,53.337,359.992,12.960,-0.026,0.0000,-0.2289,0.0000,0.9592,0.5000,1.0000,0.0000
53.991,Upwind,3061.780,0.379,3061.008,0.379,912.792,912.796,175.772,53.343,359.992,12.960,-0.026,0.0000,-0.2289,0.0000,0.9593,0.5000,1.0000,0.0000
54.197,Upwind,3079.815,0.377,3079.043,0.377,924.350,924.355,175.766,53.350,359.992,12.960,-0.026,0.0000,-0.2289,0.0000,0.9593,0.5000,1.0000,0.0000
54.387,Upwind,3097.853,0.375,3097.081,0.375,934.132,934.136,175.761,53.355,359.992,12.960,-0.026,0.0000,-0.2289,0.0000,0.9594,0.5000,1.0000,0.0000
54.588,Upwind,3115.891,0.373,3115.119,0.373,944.803,944.808,175.755,53.361,359.992,12.960,-0.026,0.0000,-0.2289,0.0000,0.9595,0.5000,1.0000,0.0000
54.787,Upwind,3133.936,0.371,3133.164,0.371,955.476,955.481,175.749,53.366,359.992,12.960,-0.026,0.0000,-0.2289,0.0000,0.9596,0.5000,1.0000,0.0000
54.997,Upwind,3151.979,0.370,3151.208,0.370,967.039,967.044,175.743,53.372,359.993,12.960,-0.026,0.0000,-0.2289,0.0000,0.9597,0.5000,1.0000,0.0000
55.188,Upwind,3170.024,0.368,3169.252,0.368,976.825,976.829,175.737,53.376,359.993,12.960,-0.026,0.0000,-0.2289,0.0000,0.9597,0.5000,1.0000,0.0000
55.396,Upwind,3188.074,0.366,3187.302,0.366,988.390,988.395,175.731,53.381,359.993,12.960,-0.026,0.0000,-0.2289,0.0000,0.9598,0.5000,1.0000,0.0000
55.590,Upwind,3206.124,0.364,3205.352,0.364,998.177,998.182,175.725,53.385,359.993,12.960,-0.026,0.0000,-0.2289,0.0000,0.9599,0.5000,1.0000,0.0000
55.796,Upwind,3224.177,0.362,3223.406,0.362,1009.744,1009.749,175.719,53.390,359.993,12.960,-0.026,0.0000,-0.2289,0.0000,0.9600,0.5000,1.0000,0.0000
55.990,Upwind,3242.234,0.361,3241.462,0.361,1019.533,1019.537,175.713,53.394,359.993,12.960,-0.026,0.0000,-0.2289,0.0000,0.9601,0.5000,1.0000,0.0000
56.188,Upwind,3260.290,0.359,3259.518,0.359,1030.212,1030.217,175.707,53.397,359.993,12.960,-0.027,0.0000,-0.2289,0.0000,0.9602,0.5000,1.0000,0.0000
56.388,Upwind,3278.350,0.357,3277.578,0.357,1040.891,1040.896,175.700,53.401,359.993,12.959,-0.027,0.0000,-0.2290,0.0000,0.9603,0.5000,1.0000,0.0000
56.586,Upwind,3296.412,0.356,3295.640,0.356,1051.572,1051.577,175.694,53.404,359.993,12.959,-0.027,0.0000,-0.2290,0.0000,0.9604,0.5000,1.0000,0.0000
56.787,Upwind,3314.474,0.354,3313.702,0.354,1062.253,1062.258,175.688,53.407,359.994,12.959,-0.027,0.0000,-0.2290,0.0000,0.9604,0.5000,1.0000,0.0000
56.989,Upwind,3332.543,0.352,3331.771,0.352,1072.935,1072.940,175.681,53.410,359.994,12.959,-0.027,0.0000,-0.2290,0.0000,0.9605,0.5000,1.0000,0.0000
57.195,Upwind,3350.608,0.351,3349.836,0.351,1084.507,1084.512,175.674,53.413,359.994,12.959,-0.027,0.0000,-0.2291,0.0000,0.9606,0.5000,1.0000,0.0000
57.392,Upwind,3368.680,0.349,3367.908,0.349,1094.300,1094.305,175.668,53.416,359.994,12.959,-0.027,0.0000,-0.2291,0.0000,0.9607,0.5000,1.0000,0.0000
57.594,Upwind,3386.752,0.348,3385.980,0.348,1104.983,1104.989,175.661,53.419,359.994,12.959,-0.027,0.0000,-0.2291,0.0000,0.9608,0.5000,1.0000,0.0000
57.792,Upwind,3404.826,0.346,3404.054,0.346,1115.667,1115.673,175.655,53.421,359.994,12.959,-0.027,0.0000,-0.2291,0.0000,0.9609,0.5000,1.0000,0.0000
57.996,Upwind,3422.904,0.345,3422.132,0.345,1127.242,1127.247,175.648,53.424,359.994,12.959,-0.027,0.0000,-0.2291,0.0000,0.9610,0.5000,1.0000,0.0000
58.187,Upwind,3440.982,0.344,3440.210,0.344,1137.037,1137.042,175.642,53.426,359.994,12.958,-0.027,0.0000,-0.2292,0.0000,0.9611,0.5000,1.0000,0.0000
58.391,Upwind,3459.065,0.342,3458.293,0.342,1147.722,1147.727,175.635,53.428,359.994,12.958,-0.027,0.0000,-0.2292,0.0000,0.9612,0.5000,1.0000,0.0000
58.594,Upwind,3477.146,0.341,3476.374,0.341,1159.298,1159.304,175.627,53.430,359.994,12.958,-0.027,0.0000,-0.2292,0.0000,0.9613,0.5000,1.0000,0.0000
58.786,Upwind,3495.233,0.340,3494.461,0.340,1169.094,1169.099,175.621,53.432,359.995,12.958,-0.027,0.0000,-0.2293,0.0000,0.9614,0.5000,1.0000,0.0000
58.990,Upwind,3513.320,0.339,3512.548,0.339,1179.780,1179.786,175.614,53.434,359.995,12.958,-0.027,0.0000,-0.2293,0.0000,0.9615,0.5000,1.0000,0.0000
59.186,Upwind,3531.410,0.337,3530.638,0.337,1190.467,1190.473,175.608,53.436,359.995,12.958,-0.027,0.0000,-0.2293,0.0000,0.9616,0.5000,1.0000,0.0000
59.396,Upwind,3549.503,0.336,3548.731,0.336,1202.045,1202.051,175.600,53.438,359.995,12.958,-0.027,0.0000,-0.2294,0.0000,0.9617,0.5000,1.0000,0.0000
59.586,Upwind,3567.596,0.335,3566.824,0.335,1211.842,1211.848,175.594,53.439,359.995,12.957,-0.027,0.0000,-0.2294,0.0000,0.9618,0.5000,1.0000,0.0000
59.795,Upwind,3585.692,0.334,3584.920,0.334,1223.421,1223.427,175.587,53.441,359.995,12.957,-0.027,0.0000,-0.2294,0.0000,0.9619,0.5000,1.0000,0.0000
59.995,Upwind,3603.791,0.333,3603.019,0.333,1234.109,1234.115,175.580,53.443,359.995,12.957,-0.028,0.0000,-0.2295,0.0000,0.9620,0.5000,1.0000,0.0000
60.194,Upwind,3621.890,0.332,3621.118,0.332,1244.798,1244.804,175.573,53.444,359.995,12.957,-0.028,0.0000,-0.2295,0.0000,0.9621,0.5000,1.0000,0.0000
60.389,Upwind,3639.995,0.331,3639.223,0.331,1254.596,1254.602,175.566,53.445,359.995,12.957,-0.028,0.0000,-0.2295,0.0000,0.9621,0.5000,1.0000,0.0000
60.594,Upwind,3658.097,0.330,3657.325,0.330,1266.176,1266.182,175.559,53.447,359.995,12.957,-0.028,0.0000,-0.2296,0.0000,0.9622,0.5000,1.0000,0.0000
60.794,Upwind,3676.205,0.329,3675.433,0.329,1275.975,1275.981,175.553,53.448,359.995,12.957,-0.028,0.0000,-0.2296,0.0000,0.9623,0.5000,1.0000,0.0000
60.994,Upwind,3694.313,0.328,3693.541,0.328,1287.555,1287.561,175.545,53.449,359.996,12.956,-0.028,0.0000,-0.2296,0.0000,0.9624,0.5000,1.0000,0.0000
61.195,Upwind,3712.425,0.327,3711.653,0.327,1298.245,1298.251,175.538,53.451,359.996,12.956,-0.028,0.0000,-0.2297,0.0000,0.9625,0.5000,1.0000,0.0000
61.387,Upwind,3730.539,0.326,3729.767,0.326,1308.044,1308.051,175.532,53.452,359.996,12.956,-0.028,0.0000,-0.2297,0.0000,0.9626,0.5000,1.0000,0.0000
61.588,Upwind,3748.653,0.325,3747.881,0.325,1318.735,1318.741,175.525,53.453,359.996,12.956,-0.028,0.0000,-0.2297,0.0000,0.9627,0.5000,1.0000,0.0000
61.790,Upwind,3766.770,0.324,3765.998,0.324,1329.426,1329.432,175.518,53.454,359.996,12.956,-0.028,0.0000,-0.2298,0.0000,0.9628,0.5000,1.0000,0.0000
61.990,Upwind,3784.891,0.323,3784.119,0.323,1340.116,1340.123,175.511,53.455,359.996,12.956,-0.028,0.0000,-0.2298,0.0000,0.9629,0.5000,1.0000,0.0000
62.189,Upwind,3803.014,0.323,3802.242,0.323,1350.808,1350.814,175.504,53.456,359.996,12.955,-0.028,0.0000,-0.2298,0.0000,0.9630,0.5000,1.0000,0.0000
62.386,Upwind,3821.137,0.322,3820.365,0.322,1361.499,1361.505,175.497,53.457,359.996,12.955,-0.028,0.0000,-0.2299,0.0000,0.9631,0.5000,1.0000,0.0000
62.598,Upwind,3840.773,0.321,3840.001,0.321,1373.081,1373.088,175.489,53.458,359.996,12.955,-0.028,0.0000,-0.2299,0.0000,0.9632,0.5000,1.0000,0.0000
62.786,Upwind,3857.390,0.321,3856.618,0.320,1382.882,1382.889,175.482,53.459,359.996,12.955,-0.028,0.0000,-0.2300,0.0000,0.9633,0.5000,1.0000,0.0000
62.986,Upwind,3875.523,0.320,3874.751,0.320,1393.574,1393.581,175.475,53.460,359.996,12.955,-0.028,0.0000,-0.2300,0.0000,0.9634,0.5000,1.0000,0.0000
63.195,Upwind,3893.656,0.319,3892.884,0.319,1405.157,1405.164,175.468,53.461,359.996,12.955,-0.028,0.0000,-0.2300,0.0000,0.9635,0.5000,1.0000,0.0000
63.395,Upwind,3911.788,0.319,3911.016,0.319,1415.849,1415.856,175.461,53.462,359.997,12.954,-0.028,0.0000,-0.2301,0.0000,0.9636,0.5000,1.0000,0.0000
63.593,Upwind,3929.927,0.318,3929.155,0.318,1426.542,1426.549,175.454,53.463,359.997,12.954,-0.028,0.0000,-0.2301,0.0000,0.9637,0.5000,1.0000,0.0000
63.787,Upwind,3948.065,0.317,3947.293,0.317,1436.343,1436.350,175.447,53.464,359.997,12.954,-0.028,0.0000,-0.2301,0.0000,0.9638,0.5000,1.0000,0.0000
63.998,Upwind,3967.716,0.317,3966.944,0.317,1447.927,1447.934,175.439,53.465,359.997,12.954,-0.028,0.0000,-0.2302,0.0000,0.9639,0.5000,1.0000,0.0000
64.197,Upwind,3984.349,0.316,3983.577,0.316,1458.620,1458.627,175.432,53.465,359.997,12.954,-0.028,-0.0001,-0.2302,0.0000,0.9640,0.5000,1.0000,0.0000
64.390,Upwind,4002.493,0.316,4001.721,0.316,1468.422,1468.429,175.426,53.466,359.997,12.954,-0.029,0.0000,-0.2303,0.0000,0.9641,0.5000,1.0000,0.0000
64.588,Upwind,4020.641,0.315,4019.869,0.315,1479.115,1479.123,175.419,53.467,359.997,12.953,-0.029,0.0000,-0.2303,0.0000,0.9642,0.5000,1.0000,0.0000
64.792,Upwind,4038.792,0.315,4038.020,0.315,1489.809,1489.816,175.412,53.468,359.997,12.953,-0.029,0.0000,-0.2303,0.0000,0.9643,0.5000,1.0000,0.0000
64.986,Upwind,4056.943,0.314,4056.171,0.314,1500.502,1500.510,175.404,53.468,359.997,12.953,-0.029,-0.0001,-0.2304,0.0000,0.9644,0.5000,1.0000,0.0000
65.187,Upwind,4075.097,0.314,4074.325,0.314,1511.196,1511.203,175.397,53.469,359.997,12.953,-0.029,0.0000,-0.2304,0.0000,0.9645,0.5000,1.0000,0.0000
65.393,Upwind,4093.254,0.314,4092.482,0.314,1522.781,1522.788,175.390,53.470,359.997,12.953,-0.029,0.0000,-0.2305,0.0000,0.9646,0.5000,1.0000,0.0000
65.592,Upwind,4111.411,0.313,4110.639,0.313,1532.584,1532.591,175.383,53.471,359.997,12.952,-0.029,0.0000,-0.2305,0.0000,0.9647,0.5000,1.0000,0.0000
65.792,Upwind,4129.571,0.313,4128.799,0.313,1544.169,1544.177,175.375,53.471,359.997,12.952,-0.029,0.0000,-0.2305,0.0000,0.9648,0.5000,1.0000,0.0000
65.995,Upwind,4147.733,0.313,4146.961,0.312,1554.864,1554.871,175.368,53.472,359.998,12.952,-0.030,-0.0001,-0.2306,0.0000,0.9649,0.5000,1.0000,0.0000
66.187,Upwind,4165.896,0.312,4165.125,0.312,1564.667,1564.674,175.362,53.473,359.998,12.952,-0.030,0.0000,-0.2306,0.0000,0.9650,0.5000,1.0000,0.0000
66.396,Upwind,4184.063,0.312,4183.291,0.312,1576.252,1576.260,175.354,53.473,359.998,12.952,-0.030,0.0000,-0.2307,0.0000,0.9651,0.5000,1.0000,0.0000
66.595,Upwind,4202.232,0.312,4201.460,0.312,1586.947,1586.955,175.347,53.474,359.998,12.951,-0.030,0.0000,-0.2307,0.0000,0.9652,0.5000,1.0000,0.0000
66.786,Upwind,4220.404,0.311,4219.632,0.311,1596.751,1596.758,175.340,53.474,359.998,12.951,-0.030,0.0000,-0.2307,0.0000,0.9653,0.5000,1.0000,0.0000
66.989,Upwind,4238.576,0.311,4237.804,0.311,1607.446,1607.453,175.333,53.475,359.998,12.951,-0.030,0.0000,-0.2308,0.0000,0.9654,0.5000,1.0000,0.0000
67.187,Upwind,4256.751,0.311,4255.979,0.311,1618.141,1618.148,175.326,53.476,359.998,12.951,-0.030,0.0000,-0.2308,0.0000,0.9655,0.5000,1.0000,0.0000
67.392,Upwind,4274.930,0.311,4274.158,0.311,1628.836,1628.844,175.319,53.476,359.998,12.951,-0.030,0.0000,-0.2309,0.0000,0.9656,0.5000,1.0000,0.0000
67.586,Upwind,4293.108,0.310,4292.336,0.310,1639.531,1639.539,175.311,53.477,359.998,12.951,-0.030,0.0000,-0.2309,0.0000,0.9657,0.5000,1.0000,0.0000
67.788,Upwind,4311.290,0.310,4310.518,0.310,1650.226,1650.234,175.304,53.477,359.998,12.950,-0.030,0.0000,-0.2310,0.0000,0.9658,0.5000,1.0000,0.0000
67.991,Upwind,4329.474,0.310,4328.702,0.310,1660.922,1660.930,175.297,53.478,359.998,12.950,-0.030,0.0000,-0.2310,0.0000,0.9659,0.5000,1.0000,0.0000
68.194,Upwind,4347.661,0.310,4346.889,0.310,1672.509,1672.517,175.289,53.479,359.998,12.950,-0.030,0.0000,-0.2310,0.0000,0.9660,0.5000,1.0000,0.0000
68.390,Upwind,4365.849,0.310,4365.077,0.310,1682.313,1682.321,175.283,53.479,359.998,12.950,-0.031,-0.0001,-0.2311,0.0000,0.9661,0.5000,1.0000,0.0000
68.587,Upwind,4384.039,0.310,4383.267,0.310,1693.009,1693.017,175.275,53.480,359.998,12.950,-0.031,0.0000,-0.2311,0.0000,0.9662,0.5000,1.0000,0.0000
68.786,Upwind,4402.229,0.309,4401.458,0.309,1703.705,1703.713,175.268,53.480,359.998,12.949,-0.031,0.0000,-0.2312,0.0000,0.9663,0.5000,1.0000,0.0000
68.993,Upwind,4420.426,0.309,4419.654,0.309,1714.401,1714.409,175.261,53.481,359.998,12.949,-0.031,0.0000,-0.2312,0.0000,0.9664,0.5000,1.0000,0.0000
69.186,Upwind,4438.623,0.309,4437.851,0.309,1725.097,1725.105,175.254,53.481,359.998,12.949,-0.031,0.0000,-0.2312,0.0000,0.9665,0.5000,1.0000,0.0000
69.391,Upwind,4456.822,0.309,4456.050,0.309,1735.793,1735.802,175.247,53.482,359.998,12.949,-0.031,0.0000,-0.2313,0.0000,0.9666,0.5000,1.0000,0.0000
69.596,Upwind,4475.022,0.309,4474.250,0.309,1747.381,1747.389,175.239,53.482,359.998,12.949,-0.031,0.0000,-0.2313,0.0000,0.9667,0.5000,1.0000,0.0000
69.791,Upwind,4493.225,0.309,4492.453,0.309,1757.186,1757.194,175.232,53.483,359.998,12.948,-0.031,0.0000,-0.2314,0.0000,0.9668,0.5000,1.0000,0.0000
69.995,Upwind,4511.430,0.309,4510.658,0.309,1768.774,1768.782,175.224,53.483,359.998,12.948,-0.031,0.0000,-0.2314,0.0000,0.9669,0.5000,1.0000,0.0000
70.195,Upwind,4529.636,0.309,4528.864,0.309,1779.471,1779.479,175.217,53.484,359.998,12.948,-0.031,0.0000,-0.2315,0.0000,0.9670,0.5000,1.0000,0.0000
70.387,Upwind,4547.848,0.309,4547.076,0.309,1789.276,1789.285,175.211,53.484,359.998,12.948,-0.031,-0.0001,-0.2315,0.0000,0.9671,0.5000,1.0000,0.0000
70.592,Upwind,4566.060,0.309,4565.288,0.309,1799.973,1799.981,175.203,53.485,359.998,12.948,-0.031,0.0000,-0.2315,0.0000,0.9672,0.5000,1.0000,0.0000
70.788,Upwind,4584.271,0.309,4583.499,0.309,1810.670,1810.678,175.196,53.485,359.998,12.948,-0.031,0.0000,-0.2316,0.0000,0.9673,0.5000,1.0000,0.0000
70.990,Upwind,4602.486,0.309,4601.714,0.309,1821.367,1821.375,175.189,53.485,359.998,12.947,-0.031,0.0000,-0.2316,0.0000,0.9674,0.5000,1.0000,0.0000
71.186,Upwind,4620.707,0.309,4619.935,0.309,1832.064,1832.073,175.182,53.486,359.998,12.947,-0.031,0.0000,-0.2317,0.0000,0.9675,0.5000,1.0000,0.0000
71.394,Upwind,4638.925,0.309,4638.153,0.309,1843.652,1843.661,175.174,53.486,359.998,12.947,-0.031,-0.0001,-0.2317,0.0000,0.9677,0.5000,1.0000,0.0000
71.588,Upwind,4657.149,0.309,4656.377,0.308,1853.458,1853.467,175.167,53.487,359.998,12.947,-0.032,0.0000,-0.2317,0.0000,0.9677,0.5000,1.0000,0.0000
71.786,Upwind,4675.373,0.309,4674.601,0.308,1864.156,1864.165,175.160,53.487,359.998,12.947,-0.032,0.0000,-0.2318,0.0000,0.9678,0.5000,1.0000,0.0000
71.992,Upwind,4693.600,0.309,4692.828,0.308,1874.853,1874.862,175.153,53.488,359.998,12.946,-0.032,0.0000,-0.2318,0.0000,0.9679,0.5000,1.0000,0.0000
72.195,Upwind,4711.827,0.309,4711.055,0.308,1886.442,1886.451,175.145,53.488,359.998,12.946,-0.032,0.0000,-0.2319,0.0000,0.9681,0.5000,1.0000,0.0000
72.403,Upwind,4731.578,0.309,4730.806,0.308,1897.140,1897.149,175.137,53.488,359.998,12.946,-0.032,0.0000,-0.2319,0.0000,0.9682,0.5000,1.0000,0.0000
72.599,Upwind,4749.811,0.309,4749.039,0.308,1907.837,1907.846,175.130,53.489,359.998,12.946,-0.032,0.0000,-0.2320,0.0000,0.9683,0.5000,1.0000,0.0000
72.787,Upwind,4766.526,0.309,4765.754,0.309,1917.644,1917.653,175.124,53.489,359.998,12.946,-0.032,0.0000,-0.2320,0.0000,0.9684,0.5000,1.0000,0.0000
72.998,Upwind,4784.763,0.309,4783.991,0.309,1929.233,1929.242,175.116,53.490,359.999,12.945,-0.032,0.0000,-0.2320,0.0000,0.9685,0.5000,1.0000,0.0000
73.194,Upwind,4803.002,0.309,4802.230,0.309,1939.931,1939.940,175.108,53.490,359.999,12.945,-0.032,0.0000,-0.2321,0.0000,0.9686,0.5000,1.0000,0.0000
73.396,Upwind,4821.244,0.309,4820.472,0.309,1950.629,1950.638,175.101,53.490,359.999,12.945,-0.032,0.0000,-0.2321,0.0000,0.9687,0.5000,1.0000,0.0000
73.593,Upwind,4839.489,0.309,4838.717,0.309,1961.327,1961.336,175.094,53.491,359.999,12.945,-0.032,0.0000,-0.2322,0.0000,0.9688,0.5000,1.0000,0.0000
73.788,Upwind,4857.735,0.309,4856.963,0.309,1971.134,1971.143,175.087,53.491,359.999,12.945,-0.032,0.0000,-0.2322,0.0000,0.9689,0.5000,1.0000,0.0000
73.990,Upwind,4875.983,0.309,4875.211,0.309,1981.832,1981.841,175.080,53.492,359.999,12.944,-0.032,-0.0001,-0.2323,0.0000,0.9690,0.5000,1.0000,0.0000
74.195,Upwind,4894.232,0.309,4893.460,0.309,1993.422,1993.431,175.072,53.492,359.999,12.944,-0.032,0.0000,-0.2323,0.0000,0.9691,0.5000,1.0000,0.0000
74.398,Crosswind,4914.007,0.309,4913.235,0.309,2004.120,2004.130,175.061,53.489,359.999,12.944,-0.029,0.4000,-0.2647,0.0000,0.9332,0.0000,1.0000,0.0000
74.587,Crosswind,4930.734,0.309,4929.962,0.309,2013.918,2013.928,174.930,53.372,359.996,12.957,0.241,0.4000,-0.3494,0.0001,0.8391,0.0000,1.0000,0.0000
74.791,Crosswind,4948.961,0.311,4948.189,0.311,2024.566,2024.575,174.600,53.078,359.992,13.031,0.956,0.4000,-0.4412,0.0001,0.7371,0.0000,1.0000,0.0000
74.993,Crosswind,4967.149,0.320,4966.377,0.320,2035.141,2035.151,174.114,52.669,359.992,13.210,2.013,0.4000,-0.5321,0.0000,0.7078,0.0000,1.0000,0.0000
75.196,Crosswind,4985.291,0.341,4984.519,0.341,2046.505,2046.514,173.572,52.232,0.011,13.563,3.451,0.4000,-0.6234,-0.0001,0.7192,0.0000,1.0000,0.0000
75.389,Crosswind,5003.384,0.383,5002.612,0.382,2056.052,2056.062,173.123,51.943,0.056,14.012,4.844,0.4000,-0.7106,-0.0004,0.7292,0.0000,1.0000,0.0000
75.596,Crosswind,5021.431,0.453,5020.659,0.453,2067.285,2067.294,172.596,51.779,0.164,14.735,6.641,0.4000,-0.8000,-0.0009,0.7414,0.0000,1.0000,0.0000
75.791,Crosswind,5039.429,0.563,5038.657,0.563,2076.781,2076.791,172.150,51.861,0.320,15.508,8.253,0.4000,-0.8000,-0.0015,0.7519,0.0000,1.0000,0.0000
75.990,Crosswind,5057.375,0.726,5056.604,0.726,2087.186,2087.196,171.660,52.244,0.570,16.475,10.074,0.4000,-0.8000,-0.0023,0.7636,0.0000,1.0000,0.0000
76.191,Crosswind,5075.265,0.955,5074.493,0.955,2097.700,2097.710,171.159,52.940,0.915,17.512,11.931,0.4000,-0.7776,-0.0034,0.7756,0.0000,1.0000,0.0000
76.390,Crosswind,5093.089,1.265,5092.317,1.265,2108.382,2108.392,170.646,53.931,1.357,18.556,13.803,0.4000,-0.7478,-0.0046,0.7878,0.0000,1.0000,0.0000
76.590,Crosswind,5110.847,1.673,5110.075,1.673,2119.289,2119.299,170.119,55.178,1.894,19.546,15.669,0.4000,-0.7177,-0.0061,0.8001,0.0000,1.0000,0.0000
76.787,Crosswind,5128.532,2.195,5127.760,2.195,2130.466,2130.476,169.578,56.614,2.519,20.435,17.515,0.4000,-0.6882,-0.0077,0.8126,0.0000,1.0000,0.0000
76.995,Crosswind,5146.137,2.847,5145.365,2.847,2142.912,2142.922,168.980,58.283,3.284,21.243,19.472,0.3299,-0.6571,-0.0095,0.8262,0.0000,1.0000,0.0000
77.189,Crosswind,5163.660,3.643,5162.888,3.642,2153.728,2153.739,168.472,59.713,3.991,21.780,21.039,0.2773,-0.6280,-0.0113,0.8375,0.0000,1.0000,0.0000
77.392,Crosswind,5181.097,4.596,5180.325,4.595,2165.823,2165.833,167.919,61.217,4.810,22.203,22.598,0.2269,-0.5974,-0.0130,0.8494,0.0000,1.0000,0.0000
77.596,Crosswind,5198.452,5.716,5197.680,5.716,2179.252,2179.262,167.330,62.713,5.735,22.469,24.078,0.1803,-0.5669,-0.0146,0.8616,0.0000,1.0000,0.0000
77.789,Crosswind,5215.722,7.012,5214.950,7.012,2190.853,2190.864,166.846,63.824,6.532,22.545,25.152,0.1493,-0.5379,-0.0159,0.8712,0.0000,1.0000,0.0000
77.992,Crosswind,5232.910,8.490,5232.138,8.490,2203.723,2203.733,166.339,64.837,7.399,22.483,26.144,0.1203,-0.5075,-0.0169,0.8810,0.0000,1.0000,0.0000
78.196,Crosswind,5250.016,10.151,5249.244,10.151,2217.866,2217.877,165.818,65.670,8.318,22.268,27.024,0.0940,-0.4769,-0.0176,0.8906,0.0000,1.0000,0.0000
78.389,Crosswind,5267.048,11.999,5266.276,11.999,2229.953,2229.963,165.404,66.143,9.067,21.982,27.633,0.0766,-0.4479,-0.0179,0.8980,0.0000,1.0000,0.0000
78.588,Crosswind,5284.010,14.031,5283.238,14.031,2243.212,2243.223,164.985,66.406,9.841,21.582,28.179,0.0601,-0.4180,-0.0179,0.9054,0.0000,1.0000,0.0000
78.789,Crosswind,5300.905,16.247,5300.133,16.247,2256.497,2256.508,164.602,66.402,10.562,21.107,28.624,0.0461,-0.3879,-0.0176,0.9119,0.0000,1.0000,0.0000
79.001,Crosswind,5319.144,18.852,5318.372,18.852,2270.856,2270.867,164.229,66.095,11.276,20.529,29.016,0.0332,-0.3561,-0.0170,0.9182,0.0000,1.0000,0.0000
79.193,Crosswind,5334.530,21.219,5333.758,21.219,2284.024,2284.035,163.925,65.540,11.868,19.953,29.311,0.0230,-0.3273,-0.0163,0.9232,0.0000,1.0000,0.0000
79.390,Crosswind,5351.270,23.967,5350.498,23.967,2295.976,2295.987,163.681,64.808,12.355,19.399,29.535,0.0152,-0.2978,-0.0155,0.9272,0.0000,1.0000,0.0000
79.593,Crosswind,5367.970,26.884,5367.198,26.884,2309.901,2309.912,163.435,63.683,12.861,18.722,29.752,0.0076,-0.3324,-0.0146,0.9312,0.0000,1.0000,0.0000
79.799,Crosswind,5386.026,30.229,5385.254,30.229,2322.512,2322.523,163.245,62.384,13.280,18.108,29.916,0.0021,-0.4249,-0.0137,0.9343,0.0000,1.0000,0.0000
79.990,Crosswind,5401.279,33.205,5400.507,33.204,2333.824,2333.835,163.099,61.001,13.658,17.606,30.045,-0.0020,-0.5108,-0.0129,0.9366,0.0000,1.0000,0.0000
80.188,Crosswind,5417.899,36.598,5417.127,36.598,2345.860,2345.872,162.968,59.339,14.093,17.166,30.170,-0.0056,-0.6000,-0.0122,0.9384,0.0000,1.0000,0.0000
80.389,Crosswind,5434.502,40.143,5433.730,40.143,2357.554,2357.565,162.863,57.588,14.581,16.874,30.282,-0.0083,-0.6904,-0.0117,0.9399,0.0000,1.0000,0.0000
80.594,Crosswind,5451.086,43.839,5450.314,43.839,2369.824,2369.836,162.771,55.687,15.194,16.749,30.389,-0.0104,-0.7829,-0.0112,0.9412,0.0000,1.0000,0.0000
80.795,Crosswind,5467.652,47.686,5466.880,47.686,2380.793,2380.804,162.703,54.022,15.855,16.824,30.478,-0.0115,-0.8000,-0.0110,0.9422,0.0000,1.0000,0.0000
80.995,Crosswind,5484.193,51.688,5483.421,51.688,2390.569,2390.580,162.650,52.657,16.538,17.032,30.546,-0.0117,-0.7874,-0.0108,0.9429,0.0000,1.0000,0.0000
81.185,Crosswind,5500.710,55.853,5499.938,55.853,2400.970,2400.982,162.598,51.396,17.348,17.366,30.601,-0.0112,-0.7589,-0.0108,0.9436,0.0000,1.0000,0.0000
81.397,Crosswind,5518.565,60.555,5517.793,60.555,2411.984,2411.996,162.544,50.323,18.271,17.795,30.632,-0.0098,-0.7272,-0.0109,0.9444,0.0000,1.0000,0.0000
81.585,Crosswind,5533.635,64.694,5532.863,64.694,2421.145,2421.156,162.496,49.648,19.067,18.168,30.630,-0.0075,-0.6989,-0.0111,0.9451,0.0000,1.0000,0.0000
81.787,Crosswind,5550.030,69.384,5549.258,69.384,2431.019,2431.031,162.439,49.131,19.932,18.547,30.599,-0.0043,-0.6686,-0.0113,0.9458,0.0000,1.0000,0.0000
81.992,Crosswind,5566.370,74.259,5565.598,74.259,2440.810,2440.821,162.379,48.804,20.773,18.869,30.537,-0.0004,-0.6378,-0.0115,0.9467,0.0000,1.0000,0.0000
82.194,Crosswind,5582.652,79.323,5581.880,79.323,2451.360,2451.372,162.310,48.609,21.643,19.126,30.438,0.0045,-0.6077,-0.0118,0.9477,0.0000,1.0000,0.0000
82.392,Crosswind,5598.871,84.578,5598.099,84.578,2460.264,2460.275,162.253,48.525,22.335,19.257,30.332,0.0090,-0.5780,-0.0120,0.9485,0.0000,1.0000,0.0000
82.593,Crosswind,5615.022,90.022,5614.250,90.022,2469.963,2469.975,162.193,48.467,23.038,19.301,30.200,0.0141,-0.5478,-0.0121,0.9493,0.0000,1.0000,0.0000
82.793,Crosswind,5631.107,95.656,5630.335,95.656,2479.649,2479.661,162.140,48.394,23.682,19.240,30.055,0.0192,-0.5177,-0.0122,0.9500,0.0000,1.0000,0.0000
83.002,Crosswind,5648.453,101.969,5647.681,101.969,2489.316,2489.328,162.097,48.260,24.266,19.077,29.904,0.0240,-0.4864,-0.0122,0.9504,0.0000,1.0000,0.0000
83.188,Crosswind,5663.072,107.479,5662.300,107.479,2498.946,2498.958,162.069,48.025,24.793,18.819,29.753,0.0287,-0.4584,-0.0122,0.9504,0.0000,1.0000,0.0000
83.396,Crosswind,5678.955,113.660,5678.183,113.660,2509.311,2509.323,162.058,47.618,25.302,18.440,29.594,0.0334,-0.4435,-0.0122,0.9501,0.0000,1.0000,0.0000
83.589,Crosswind,5694.780,120.015,5694.008,120.015,2517.997,2518.009,162.064,47.112,25.691,18.056,29.469,0.0368,-0.5302,-0.0121,0.9497,0.0000,1.0000,0.0000
