time_s,leg,north_m,east_m,along_m,cross_m,agl_ft,altitude_ft,speed_kts,vertical_speed_fps,heading_deg,pitch_deg,roll_deg,aileron_cmd,elevator_cmd,rudder_cmd,throttle_cmd,flaps_cmd,gear_cmd,brake_cmd
0.000,Upwind,0.128,0.000,0.000,0.000,3.691,3.691,0.000,-0.001,0.000,0.448,0.000,0.0000,0.0020,0.0000,0.1391,0.5000,1.0000,1.0000
0.195,Upwind,0.128,0.000,0.000,0.000,3.691,3.691,0.000,-0.001,0.000,0.449,0.000,0.0000,0.0312,0.0000,0.0415,0.5000,1.0000,1.0000
0.389,Upwind,0.128,0.000,0.000,0.000,3.691,3.691,0.000,-0.001,0.000,0.449,0.000,0.0000,0.0603,0.0000,0.0000,0.5000,1.0000,1.0000
0.588,Upwind,0.128,0.000,0.000,0.000,3.691,3.691,0.000,0.000,0.000,0.450,0.000,0.0000,0.0630,0.0000,0.0000,0.5000,1.0000,1.0000
0.794,Upwind,0.128,0.000,0.000,0.000,3.691,3.691,0.000,0.000,0.000,0.450,0.000,0.0000,0.0629,0.0000,0.0186,0.5000,1.0000,0.0000
0.998,Upwind,0.128,0.000,0.000,0.000,3.691,3.691,0.000,0.000,0.000,0.450,0.000,0.0000,0.0629,0.0000,0.1208,0.5000,1.0000,0.0000
1.191,Upwind,0.128,0.000,0.000,0.000,3.691,3.691,0.000,0.000,0.000,0.450,0.000,0.0000,0.0629,0.0000,0.2174,0.5000,1.0000,0.0000
1.393,Upwind,0.128,0.000,0.000,0.000,3.691,3.691,0.000,0.000,0.000,0.450,0.000,0.0000,0.0629,0.0000,0.3181,0.5000,1.0000,0.0000
1.598,Upwind,0.128,0.000,0.000,0.000,3.691,3.691,0.000,0.000,0.000,0.449,0.000,0.0000,0.0629,0.0000,0.4205,0.5000,1.0000,0.0000
1.790,Upwind,0.128,0.000,0.000,0.000,3.691,3.691,0.000,0.000,0.000,0.449,0.000,0.0000,0.0629,0.0000,0.5165,0.5000,1.0000,0.0000
1.997,Upwind,0.128,0.000,0.000,0.000,3.691,3.691,0.000,0.000,0.000,0.449,0.000,0.0000,0.0628,0.0000,0.6204,0.5000,1.0000,0.0000
2.197,Upwind,0.128,0.000,0.000,0.000,3.691,3.691,0.002,0.000,0.000,0.449,0.000,0.0000,0.0628,0.0000,0.7203,0.5000,1.0000,0.0000
2.391,Upwind,0.128,0.000,0.001,0.000,3.691,3.691,0.011,0.000,0.000,0.449,0.000,0.0000,0.0628,0.0000,0.8174,0.5000,1.0000,0.0000
2.588,Upwind,0.130,0.000,0.003,0.000,3.691,3.691,0.028,0.000,0.000,0.449,0.000,0.0000,0.0629,0.0000,0.9157,0.5000,1.0000,0.0000
2.794,Upwind,0.135,0.000,0.007,0.000,3.691,3.691,0.059,0.000,0.000,0.449,0.000,0.0000,0.0629,0.0000,1.0000,0.5000,1.0000,0.0000
2.996,Upwind,0.143,0.000,0.015,0.000,3.691,3.691,0.101,0.000,0.000,0.449,0.000,0.0000,0.0629,0.0000,1.0000,0.5000,1.0000,0.0000
3.195,Upwind,0.156,0.000,0.029,0.000,3.691,3.691,0.153,0.000,0.000,0.449,0.000,0.0000,0.0629,0.0000,1.0000,0.5000,1.0000,0.0000
3.389,Upwind,0.176,0.000,0.049,0.000,3.691,3.691,0.227,0.000,0.000,0.449,0.000,0.0000,0.0629,0.0000,1.0000,0.5000,1.0000,0.0000
3.596,Upwind,0.205,0.000,0.077,0.000,3.691,3.691,0.332,0.000,0.000,0.449,0.000,0.0000,0.0629,0.0000,1.0000,0.5000,1.0000,0.0000
3.798,Upwind,0.245,0.000,0.118,0.000,3.691,3.691,0.454,0.000,0.000,0.449,0.000,0.0000,0.0629,0.0000,1.0000,0.5000,1.0000,0.0000
3.995,Upwind,0.300,0.000,0.172,0.000,3.691,3.691,0.593,0.000,0.000,0.450,0.000,0.0000,0.0630,0.0000,1.0000,0.5000,1.0000,0.0000
4.191,Upwind,0.371,0.000,0.244,0.000,3.691,3.691,0.777,0.000,0.000,0.450,0.000,0.0000,0.0630,0.0000,1.0000,0.5000,1.0000,0.0000
4.388,Upwind,0.464,0.000,0.337,0.000,3.691,3.691,1.001,0.000,0.000,0.450,0.000,0.0000,0.0630,0.0000,1.0000,0.5000,1.0000,0.0000
4.591,Upwind,0.583,0.000,0.456,0.000,3.691,3.691,1.272,0.000,0.000,0.450,0.000,0.0000,0.0631,0.0000,1.0000,0.5000,1.0000,0.0000
4.790,Upwind,0.733,0.000,0.606,0.000,3.691,3.691,1.596,0.000,0.000,0.450,0.000,0.0000,0.0631,0.0000,1.0000,0.5000,1.0000,0.0000
4.995,Upwind,0.920,0.000,0.792,0.000,3.691,3.691,1.982,0.000,0.000,0.451,0.000,0.0000,0.0631,0.0000,1.0000,0.5000,1.0000,0.0000
5.195,Upwind,1.151,0.000,1.023,0.000,3.691,3.691,2.477,0.000,0.000,0.451,0.000,0.0000,0.0632,0.0000,1.0000,0.5000,1.0000,0.0000
5.387,Upwind,1.432,0.000,1.305,0.000,3.691,3.691,2.968,0.000,0.000,0.452,0.000,0.0000,0.0633,0.0000,1.0000,0.5000,1.0000,0.0000
5.590,Upwind,1.774,0.000,1.646,0.000,3.691,3.691,3.585,0.000,0.000,0.452,0.000,0.0000,0.0633,0.0000,1.0000,0.5000,1.0000,0.0000
5.791,Upwind,2.185,0.000,2.057,0.000,3.691,3.691,4.295,0.000,0.000,0.452,0.000,0.0000,0.0634,0.0000,1.0000,0.5000,1.0000,0.0000
5.992,Upwind,2.674,0.000,2.547,0.000,3.691,3.691,5.106,0.000,0.000,0.453,0.000,0.0000,0.0634,0.0000,1.0000,0.5000,1.0000,0.0000
6.198,Upwind,3.254,0.000,3.126,0.000,3.691,3.691,6.107,0.000,0.000,0.453,0.000,0.0000,0.0635,0.0000,1.0000,0.5000,1.0000,0.0000
6.389,Upwind,3.935,0.000,3.807,0.000,3.691,3.691,7.058,0.000,0.000,0.454,0.000,0.0000,0.0636,0.0000,1.0000,0.5000,1.0000,0.0000
6.595,Upwind,4.730,0.000,4.602,0.000,3.691,3.691,8.314,0.001,0.000,0.454,0.000,0.0000,0.0637,0.0000,1.0000,0.5000,1.0000,0.0000
6.793,Upwind,5.650,0.000,5.522,0.000,3.691,3.691,9.480,0.001,0.000,0.455,0.000,0.0000,0.0637,0.0000,1.0000,0.5000,1.0000,0.0000
6.990,Upwind,6.703,0.000,6.575,0.000,3.691,3.691,10.765,0.001,0.000,0.455,0.000,0.0000,0.0636,0.0000,1.0000,0.5000,1.0000,0.0000
7.187,Upwind,7.887,0.000,7.760,0.000,3.692,3.692,12.049,0.001,0.000,0.454,0.000,0.0000,0.0636,0.0000,1.0000,0.5000,1.0000,0.0000
7.397,Upwind,9.204,0.000,9.076,0.000,3.692,3.692,13.439,0.001,0.000,0.454,0.000,0.0000,0.0635,0.0000,1.0000,0.5000,1.0000,0.0000
7.596,Upwind,10.653,0.000,10.525,0.000,3.692,3.692,14.614,0.001,0.000,0.454,0.000,0.0000,0.0635,0.0000,1.0000,0.5000,1.0000,0.0000
7.790,Upwind,12.233,0.000,12.106,0.000,3.692,3.692,15.895,0.001,0.000,0.453,0.000,0.0000,0.0634,0.0000,1.0000,0.5000,1.0000,0.0000
7.989,Upwind,13.946,0.000,13.818,0.000,3.693,3.693,17.175,0.002,0.000,0.453,0.000,0.0000,0.0634,0.0000,1.0000,0.5000,1.0000,0.0000
8.196,Upwind,15.790,0.000,15.662,0.000,3.693,3.693,18.560,0.002,0.000,0.453,0.000,0.0000,0.0633,0.0000,1.0000,0.5000,1.0000,0.0000
8.396,Upwind,17.765,0.000,17.638,0.000,3.693,3.693,19.838,0.002,0.000,0.452,0.000,0.0000,0.0632,0.0000,1.0000,0.5000,1.0000,0.0000
8.596,Upwind,19.872,0.000,19.744,0.000,3.694,3.694,21.008,0.002,0.000,0.452,0.000,0.0000,0.0632,0.0000,1.0000,0.5000,1.0000,0.0000
8.793,Upwind,22.110,0.000,21.982,0.000,3.694,3.694,22.283,0.002,0.000,0.451,0.000,0.0000,0.0631,0.0000,1.0000,0.5000,1.0000,0.0000
8.992,Upwind,24.479,0.000,24.352,0.000,3.694,3.694,23.557,0.002,0.000,0.450,0.000,0.0000,0.0630,0.0000,1.0000,0.5000,1.0000,0.0000
9.188,Upwind,26.979,0.000,26.852,0.000,3.695,3.695,24.829,0.003,0.000,0.450,0.000,0.0000,0.0629,0.0000,1.0000,0.5000,1.0000,0.0000
9.398,Upwind,29.611,0.000,29.483,0.000,3.696,3.696,26.206,0.003,0.000,0.449,0.000,0.0000,0.0628,0.0000,1.0000,0.5000,1.0000,0.0000
9.598,Upwind,32.372,0.000,32.245,0.000,3.696,3.696,27.476,0.003,0.000,0.448,0.000,0.0000,0.0627,0.0000,1.0000,0.5000,1.0000,0.0000
9.794,Upwind,35.265,0.000,35.137,0.000,3.697,3.697,28.639,0.003,0.000,0.447,0.000,0.0000,0.0625,0.0000,1.0000,0.5000,1.0000,0.0000
9.990,Upwind,38.288,0.000,38.160,0.000,3.697,3.697,29.907,0.004,0.000,0.446,0.000,0.0000,0.0624,0.0000,1.0000,0.5000,1.0000,0.0000
10.196,Upwind,41.441,0.000,41.313,0.000,3.698,3.698,31.278,0.004,0.000,0.445,0.000,0.0000,0.0623,0.0000,1.0000,0.5000,1.0000,0.0000
10.390,Upwind,44.724,0.001,44.597,0.001,3.699,3.699,32.437,0.004,0.000,0.445,0.000,0.0000,0.0621,0.0000,1.0000,0.5000,1.0000,0.0000
10.595,Upwind,48.137,0.001,48.010,0.001,3.700,3.700,33.805,0.004,0.000,0.443,0.000,0.0000,0.0620,0.0000,1.0000,0.5000,1.0000,0.0000
10.796,Upwind,51.681,0.001,51.553,0.001,3.701,3.701,35.066,0.004,0.000,0.442,0.000,0.0000,0.0618,0.0000,1.0000,0.5000,1.0000,0.0000
10.989,Upwind,55.354,0.001,55.226,0.001,3.701,3.701,36.221,0.005,0.000,0.441,0.000,0.0000,0.0616,0.0000,1.0000,0.5000,1.0000,0.0000
11.195,Upwind,59.156,0.001,59.028,0.001,3.702,3.702,37.584,0.005,0.000,0.440,0.000,0.0000,0.0615,0.0000,1.0000,0.5000,1.0000,0.0000
11.390,Upwind,63.088,0.001,62.960,0.001,3.703,3.703,38.736,0.005,0.000,0.439,0.000,0.0000,0.0613,0.0000,1.0000,0.5000,1.0000,0.0000
11.589,Upwind,67.149,0.001,67.021,0.001,3.704,3.704,39.991,0.005,0.000,0.437,0.000,0.0000,0.0611,0.0000,1.0000,0.5000,1.0000,0.0000
11.792,Upwind,71.339,0.001,71.211,0.001,3.705,3.705,41.245,0.006,0.000,0.436,0.000,0.0000,0.0609,0.0000,1.0000,0.5000,1.0000,0.0000
11.997,Upwind,75.658,0.001,75.530,0.001,3.707,3.707,42.601,0.006,0.000,0.434,0.000,0.0000,0.0606,0.0000,1.0000,0.5000,1.0000,0.0000
12.189,Upwind,80.106,0.001,79.978,0.001,3.708,3.708,43.746,0.006,0.000,0.433,0.000,0.0000,0.0604,0.0000,1.0000,0.5000,1.0000,0.0000
12.395,Upwind,84.682,0.001,84.554,0.001,3.709,3.709,45.098,0.007,0.000,0.431,0.000,0.0000,0.0602,0.0000,1.0000,0.5000,1.0000,0.0000
12.595,Upwind,89.386,0.002,89.259,0.002,3.711,3.711,46.344,0.008,0.000,0.429,0.000,-0.0001,0.0599,0.0000,1.0000,0.5000,1.0000,0.0000
12.793,Upwind,94.219,0.002,94.091,0.002,3.712,3.712,47.484,0.008,0.000,0.427,0.000,-0.0001,0.0596,0.0000,1.0000,0.5000,1.0000,0.0000
12.988,Upwind,99.179,0.002,99.051,0.002,3.714,3.714,48.726,0.008,0.000,0.425,0.000,-0.0001,0.0593,0.0000,1.0000,0.5000,1.0000,0.0000
13.194,Upwind,104.267,0.002,104.139,0.002,3.715,3.715,49.966,0.009,0.000,0.423,0.000,-0.0001,0.0590,0.0000,1.0000,0.5000,1.0000,0.0000
13.393,Upwind,109.483,0.002,109.355,0.002,3.717,3.717,51.204,0.009,0.001,0.421,0.000,-0.0001,0.0587,0.0000,1.0000,0.5000,1.0000,0.0000
13.592,Upwind,114.825,0.002,114.698,0.002,3.719,3.719,52.439,0.009,0.001,0.419,0.000,-0.0001,0.0584,0.0000,1.0000,0.5000,1.0000,0.0000
13.787,Upwind,120.295,0.003,120.167,0.003,3.721,3.721,53.673,0.010,0.001,0.416,0.000,-0.0001,0.0580,0.0000,1.0000,0.5000,1.0000,0.0000
13.995,Upwind,125.891,0.003,125.764,0.003,3.723,3.723,54.904,0.010,0.001,0.414,0.000,-0.0001,0.0577,0.0000,1.0000,0.5000,1.0000,0.0000
14.195,Upwind,131.614,0.003,131.487,0.003,3.725,3.725,56.133,0.009,0.001,0.411,0.000,-0.0001,0.0573,0.0000,1.0000,0.5000,1.0000,0.0000
14.395,Upwind,137.464,0.003,137.336,0.003,3.726,3.726,57.461,0.008,0.001,0.409,0.000,-0.0001,0.0570,0.0000,1.0000,0.5000,1.0000,0.0000
14.589,Upwind,143.439,0.004,143.312,0.004,3.728,3.728,58.584,0.008,0.001,0.407,0.000,-0.0001,0.0568,0.0000,1.0000,0.5000,1.0000,0.0000
14.793,Upwind,149.541,0.004,149.413,0.004,3.729,3.729,59.807,0.008,0.001,0.405,0.000,-0.0001,0.0565,0.0000,1.0000,0.5000,1.0000,0.0000
14.989,Upwind,155.767,0.004,155.640,0.004,3.731,3.731,61.027,0.008,0.001,0.403,0.000,-0.0001,0.0562,0.0000,1.0000,0.5000,1.0000,0.0000
15.190,Upwind,162.120,0.005,161.992,0.005,3.733,3.733,62.246,0.008,0.001,0.401,0.000,-0.0001,0.0559,0.0000,1.0000,0.5000,1.0000,0.0000
15.398,Upwind,168.598,0.005,168.470,0.005,3.735,3.735,63.563,0.009,0.001,0.398,0.000,-0.0002,0.0555,0.0000,1.0000,0.5000,1.0000,0.0000
15.588,Upwind,175.200,0.005,175.073,0.005,3.736,3.736,64.676,0.009,0.001,0.396,0.000,-0.0002,0.0552,0.0000,1.0000,0.5000,1.0000,0.0000
15.797,Upwind,181.928,0.006,181.800,0.006,3.738,3.738,65.888,0.009,0.001,0.394,0.000,-0.0002,0.0549,0.0000,1.0000,0.5000,1.0000,0.0000
15.994,Upwind,188.780,0.006,188.652,0.006,3.740,3.740,67.098,0.009,0.002,0.392,0.000,-0.0002,0.0546,0.0000,1.0000,0.5000,1.0000,0.0000
16.192,Upwind,195.756,0.007,195.629,0.007,3.741,3.741,68.305,0.009,0.002,0.389,0.000,-0.0002,0.0543,0.0000,1.0000,0.5000,1.0000,0.0000
16.389,Upwind,202.857,0.007,202.729,0.007,3.743,3.743,69.510,0.009,0.002,0.387,0.000,-0.0002,0.0539,0.0000,1.0000,0.5000,1.0000,0.0000
16.598,Upwind,210.081,0.007,209.954,0.007,3.745,3.745,70.813,0.009,0.002,0.384,0.000,-0.0002,0.0536,0.0000,1.0000,0.5000,1.0000,0.0000
16.796,Upwind,217.429,0.008,217.302,0.008,3.747,3.747,72.014,0.010,0.002,0.382,0.000,-0.0003,0.0532,0.0000,1.0000,0.5000,1.0000,0.0000
16.991,Upwind,224.901,0.009,224.773,0.009,3.749,3.749,73.112,0.010,0.002,0.380,0.000,-0.0003,0.0529,0.0000,1.0000,0.5000,1.0000,0.0000
17.187,Upwind,232.495,0.009,232.368,0.009,3.751,3.751,74.308,0.010,0.002,0.377,0.000,-0.0003,0.0526,0.0000,1.0000,0.5000,1.0000,0.0000
17.397,Upwind,240.213,0.010,240.085,0.010,3.753,3.753,75.601,0.010,0.003,0.374,0.000,-0.0003,0.0522,0.0000,1.0000,0.5000,1.0000,0.0000
17.596,Upwind,248.053,0.010,247.925,0.010,3.755,3.755,76.793,0.010,0.003,0.372,0.000,-0.0003,0.0518,0.0000,1.0000,0.5000,1.0000,0.0000
17.800,Upwind,256.685,0.011,256.557,0.011,3.757,3.757,77.981,0.010,0.003,0.369,0.000,-0.0003,0.0514,0.0000,1.0000,0.5000,1.0000,0.0000
17.995,Upwind,264.100,0.012,263.973,0.012,3.759,3.759,79.168,0.010,0.003,0.367,0.000,-0.0004,0.0511,0.0000,1.0000,0.5000,1.0000,0.0000
18.194,Upwind,272.307,0.013,272.180,0.013,3.761,3.761,80.352,0.010,0.003,0.364,0.000,-0.0004,0.0507,0.0000,1.0000,0.5000,1.0000,0.0000
18.395,Upwind,280.636,0.013,280.508,0.013,3.763,3.763,81.435,0.011,0.003,0.362,0.000,-0.0004,0.0504,0.0000,1.0000,0.5000,1.0000,0.0000
18.595,Upwind,289.086,0.014,288.958,0.014,3.765,3.765,82.712,0.011,0.004,0.359,0.000,-0.0004,0.0499,0.0000,1.0000,0.5000,1.0000,0.0000
18.797,Upwind,297.657,0.015,297.529,0.015,3.767,3.767,83.888,0.011,0.004,0.356,0.000,-0.0005,0.0496,0.0000,1.0000,0.5000,1.0000,0.0000
18.987,Upwind,306.349,0.016,306.221,0.016,3.769,3.769,84.965,0.011,0.004,0.353,0.000,-0.0005,0.0492,0.0000,1.0000,0.5000,1.0000,0.0000
19.194,Upwind,315.161,0.017,315.034,0.017,3.772,3.772,86.136,0.011,0.004,0.351,0.000,-0.0005,0.0488,0.0000,1.0000,0.5000,1.0000,0.0000
19.394,Upwind,324.095,0.018,323.967,0.018,3.774,3.774,87.305,0.011,0.004,0.348,0.000,-0.0005,0.0484,0.0000,1.0000,0.5000,1.0000,0.0000
19.597,Upwind,333.148,0.019,333.020,0.019,3.776,3.776,88.569,0.011,0.005,0.345,0.000,-0.0006,0.0480,0.0000,1.0000,0.5000,1.0000,0.0000
19.798,Upwind,342.321,0.020,342.193,0.020,3.778,3.778,89.733,0.011,0.005,0.342,0.000,-0.0006,0.0476,0.0000,1.0000,0.5000,1.0000,0.0000
19.997,Upwind,351.613,0.022,351.486,0.022,3.781,3.781,90.894,0.012,0.005,0.339,0.000,-0.0006,0.0471,0.0000,1.0000,0.5000,1.0000,0.0000
20.190,Upwind,361.026,0.023,360.898,0.023,3.783,3.783,91.956,0.012,0.005,0.336,0.000,-0.0007,0.0468,0.0000,1.0000,0.5000,1.0000,0.0000
20.391,Upwind,370.557,0.024,370.429,0.024,3.785,3.785,93.112,0.012,0.006,0.333,0.000,-0.0007,0.0463,0.0000,1.0000,0.5000,1.0000,0.0000
20.587,Upwind,380.206,0.026,380.079,0.026,3.788,3.788,94.266,0.012,0.006,0.330,0.000,-0.0007,0.0459,0.0000,1.0000,0.5000,1.0000,0.0000
20.794,Upwind,389.975,0.027,389.847,0.027,3.790,3.790,95.416,0.012,0.006,0.327,0.000,-0.0008,0.0455,0.0000,1.0000,0.5000,1.0000,0.0000
20.990,Upwind,399.862,0.029,399.734,0.029,3.792,3.792,96.564,0.012,0.007,0.324,0.000,-0.0008,0.0451,0.0000,1.0000,0.5000,1.0000,0.0000
21.195,Upwind,409.866,0.030,409.739,0.030,3.795,3.795,97.710,0.012,0.007,0.321,0.000,-0.0008,0.0446,0.0000,1.0000,0.5000,1.0000,0.0000
21.394,Upwind,419.989,0.032,419.861,0.032,3.797,3.797,98.853,0.012,0.007,0.318,0.000,-0.0009,0.0442,0.0000,1.0000,0.5000,1.0000,0.0000
21.589,Upwind,430.228,0.034,430.101,0.034,3.800,3.800,99.992,0.012,0.008,0.315,0.000,-0.0009,0.0438,0.0000,1.0000,0.5000,1.0000,0.0000
21.790,Upwind,440.585,0.036,440.457,0.036,3.802,3.802,101.130,0.013,0.008,0.312,0.000,-0.0010,0.0433,0.0000,1.0000,0.5000,1.0000,0.0000
21.990,Upwind,451.059,0.037,450.931,0.037,3.805,3.805,102.264,0.013,0.008,0.309,0.000,-0.0010,0.0429,0.0000,1.0000,0.5000,1.0000,0.0000
22.191,Upwind,461.649,0.039,461.522,0.039,3.807,3.807,103.396,0.013,0.009,0.305,0.000,-0.0010,0.0424,0.0000,1.0000,0.5000,1.0000,0.0000
22.392,Upwind,472.356,0.042,472.228,0.042,3.810,3.810,104.525,0.013,0.009,0.302,0.000,-0.0011,0.0420,0.0000,1.0000,0.5000,1.0000,0.0000
22.592,Upwind,483.178,0.044,483.051,0.044,3.812,3.812,105.651,0.013,0.009,0.299,0.000,-0.0011,0.0415,0.0000,1.0000,0.5000,1.0000,0.0000
22.790,Upwind,494.117,0.046,493.989,0.046,3.815,3.815,106.774,0.013,0.010,0.296,0.000,-0.0012,0.0411,0.0000,1.0000,0.5000,1.0000,0.0000
22.999,Upwind,505.170,0.048,505.043,0.048,3.818,3.818,107.988,0.013,0.010,0.292,0.000,-0.0012,0.0406,0.0000,1.0000,0.5000,1.0000,0.0000
23.194,Upwind,516.339,0.051,516.212,0.051,3.820,3.820,109.105,0.013,0.010,0.289,0.000,-0.0013,0.0401,0.0000,1.0000,0.5000,1.0000,0.0000
23.395,Upwind,527.623,0.054,527.495,0.054,3.823,3.823,110.127,0.013,0.011,0.286,0.000,-0.0013,0.0397,0.0000,1.0000,0.5000,1.0000,0.0000
23.598,Upwind,539.021,0.056,538.893,0.056,3.825,3.825,111.331,0.013,0.011,0.282,0.000,-0.0014,0.0392,0.0000,1.0000,0.5000,1.0000,0.0000
23.793,Upwind,550.533,0.059,550.406,0.059,3.828,3.828,112.347,0.013,0.012,0.279,-0.001,-0.0014,0.0387,0.0000,1.0000,0.5000,1.0000,0.0000
23.994,Upwind,562.159,0.062,562.032,0.062,3.831,3.831,113.453,0.014,0.012,0.276,-0.001,-0.0015,0.0383,0.0000,1.0000,0.5000,1.0000,0.0000
24.196,Upwind,573.899,0.065,573.772,0.065,3.833,3.833,114.648,0.014,0.013,0.272,-0.001,-0.0015,0.0378,0.0000,1.0000,0.5000,1.0000,0.0000
24.396,Upwind,585.752,0.068,585.625,0.068,3.836,3.836,115.748,0.014,0.013,0.269,-0.001,-0.0016,0.0373,0.0000,1.0000,0.5000,1.0000,0.0000
24.599,Upwind,597.719,0.072,597.591,0.072,3.839,3.839,116.845,0.014,0.013,0.265,-0.001,-0.0017,0.0368,0.0000,1.0000,0.5000,1.0000,0.0000
24.797,Upwind,609.798,0.075,609.670,0.075,3.842,3.842,117.939,0.014,0.014,0.262,-0.001,-0.0017,0.0363,0.0000,1.0000,0.5000,1.0000,0.0000
24.994,Upwind,621.989,0.079,621.861,0.079,3.844,3.844,118.939,0.014,0.014,0.259,-0.001,-0.0018,0.0359,0.0000,1.0000,0.5000,1.0000,0.0000
25.198,Upwind,634.293,0.082,634.165,0.082,3.847,3.847,120.118,0.014,0.015,0.255,-0.001,-0.0018,0.0353,0.0000,1.0000,0.5000,1.0000,0.0000
25.390,Upwind,646.708,0.086,646.580,0.086,3.850,3.850,121.113,0.014,0.015,0.252,-0.001,-0.0019,0.0349,0.0000,1.0000,0.5000,1.0000,0.0000
25.595,Upwind,659.234,0.090,659.107,0.090,3.853,3.853,122.195,0.014,0.016,0.248,-0.001,-0.0020,0.0344,0.0000,1.0000,0.5000,1.0000,0.0000
25.789,Upwind,671.872,0.094,671.745,0.094,3.855,3.855,123.274,0.014,0.016,0.245,-0.001,-0.0020,0.0339,0.0000,1.0000,0.5000,1.0000,0.0000
25.991,Upwind,684.621,0.098,684.494,0.098,3.858,3.858,124.351,0.014,0.017,0.241,-0.001,-0.0021,0.0334,0.0000,1.0000,0.5000,1.0000,0.0000
26.192,Upwind,697.481,0.103,697.353,0.103,3.861,3.861,125.424,0.014,0.017,0.237,-0.001,-0.0022,0.0329,0.0000,1.0000,0.5000,1.0000,0.0000
26.394,Upwind,710.450,0.107,710.323,0.107,3.864,3.864,126.583,0.014,0.018,0.234,-0.001,-0.0022,0.0324,0.0000,1.0000,0.5000,1.0000,0.0000
26.587,Upwind,723.530,0.112,723.402,0.112,3.867,3.867,127.472,0.014,0.018,0.231,-0.001,-0.0023,0.0319,0.0000,1.0000,0.5000,1.0000,0.0000
26.792,Upwind,736.719,0.117,736.591,0.117,3.870,3.870,128.625,0.015,0.019,0.227,-0.001,-0.0024,0.0314,0.0000,1.0000,0.5000,1.0000,0.0000
26.994,Upwind,750.017,0.122,749.890,0.122,3.873,3.873,129.686,0.015,0.019,0.223,-0.002,-0.0024,0.0309,0.0000,1.0000,0.5000,1.0000,0.0000
27.196,Upwind,763.425,0.127,763.297,0.127,3.876,3.876,130.832,0.015,0.020,0.219,-0.002,-0.0025,0.0303,0.0000,1.0000,0.5000,1.0000,0.0000
27.392,Upwind,776.941,0.132,776.813,0.132,3.878,3.878,131.799,0.015,0.020,0.216,-0.002,-0.0026,0.0299,0.0000,1.0000,0.5000,1.0000,0.0000
27.593,Upwind,790.565,0.138,790.438,0.138,3.881,3.881,132.850,0.015,0.021,0.212,-0.002,-0.0027,0.0293,0.0000,1.0000,0.5000,1.0000,0.0000
27.795,Upwind,804.298,0.144,804.170,0.144,3.885,3.885,133.987,0.015,0.021,0.208,-0.002,-0.0028,0.0288,0.0000,1.0000,0.5000,1.0000,0.0000
27.996,Upwind,818.138,0.149,818.010,0.149,3.887,3.887,135.033,0.015,0.022,0.205,-0.002,-0.0028,0.0283,0.0000,1.0000,0.5000,1.0000,0.0000
28.188,Upwind,832.086,0.155,831.958,0.155,3.890,3.890,135.990,0.015,0.023,0.201,-0.002,-0.0029,0.0278,0.0000,1.0000,0.5000,1.0000,0.0000
28.390,Upwind,846.141,0.162,846.013,0.162,3.893,3.893,137.031,0.015,0.023,0.198,-0.002,-0.0030,0.0273,0.0000,1.0000,0.5000,1.0000,0.0000
28.591,Upwind,860.303,0.168,860.175,0.168,3.896,3.896,138.069,0.015,0.024,0.194,-0.002,-0.0031,0.0268,0.0000,1.0000,0.5000,1.0000,0.0000
28.795,Upwind,874.572,0.175,874.444,0.175,3.899,3.899,139.191,0.015,0.024,0.190,-0.002,-0.0032,0.0262,0.0000,1.0000,0.5000,1.0000,0.0000
28.997,Upwind,888.947,0.182,888.819,0.182,3.902,3.902,140.224,0.015,0.025,0.186,-0.002,-0.0032,0.0257,0.0000,1.0000,0.5000,1.0000,0.0000
29.198,Upwind,903.428,0.189,903.300,0.189,3.905,3.906,141.255,0.015,0.025,0.182,-0.003,-0.0033,0.0251,0.0000,1.0000,0.5000,1.0000,0.0000
29.396,Upwind,918.015,0.196,917.887,0.196,3.909,3.909,142.282,0.015,0.026,0.179,-0.003,-0.0034,0.0246,0.0000,1.0000,0.5000,1.0000,0.0000
29.598,Upwind,932.708,0.203,932.580,0.203,3.912,3.912,143.307,0.015,0.027,0.175,-0.003,-0.0035,0.0241,0.0000,1.0000,0.5000,1.0000,0.0000
29.788,Upwind,947.506,0.211,947.378,0.211,3.914,3.914,144.244,0.015,0.027,0.171,-0.003,-0.0036,0.0236,0.0000,1.0000,0.5000,1.0000,0.0000
29.993,Upwind,962.409,0.219,962.281,0.219,3.917,3.918,145.264,0.015,0.028,0.168,-0.003,-0.0037,0.0231,0.0000,1.0000,0.5000,1.0000,0.0000
30.194,Upwind,977.417,0.227,977.289,0.227,3.921,3.921,146.365,0.016,0.028,0.163,-0.003,-0.0038,0.0225,0.0000,1.0000,0.5000,1.0000,0.0000
30.391,Upwind,992.529,0.235,992.402,0.235,3.924,3.924,147.295,0.016,0.029,0.160,-0.003,-0.0039,0.0220,0.0000,1.0000,0.5000,1.0000,0.0000
30.594,Upwind,1007.746,0.243,1007.618,0.243,3.927,3.927,148.306,0.016,0.029,0.156,-0.003,-0.0040,0.0215,0.0000,1.0000,0.5000,1.0000,0.0000
30.797,Upwind,1023.066,0.252,1022.938,0.252,3.930,3.930,149.399,0.016,0.030,0.152,-0.004,-0.0041,0.0209,0.0000,1.0000,0.5000,1.0000,0.0000
30.990,Upwind,1038.490,0.261,1038.362,0.261,3.933,3.933,150.321,0.015,0.031,0.149,-0.004,-0.0042,-0.0099,0.0000,1.0000,0.5000,1.0000,0.0000
31.194,Upwind,1054.017,0.270,1053.890,0.270,3.935,3.935,151.323,0.005,0.031,0.152,-0.004,-0.0043,-0.1014,0.0000,1.0000,0.5000,1.0000,0.0000
31.397,Upwind,1069.647,0.279,1069.520,0.279,3.935,3.935,152.400,-0.008,0.032,0.170,-0.004,-0.0044,-0.1931,0.0000,1.0000,0.5000,1.0000,0.0000
31.588,Upwind,1085.379,0.289,1085.252,0.289,3.933,3.933,153.304,-0.007,0.033,0.188,-0.004,-0.0045,-0.2787,0.0000,1.0000,0.5000,1.0000,0.0000
31.797,Upwind,1101.212,0.299,1101.084,0.299,3.932,3.932,154.363,-0.002,0.033,0.206,-0.004,-0.0046,-0.3731,0.0000,1.0000,0.5000,1.0000,0.0000
31.996,Upwind,1117.145,0.309,1117.017,0.309,3.932,3.932,155.331,0.006,0.034,0.224,-0.005,-0.0047,-0.4627,0.0000,1.0000,0.5000,1.0000,0.0000
32.191,Upwind,1133.177,0.319,1133.049,0.319,3.935,3.935,156.212,0.029,0.035,0.268,-0.005,-0.0048,-0.5501,0.0000,1.0000,0.5000,1.0000,0.0000
32.397,Upwind,1149.307,0.329,1149.180,0.329,3.946,3.946,157.242,0.071,0.036,0.408,-0.005,-0.0049,-0.6428,0.0000,1.0000,0.5000,1.0000,0.0000
32.595,Upwind,1165.535,0.340,1165.407,0.340,3.964,3.964,158.105,0.127,0.036,0.637,-0.005,-0.0050,-0.6500,0.0000,1.0000,0.5000,1.0000,0.0000
32.788,Upwind,1181.859,0.351,1181.732,0.351,3.996,3.996,159.040,0.191,0.037,1.006,-0.005,-0.0051,-0.6500,0.0000,1.0000,0.5000,1.0000,0.0000
32.988,Upwind,1198.279,0.362,1198.152,0.362,4.039,4.039,159.967,0.245,0.038,1.492,-0.005,-0.0053,-0.6500,0.0000,1.0000,0.5000,1.0000,0.0000
33.189,Upwind,1214.794,0.374,1214.667,0.374,4.093,4.093,160.885,0.293,0.038,2.084,-0.006,-0.0054,-0.6500,0.0000,1.0000,0.5000,1.0000,0.0000
33.396,Upwind,1231.403,0.386,1231.275,0.386,4.162,4.162,161.867,0.338,0.039,2.835,-0.006,-0.0055,-0.6500,0.0000,1.0000,0.5000,1.0000,0.0000
33.597,Upwind,1248.104,0.398,1247.976,0.398,4.233,4.233,162.760,0.375,0.040,3.619,-0.006,-0.0056,-0.6500,0.0000,1.0000,0.5000,1.0000,0.0000
33.795,Upwind,1264.896,0.410,1264.769,0.410,4.329,4.329,163.633,0.673,0.041,4.474,-0.009,-0.0053,-0.6500,0.0000,1.0000,0.5000,1.0000,0.0000
33.991,Upwind,1281.777,0.423,1281.649,0.423,4.512,4.512,164.407,1.398,0.041,5.290,-0.017,-0.0048,-0.6500,0.0000,1.0000,0.5000,1.0000,0.0000
34.189,Upwind,1298.742,0.436,1298.614,0.436,4.909,4.909,165.216,2.638,0.042,6.183,-0.029,-0.0043,-0.6500,0.0000,1.0000,0.5000,1.0000,0.0000
34.395,Upwind,1315.787,0.448,1315.659,0.448,5.594,5.594,165.983,4.279,0.042,7.053,-0.043,-0.0037,-0.6500,0.0000,1.0000,0.5000,1.0000,0.0000
34.606,Upwind,1334.337,0.462,1334.209,0.462,6.747,6.747,166.763,6.415,0.042,7.949,-0.060,-0.0031,-0.6500,0.0000,1.0000,0.5000,1.0000,0.0000
34.795,Upwind,1350.095,0.474,1349.968,0.474,8.248,8.248,167.431,8.625,0.041,8.722,-0.075,-0.0025,-0.6500,0.0000,1.0000,0.5000,1.0000,0.0000
34.991,Upwind,1367.347,0.487,1367.219,0.487,10.025,10.025,167.999,10.776,0.040,9.382,-0.088,-0.0020,-0.6500,0.0000,1.0000,0.5000,1.0000,0.0000
35.190,Upwind,1384.653,0.499,1384.526,0.499,12.424,12.424,168.569,13.233,0.039,10.048,-0.101,-0.0015,-0.6500,0.0000,1.0000,0.5000,1.0000,0.0000
35.389,Upwind,1402.009,0.510,1401.881,0.510,15.323,15.323,169.088,15.761,0.036,10.664,-0.112,-0.0010,-0.6500,0.0000,1.0000,0.5000,1.0000,0.0000
35.590,Upwind,1419.408,0.521,1419.280,0.521,18.731,18.731,169.559,18.323,0.033,11.235,-0.121,-0.0005,-0.6251,0.0000,1.0000,0.5000,1.0000,0.0000
35.788,Upwind,1436.843,0.531,1436.715,0.531,22.652,22.652,169.985,20.884,0.029,11.756,-0.128,-0.0001,-0.5955,0.0001,1.0000,0.5000,1.0000,0.0000
35.989,Upwind,1454.309,0.540,1454.182,0.540,27.082,27.082,170.369,23.407,0.025,12.220,-0.132,0.0003,-0.5653,0.0001,1.0000,0.5000,1.0000,0.0000
36.191,Upwind,1471.802,0.549,1471.674,0.549,32.011,32.011,170.714,25.874,0.021,12.621,-0.135,0.0007,-0.5351,0.0001,1.0000,0.5000,1.0000,0.0000
36.395,Upwind,1489.316,0.556,1489.188,0.556,37.898,37.898,171.050,28.452,0.016,12.980,-0.135,0.0010,-0.5044,0.0001,1.0000,0.5000,1.0000,0.0000
36.594,Upwind,1506.847,0.563,1506.720,0.563,43.818,43.819,171.328,30.734,0.011,13.243,-0.133,0.0013,-0.4746,0.0001,1.0000,0.5000,1.0000,0.0000
36.791,Upwind,1524.394,0.569,1524.266,0.569,49.637,49.637,171.560,32.725,0.007,13.425,-0.131,0.0015,-0.4451,0.0001,1.0000,0.5000,1.0000,0.0000
36.990,Upwind,1541.952,0.574,1541.824,0.574,56.389,56.389,171.791,34.770,0.003,13.563,-0.126,0.0017,-0.4152,0.0001,1.0000,0.5000,1.0000,0.0000
37.189,Upwind,1559.520,0.578,1559.393,0.578,63.535,63.535,172.004,36.663,359.999,13.641,-0.121,0.0018,-0.3853,0.0001,1.0000,0.5000,1.0000,0.0000
37.388,Upwind,1577.098,0.581,1576.970,0.581,71.044,71.044,172.202,38.399,359.996,13.662,-0.115,0.0018,-0.3554,0.0001,1.0000,0.5000,1.0000,0.0000
37.587,Upwind,1594.684,0.584,1594.556,0.584,78.883,78.884,172.391,39.967,359.993,13.629,-0.109,0.0018,-0.3256,0.0001,1.0000,0.5000,1.0000,0.0000
37.789,Upwind,1612.279,0.586,1612.151,0.586,87.018,87.019,172.574,41.356,359.991,13.547,-0.102,0.0018,-0.2954,0.0000,1.0000,0.5000,1.0000,0.0000
37.994,Upwind,1629.884,0.587,1629.756,0.587,95.414,95.414,172.754,42.566,359.989,13.417,-0.095,0.0016,-0.2647,0.0000,1.0000,0.5000,1.0000,0.0000
38.194,Upwind,1647.500,0.588,1647.372,0.588,104.759,104.760,172.947,43.666,359.988,13.226,-0.087,0.0014,-0.2346,0.0000,0.9990,0.5000,1.0000,0.0000
38.395,Upwind,1665.128,0.588,1665.000,0.588,113.578,113.578,173.123,44.487,359.988,13.007,-0.081,0.0012,-0.2415,0.0000,0.9965,0.5000,1.0000,0.0000
38.594,Upwind,1682.770,0.588,1682.642,0.588,121.789,121.789,173.279,45.055,359.988,12.785,-0.075,0.0010,-0.2896,0.0000,0.9943,0.5000,1.0000,0.0000
38.795,Upwind,1700.427,0.587,1700.299,0.587,130.846,130.846,173.445,45.488,359.989,12.569,-0.069,0.0008,-0.3326,0.0000,0.9920,0.5000,1.0000,0.0000
38.989,Upwind,1718.099,0.586,1717.972,0.586,139.974,139.975,173.605,45.773,359.989,12.414,-0.064,0.0006,-0.3592,0.0000,0.9897,0.5000,1.0000,0.0000
39.191,Upwind,1735.789,0.585,1735.661,0.585,149.149,149.150,173.761,45.972,359.990,12.340,-0.060,0.0004,-0.3675,0.0000,0.9875,0.5000,1.0000,0.0000
39.397,Upwind,1753.495,0.584,1753.367,0.584,159.130,159.131,173.922,46.160,359.991,12.350,-0.056,0.0002,-0.3583,0.0000,0.9852,0.5000,1.0000,0.0000
39.590,Upwind,1771.217,0.582,1771.089,0.582,167.609,167.610,174.051,46.341,359.991,12.417,-0.053,0.0000,-0.3388,0.0000,0.9834,0.5000,1.0000,0.0000
39.787,Upwind,1788.953,0.581,1788.825,0.581,176.901,176.901,174.184,46.588,359.992,12.529,-0.050,-0.0001,-0.3126,0.0000,0.9816,0.5000,1.0000,0.0000
39.994,Upwind,1806.702,0.579,1806.574,0.579,186.248,186.249,174.307,46.897,359.992,12.655,-0.048,-0.0002,-0.2840,0.0000,0.9798,0.5000,1.0000,0.0000
40.198,Upwind,1824.463,0.577,1824.335,0.577,196.451,196.452,174.430,47.294,359.993,12.781,-0.047,-0.0002,-0.2586,0.0000,0.9781,0.5000,1.0000,0.0000
40.388,Upwind,1842.233,0.575,1842.106,0.575,205.155,205.156,174.525,47.664,359.993,12.862,-0.046,-0.0002,-0.2439,0.0000,0.9768,0.5000,1.0000,0.0000
40.590,Upwind,1860.013,0.573,1859.885,0.573,214.729,214.730,174.621,48.077,359.993,12.916,-0.045,-0.0003,-0.2356,0.0000,0.9754,0.5000,1.0000,0.0000
40.792,Upwind,1877.800,0.571,1877.672,0.571,224.385,224.386,174.710,48.476,359.993,12.933,-0.044,-0.0002,-0.2348,0.0000,0.9742,0.5000,1.0000,0.0000
40.996,Upwind,1895.595,0.568,1895.468,0.568,234.931,234.932,174.798,48.870,359.992,12.920,-0.044,-0.0002,-0.2401,0.0000,0.9729,0.5000,1.0000,0.0000
41.199,Upwind,1913.397,0.566,1913.270,0.566,244.738,244.739,174.875,49.185,359.992,12.888,-0.044,-0.0002,-0.2483,0.0000,0.9719,0.5000,1.0000,0.0000
41.398,Upwind,1931.207,0.564,1931.079,0.564,254.602,254.603,174.947,49.451,359.992,12.849,-0.044,-0.0001,-0.2569,0.0000,0.9709,0.5000,1.0000,0.0000
41.590,Upwind,1949.024,0.561,1948.897,0.561,263.687,263.689,175.010,49.655,359.991,12.816,-0.044,-0.0001,-0.2633,0.0000,0.9700,0.5000,1.0000,0.0000
41.789,Upwind,1966.849,0.559,1966.722,0.559,273.637,273.639,175.075,49.842,359.991,12.791,-0.044,0.0000,-0.2676,0.0000,0.9691,0.5000,1.0000,0.0000
41.993,Upwind,1984.681,0.556,1984.554,0.556,283.622,283.624,175.137,50.004,359.990,12.780,-0.044,0.0000,-0.2685,0.0000,0.9682,0.5000,1.0000,0.0000
42.196,Upwind,2002.521,0.553,2002.393,0.553,293.638,293.640,175.195,50.154,359.990,12.784,-0.043,0.0001,-0.2664,0.0000,0.9674,0.5000,1.0000,0.0000
42.389,Upwind,2020.367,0.551,2020.240,0.551,303.684,303.685,175.250,50.300,359.989,12.800,-0.043,0.0001,-0.2619,0.0000,0.9666,0.5000,1.0000,0.0000
42.591,Upwind,2038.221,0.548,2038.093,0.548,313.758,313.760,175.301,50.448,359.989,12.824,-0.043,0.0002,-0.2562,0.0000,0.9659,0.5000,1.0000,0.0000
42.792,Upwind,2056.080,0.545,2055.952,0.545,323.863,323.865,175.348,50.603,359.988,12.851,-0.042,0.0002,-0.2503,0.0000,0.9652,0.5000,1.0000,0.0000
42.993,Upwind,2073.945,0.542,2073.817,0.542,334.000,334.001,175.393,50.762,359.988,12.876,-0.042,0.0002,-0.2452,0.0000,0.9646,0.5000,1.0000,0.0000
43.188,Upwind,2091.816,0.539,2091.688,0.539,344.168,344.170,175.433,50.923,359.988,12.896,-0.041,0.0003,-0.2414,0.0000,0.9640,0.5000,1.0000,0.0000
43.390,Upwind,2109.691,0.536,2109.563,0.536,354.369,354.370,175.471,51.082,359.987,12.909,-0.040,0.0003,-0.2391,0.0000,0.9635,0.5000,1.0000,0.0000
43.590,Upwind,2127.572,0.533,2127.444,0.533,364.600,364.602,175.505,51.233,359.987,12.916,-0.039,0.0002,-0.2382,0.0000,0.9630,0.5000,1.0000,0.0000
43.795,Upwind,2145.457,0.529,2145.329,0.529,375.717,375.719,175.540,51.386,359.987,12.917,-0.038,0.0002,-0.2385,0.0000,0.9625,0.5000,1.0000,0.0000
43.997,Upwind,2163.346,0.526,2163.219,0.526,386.008,386.009,175.569,51.514,359.987,12.914,-0.037,0.0002,-0.2394,0.0000,0.9621,0.5000,1.0000,0.0000
44.196,Upwind,2181.240,0.523,2181.113,0.523,396.322,396.324,175.596,51.628,359.987,12.909,-0.036,0.0002,-0.2404,0.0000,0.9618,0.5000,1.0000,0.0000
44.390,Upwind,2199.139,0.519,2199.011,0.519,405.796,405.798,175.620,51.723,359.987,12.905,-0.035,0.0002,-0.2412,0.0000,0.9614,0.5000,1.0000,0.0000
44.589,Upwind,2217.041,0.516,2216.913,0.516,416.150,416.152,175.643,51.816,359.987,12.903,-0.035,0.0002,-0.2416,0.0000,0.9611,0.5000,1.0000,0.0000
44.792,Upwind,2234.948,0.513,2234.820,0.513,426.522,426.524,175.665,51.901,359.987,12.902,-0.034,0.0001,-0.2414,0.0000,0.9608,0.5000,1.0000,0.0000
44.989,Upwind,2252.859,0.509,2252.731,0.509,436.910,436.912,175.686,51.981,359.987,12.905,-0.033,0.0001,-0.2406,0.0000,0.9605,0.5000,1.0000,0.0000
45.192,Upwind,2270.774,0.506,2270.646,0.506,447.314,447.316,175.705,52.057,359.987,12.909,-0.032,0.0001,-0.2395,0.0000,0.9602,0.5000,1.0000,0.0000
45.390,Upwind,2288.693,0.502,2288.565,0.502,457.732,457.735,175.722,52.130,359.987,12.915,-0.031,0.0001,-0.2381,0.0000,0.9600,0.5000,1.0000,0.0000
45.593,Upwind,2306.615,0.499,2306.488,0.499,468.166,468.168,175.738,52.202,359.987,12.921,-0.030,0.0001,-0.2367,0.0000,0.9597,0.5000,1.0000,0.0000
45.797,Upwind,2324.542,0.495,2324.414,0.495,479.484,479.486,175.754,52.278,359.987,12.928,-0.030,0.0001,-0.2354,0.0000,0.9595,0.5000,1.0000,0.0000
45.997,Upwind,2342.471,0.492,2342.344,0.492,489.946,489.949,175.767,52.345,359.988,12.933,-0.029,0.0000,-0.2344,0.0000,0.9593,0.5000,1.0000,0.0000
46.196,Upwind,2360.404,0.489,2360.276,0.489,500.422,500.424,175.779,52.411,359.988,12.936,-0.029,0.0000,-0.2337,0.0000,0.9592,0.5000,1.0000,0.0000
46.391,Upwind,2378.340,0.485,2378.213,0.485,510.036,510.038,175.788,52.468,359.988,12.939,-0.028,0.0000,-0.2334,0.0000,0.9590,0.5000,1.0000,0.0000
46.599,Upwind,2396.280,0.482,2396.152,0.482,521.411,521.413,175.799,52.531,359.988,12.940,-0.028,0.0000,-0.2331,0.0000,0.9589,0.5000,1.0000,0.0000
46.797,Upwind,2414.222,0.479,2414.095,0.479,531.922,531.925,175.807,52.585,359.988,12.941,-0.028,0.0000,-0.2331,0.0000,0.9588,0.5000,1.0000,0.0000
46.995,Upwind,2432.168,0.475,2432.041,0.475,541.567,541.570,175.814,52.631,359.988,12.941,-0.028,0.0000,-0.2331,0.0000,0.9587,0.5000,1.0000,0.0000
47.192,Upwind,2450.117,0.472,2449.989,0.472,552.098,552.101,175.821,52.677,359.988,12.941,-0.028,0.0001,-0.2330,0.0000,0.9586,0.5000,1.0000,0.0000
47.389,Upwind,2468.069,0.469,2467.941,0.469,562.638,562.640,175.827,52.720,359.988,12.941,-0.027,0.0000,-0.2329,0.0000,0.9585,0.5000,1.0000,0.0000
47.589,Upwind,2486.023,0.465,2485.896,0.465,573.186,573.188,175.832,52.760,359.988,12.942,-0.027,0.0001,-0.2327,0.0000,0.9584,0.5000,1.0000,0.0000
47.797,Upwind,2503.981,0.462,2503.854,0.462,584.621,584.624,175.837,52.800,359.988,12.943,-0.027,0.0000,-0.2324,0.0000,0.9584,0.5000,1.0000,0.0000
47.999,Upwind,2521.941,0.459,2521.814,0.459,595.185,595.188,175.841,52.836,359.988,12.944,-0.027,0.0000,-0.2321,0.0000,0.9583,0.5000,1.0000,0.0000
48.193,Upwind,2539.905,0.456,2539.777,0.456,604.874,604.877,175.844,52.867,359.988,12.946,-0.027,0.0001,-0.2317,0.0000,0.9583,0.5000,1.0000,0.0000
48.391,Upwind,2557.871,0.453,2557.743,0.453,615.451,615.454,175.846,52.899,359.989,12.948,-0.027,0.0000,-0.2314,0.0000,0.9582,0.5000,1.0000,0.0000
48.594,Upwind,2575.840,0.450,2575.712,0.450,626.034,626.037,175.848,52.930,359.989,12.949,-0.026,0.0000,-0.2310,0.0000,0.9582,0.5000,1.0000,0.0000
48.794,Upwind,2593.811,0.446,2593.683,0.446,636.622,636.626,175.850,52.959,359.989,12.951,-0.026,0.0000,-0.2307,0.0000,0.9582,0.5000,1.0000,0.0000
48.993,Upwind,2611.785,0.443,2611.657,0.443,647.217,647.220,175.851,52.987,359.989,12.952,-0.026,0.0001,-0.2305,0.0000,0.9582,0.5000,1.0000,0.0000
49.190,Upwind,2629.762,0.440,2629.634,0.440,657.817,657.820,175.851,53.014,359.989,12.953,-0.026,0.0001,-0.2303,0.0000,0.9582,0.5000,1.0000,0.0000
49.388,Upwind,2647.741,0.437,2647.613,0.437,668.423,668.426,175.851,53.039,359.989,12.953,-0.026,0.0001,-0.2302,0.0000,0.9582,0.5000,1.0000,0.0000
49.592,Upwind,2665.723,0.435,2665.595,0.435,679.033,679.036,175.851,53.063,359.989,12.954,-0.026,0.0000,-0.2301,0.0000,0.9582,0.5000,1.0000,0.0000
49.791,Upwind,2683.707,0.432,2683.580,0.432,689.648,689.651,175.850,53.085,359.989,12.954,-0.026,0.0000,-0.2301,0.0000,0.9582,0.5000,1.0000,0.0000
49.990,Upwind,2701.694,0.429,2701.566,0.429,700.267,700.270,175.849,53.105,359.989,12.955,-0.026,0.0000,-0.2300,0.0000,0.9582,0.5000,1.0000,0.0000
50.196,Upwind,2719.683,0.426,2719.555,0.426,710.890,710.893,175.847,53.125,359.990,12.955,-0.026,0.0000,-0.2299,0.0000,0.9582,0.5000,1.0000,0.0000
50.390,Upwind,2737.675,0.423,2737.548,0.423,721.516,721.520,175.845,53.143,359.990,12.955,-0.026,0.0001,-0.2298,0.0000,0.9582,0.5000,1.0000,0.0000
50.594,Upwind,2755.669,0.420,2755.542,0.420,732.146,732.150,175.843,53.160,359.990,12.956,-0.026,0.0000,-0.2297,0.0000,0.9583,0.5000,1.0000,0.0000
50.791,Upwind,2773.666,0.418,2773.538,0.418,742.780,742.784,175.841,53.176,359.990,12.956,-0.026,0.0000,-0.2296,0.0000,0.9583,0.5000,1.0000,0.0000
50.998,Upwind,2791.665,0.415,2791.537,0.415,753.417,753.420,175.838,53.191,359.990,12.957,-0.026,0.0000,-0.2295,0.0000,0.9583,0.5000,1.0000,0.0000
51.190,Upwind,2809.667,0.412,2809.539,0.412,764.056,764.060,175.835,53.206,359.990,12.957,-0.026,0.0001,-0.2294,0.0000,0.9584,0.5000,1.0000,0.0000
51.393,Upwind,2827.670,0.410,2827.542,0.410,774.699,774.703,175.832,53.220,359.990,12.958,-0.026,0.0000,-0.2293,0.0000,0.9584,0.5000,0.0000,0.0000
51.589,Upwind,2845.677,0.407,2845.549,0.407,785.344,785.348,175.830,53.233,359.990,12.958,-0.026,0.0000,-0.2293,0.0000,0.9584,0.5000,0.0000,0.0000
51.788,Upwind,2863.685,0.405,2863.558,0.405,795.992,795.996,175.832,53.247,359.991,12.957,-0.026,0.0000,-0.2295,0.0000,0.9584,0.5000,0.0000,0.0000
51.990,Upwind,2881.698,0.402,2881.570,0.402,806.643,806.647,175.835,53.261,359.991,12.956,-0.026,0.0001,-0.2299,0.0000,0.9584,0.5000,0.0000,0.0000
52.187,Upwind,2899.712,0.400,2899.585,0.400,817.296,817.300,175.840,53.273,359.991,12.953,-0.026,0.0000,-0.2305,0.0000,0.9583,0.5000,0.0000,0.0000
52.392,Upwind,2917.731,0.397,2917.604,0.397,827.952,827.956,175.848,53.285,359.991,12.950,-0.026,0.0000,-0.2312,0.0000,0.9582,0.5000,0.0000,0.0000
52.597,Upwind,2935.754,0.395,2935.626,0.395,839.498,839.503,175.859,53.297,359.991,12.947,-0.026,0.0000,-0.2321,0.0000,0.9580,0.5000,0.0000,0.0000
52.795,Upwind,2953.780,0.393,2953.652,0.393,850.159,850.163,175.870,53.306,359.991,12.943,-0.026,0.0000,-0.2329,0.0000,0.9579,0.5000,0.0000,0.0000
52.993,Upwind,2971.810,0.390,2971.682,0.390,859.932,859.936,175.883,53.314,359.991,12.940,-0.026,0.0000,-0.2337,0.0000,0.9577,0.5000,0.0000,0.0000
53.193,Upwind,2989.844,0.388,2989.717,0.388,870.596,870.600,175.898,53.323,359.991,12.936,-0.026,0.0000,-0.2344,0.0000,0.9575,0.5000,0.0000,0.0000
53.392,Upwind,3007.883,0.386,3007.756,0.386,881.261,881.265,175.915,53.331,359.992,12.933,-0.026,0.0000,-0.2351,0.0000,0.9573,0.5000,0.0000,0.0000
53.594,Upwind,3025.927,0.384,3025.800,0.384,892.817,892.821,175.936,53.340,359.992,12.930,-0.026,0.0000,-0.2357,0.0000,0.9570,0.5000,0.0000,0.0000
53.798,Upwind,3043.976,0.382,3043.848,0.382,903.486,903.490,175.957,53.349,359.992,12.927,-0.026,0.0000,-0.2362,0.0000,0.9567,0.5000,0.0000,0.0000
53.996,Upwind,3062.030,0.380,3061.902,0.380,914.157,914.161,175.979,53.359,359.992,12.925,-0.026,0.0000,-0.2368,0.0000,0.9564,0.5000,0.0000,0.0000
54.190,Upwind,3080.089,0.378,3079.962,0.378,923.940,923.945,176.000,53.369,359.992,12.923,-0.026,0.0000,-0.2372,0.0000,0.9561,0.5000,0.0000,0.0000
54.391,Upwind,3098.152,0.376,3098.024,0.376,934.615,934.620,176.026,53.381,359.992,12.921,-0.026,0.0000,-0.2377,0.0000,0.9557,0.5000,0.0000,0.0000
54.596,Upwind,3116.223,0.374,3116.096,0.374,946.183,946.187,176.054,53.395,359.992,12.918,-0.026,0.0000,-0.2383,0.0000,0.9553,0.5000,0.0000,0.0000
54.792,Upwind,3134.298,0.372,3134.170,0.372,955.973,955.977,176.080,53.408,359.992,12.916,-0.026,0.0000,-0.2388,0.0000,0.9550,0.5000,0.0000,0.0000
54.995,Upwind,3152.379,0.370,3152.251,0.370,966.656,966.660,176.109,53.423,359.993,12.913,-0.026,0.0000,-0.2394,0.0000,0.9545,0.5000,0.0000,0.0000
55.194,Upwind,3170.466,0.368,3170.338,0.368,977.342,977.346,176.140,53.438,359.993,12.910,-0.026,0.0000,-0.2400,0.0000,0.9541,0.5000,0.0000,0.0000
55.399,Upwind,3188.559,0.366,3188.431,0.366,988.922,988.927,176.174,53.456,359.993,12.907,-0.026,0.0000,-0.2407,0.0000,0.9536,0.5000,0.0000,0.0000
55.589,Upwind,3206.658,0.364,3206.530,0.364,998.723,998.728,176.204,53.471,359.993,12.905,-0.026,0.0000,-0.2413,0.0000,0.9532,0.5000,0.0000,0.0000
55.794,Upwind,3224.763,0.362,3224.635,0.362,1010.311,1010.316,176.241,53.491,359.993,12.902,-0.026,0.0000,-0.2419,0.0000,0.9527,0.5000,0.0000,0.0000
55.990,Upwind,3242.874,0.361,3242.746,0.361,1020.119,1020.124,176.273,53.508,359.993,12.899,-0.027,0.0000,-0.2425,0.0000,0.9522,0.5000,0.0000,0.0000
56.197,Upwind,3260.994,0.359,3260.866,0.359,1031.715,1031.720,176.312,53.529,359.993,12.896,-0.027,0.0000,-0.2431,0.0000,0.9517,0.5000,0.0000,0.0000
56.388,Upwind,3279.118,0.357,3278.990,0.357,1041.530,1041.535,176.346,53.548,359.993,12.894,-0.027,0.0000,-0.2436,0.0000,0.9512,0.5000,0.0000,0.0000
56.597,Upwind,3297.250,0.356,3297.123,0.356,1053.134,1053.139,176.385,53.570,359.993,12.892,-0.027,0.0000,-0.2441,0.0000,0.9507,0.5000,0.0000,0.0000
56.788,Upwind,3315.386,0.354,3315.258,0.354,1062.957,1062.962,176.416,53.589,359.994,12.890,-0.027,0.0000,-0.2443,0.0000,0.9503,0.5000,0.0000,0.0000
56.996,Upwind,3333.531,0.352,3333.403,0.352,1074.571,1074.576,176.451,53.613,359.994,12.889,-0.027,0.0000,-0.2444,0.0000,0.9498,0.5000,0.0000,0.0000
57.196,Upwind,3351.681,0.351,3351.554,0.351,1084.401,1084.407,176.479,53.634,359.994,12.889,-0.027,0.0000,-0.2443,0.0000,0.9494,0.5000,0.0000,0.0000
57.393,Upwind,3369.835,0.349,3369.708,0.349,1095.130,1095.136,176.509,53.658,359.994,12.890,-0.027,0.0000,-0.2440,0.0000,0.9489,0.5000,0.0000,0.0000
57.591,Upwind,3387.999,0.348,3387.871,0.348,1105.864,1105.870,176.537,53.683,359.994,12.892,-0.027,0.0000,-0.2437,0.0000,0.9486,0.5000,0.0000,0.0000
57.794,Upwind,3406.165,0.347,3406.037,0.347,1116.604,1116.609,176.564,53.710,359.994,12.893,-0.027,0.0000,-0.2434,0.0000,0.9482,0.5000,0.0000,0.0000
57.992,Upwind,3424.337,0.345,3424.209,0.345,1127.348,1127.354,176.589,53.738,359.994,12.895,-0.027,0.0000,-0.2431,0.0000,0.9478,0.5000,0.0000,0.0000
58.196,Upwind,3442.515,0.344,3442.387,0.344,1138.995,1139.000,176.615,53.769,359.994,12.896,-0.027,0.0000,-0.2428,0.0000,0.9475,0.5000,0.0000,0.0000
58.396,Upwind,3460.696,0.342,3460.569,0.342,1149.752,1149.757,176.638,53.799,359.994,12.897,-0.027,0.0000,-0.2426,0.0000,0.9471,0.5000,0.0000,0.0000
58.591,Upwind,3478.884,0.341,3478.756,0.341,1159.617,1159.623,176.658,53.826,359.994,12.898,-0.027,0.0000,-0.2425,0.0000,0.9469,0.5000,0.0000,0.0000
58.791,Upwind,3497.077,0.340,3496.949,0.340,1170.385,1170.391,176.678,53.855,359.995,12.898,-0.027,0.0000,-0.2425,0.0000,0.9466,0.5000,0.0000,0.0000
58.989,Upwind,3515.274,0.339,3515.146,0.339,1181.159,1181.165,176.697,53.884,359.995,12.898,-0.027,0.0000,-0.2424,0.0000,0.9463,0.5000,0.0000,0.0000
59.187,Upwind,3533.476,0.337,3533.349,0.337,1191.939,1191.944,176.716,53.912,359.995,12.898,-0.027,0.0000,-0.2424,0.0000,0.9461,0.5000,0.0000,0.0000
59.399,Upwind,3551.682,0.336,3551.554,0.336,1203.623,1203.629,176.734,53.942,359.995,12.898,-0.027,0.0000,-0.2424,0.0000,0.9458,0.5000,0.0000,0.0000
59.597,Upwind,3569.894,0.335,3569.766,0.335,1214.414,1214.420,176.750,53.969,359.995,12.899,-0.027,0.0000,-0.2423,0.0000,0.9456,0.5000,0.0000,0.0000
59.793,Upwind,3588.109,0.334,3587.981,0.334,1224.310,1224.316,176.764,53.994,359.995,12.899,-0.027,0.0000,-0.2422,0.0000,0.9454,0.5000,0.0000,0.0000
59.997,Upwind,3606.327,0.333,3606.199,0.333,1236.012,1236.018,176.779,54.022,359.995,12.900,-0.028,0.0000,-0.2420,0.0000,0.9452,0.5000,0.0000,0.0000
60.190,Upwind,3624.551,0.332,3624.423,0.332,1245.918,1245.924,176.791,54.046,359.995,12.900,-0.028,0.0000,-0.2419,0.0000,0.9450,0.5000,0.0000,0.0000
60.395,Upwind,3642.778,0.331,3642.650,0.331,1257.631,1257.637,176.805,54.073,359.995,12.901,-0.028,0.0000,-0.2417,0.0000,0.9448,0.5000,0.0000,0.0000
60.598,Upwind,3661.008,0.330,3660.880,0.330,1268.448,1268.454,176.816,54.098,359.995,12.902,-0.028,0.0000,-0.2415,0.0000,0.9446,0.5000,0.0000,0.0000
60.797,Upwind,3679.244,0.329,3679.116,0.329,1279.270,1279.276,176.827,54.123,359.996,12.903,-0.028,0.0000,-0.2414,0.0000,0.9445,0.5000,0.0000,0.0000
60.989,Upwind,3697.480,0.328,3697.352,0.328,1289.195,1289.201,176.836,54.145,359.996,12.903,-0.028,0.0000,-0.2412,0.0000,0.9444,0.5000,0.0000,0.0000
61.190,Upwind,3715.722,0.327,3715.595,0.327,1300.026,1300.032,176.845,54.169,359.996,12.904,-0.028,0.0000,-0.2411,0.0000,0.9442,0.5000,0.0000,0.0000
61.390,Upwind,3733.971,0.326,3733.843,0.326,1310.862,1310.869,176.854,54.192,359.996,12.904,-0.028,0.0000,-0.2410,0.0000,0.9441,0.5000,0.0000,0.0000
61.589,Upwind,3752.219,0.325,3752.091,0.325,1321.703,1321.709,176.861,54.215,359.996,12.905,-0.028,0.0000,-0.2409,0.0000,0.9440,0.5000,0.0000,0.0000
61.797,Upwind,3770.474,0.324,3770.346,0.324,1332.548,1332.554,176.869,54.237,359.996,12.905,-0.028,0.0000,-0.2408,0.0000,0.9439,0.5000,0.0000,0.0000
62.002,Upwind,3790.249,0.323,3790.121,0.323,1344.302,1344.308,176.876,54.260,359.996,12.906,-0.028,0.0000,-0.2407,0.0000,0.9438,0.5000,0.0000,0.0000
62.190,Upwind,3806.989,0.323,3806.861,0.323,1354.251,1354.258,176.881,54.279,359.996,12.906,-0.028,0.0000,-0.2406,0.0000,0.9437,0.5000,0.0000,0.0000
62.397,Upwind,3825.252,0.322,3825.125,0.322,1366.014,1366.020,176.887,54.300,359.996,12.906,-0.028,0.0000,-0.2406,0.0000,0.9437,0.5000,0.0000,0.0000
62.594,Upwind,3843.519,0.321,3843.391,0.321,1376.876,1376.882,176.891,54.320,359.996,12.907,-0.028,0.0000,-0.2405,0.0000,0.9436,0.5000,0.0000,0.0000
62.793,Upwind,3861.789,0.321,3861.661,0.321,1386.836,1386.843,176.895,54.337,359.996,12.907,-0.028,0.0000,-0.2404,0.0000,0.9435,0.5000,0.0000,0.0000
62.995,Upwind,3880.062,0.320,3879.934,0.320,1398.611,1398.618,176.899,54.357,359.996,12.908,-0.028,0.0000,-0.2403,0.0000,0.9435,0.5000,0.0000,0.0000
63.189,Upwind,3898.337,0.319,3898.209,0.319,1408.578,1408.585,176.902,54.373,359.997,12.908,-0.028,0.0000,-0.2402,0.0000,0.9434,0.5000,0.0000,0.0000
63.387,Upwind,3916.616,0.319,3916.488,0.319,1419.454,1419.461,176.905,54.390,359.997,12.908,-0.028,0.0000,-0.2401,0.0000,0.9434,0.5000,0.0000,0.0000
63.592,Upwind,3934.898,0.318,3934.770,0.318,1430.334,1430.341,176.907,54.407,359.997,12.909,-0.028,0.0000,-0.2400,0.0000,0.9434,0.5000,0.0000,0.0000
63.795,Upwind,3953.183,0.317,3953.055,0.317,1442.124,1442.131,176.909,54.424,359.997,12.909,-0.028,0.0000,-0.2400,0.0000,0.9434,0.5000,0.0000,0.0000
63.992,Upwind,3971.471,0.317,3971.343,0.317,1452.103,1452.110,176.910,54.438,359.997,12.909,-0.028,-0.0001,-0.2399,0.0000,0.9433,0.5000,0.0000,0.0000
64.199,Upwind,3989.762,0.316,3989.634,0.316,1463.899,1463.906,176.911,54.454,359.997,12.910,-0.029,0.0000,-0.2398,0.0000,0.9433,0.5000,0.0000,0.0000
64.391,Upwind,4008.056,0.316,4007.928,0.316,1473.884,1473.891,176.912,54.468,359.997,12.910,-0.029,0.0000,-0.2398,0.0000,0.9433,0.5000,0.0000,0.0000
64.593,Upwind,4026.353,0.315,4026.226,0.315,1484.779,1484.786,176.912,54.482,359.997,12.910,-0.029,0.0000,-0.2397,0.0000,0.9433,0.5000,0.0000,0.0000
64.790,Upwind,4044.654,0.315,4044.526,0.315,1495.676,1495.684,176.912,54.495,359.997,12.910,-0.029,0.0000,-0.2397,0.0000,0.9433,0.5000,0.0000,0.0000
64.995,Upwind,4062.957,0.314,4062.829,0.314,1507.485,1507.492,176.911,54.509,359.997,12.911,-0.029,0.0000,-0.2397,0.0000,0.9433,0.5000,0.0000,0.0000
65.198,Upwind,4081.263,0.314,4081.135,0.314,1518.388,1518.396,176.910,54.522,359.997,12.911,-0.029,0.0000,-0.2396,0.0000,0.9433,0.5000,0.0000,0.0000
65.390,Upwind,4099.569,0.314,4099.442,0.314,1528.385,1528.392,176.909,54.533,359.997,12.911,-0.029,-0.0001,-0.2396,0.0000,0.9433,0.5000,0.0000,0.0000
65.597,Upwind,4117.882,0.313,4117.754,0.313,1540.202,1540.209,176.908,54.545,359.997,12.911,-0.029,0.0000,-0.2395,0.0000,0.9434,0.5000,0.0000,0.0000
65.787,Upwind,4136.194,0.313,4136.067,0.313,1550.203,1550.210,176.907,54.556,359.998,12.911,-0.030,0.0000,-0.2395,0.0000,0.9434,0.5000,0.0000,0.0000
65.988,Upwind,4154.509,0.313,4154.382,0.312,1561.115,1561.122,176.905,54.567,359.998,12.912,-0.030,-0.0001,-0.2395,0.0000,0.9434,0.5000,0.0000,0.0000
66.191,Upwind,4172.828,0.312,4172.700,0.312,1572.029,1572.037,176.903,54.577,359.998,12.912,-0.030,0.0000,-0.2394,0.0000,0.9434,0.5000,0.0000,0.0000
66.392,Upwind,4191.149,0.312,4191.022,0.312,1582.946,1582.953,176.900,54.587,359.998,12.912,-0.030,0.0000,-0.2394,0.0000,0.9435,0.5000,0.0000,0.0000
66.598,Upwind,4209.474,0.312,4209.347,0.312,1594.774,1594.782,176.897,54.598,359.998,12.912,-0.030,0.0000,-0.2394,0.0000,0.9435,0.5000,0.0000,0.0000
66.789,Upwind,4227.802,0.311,4227.674,0.311,1604.784,1604.792,176.895,54.606,359.998,12.912,-0.030,0.0000,-0.2394,0.0000,0.9436,0.5000,0.0000,0.0000
66.987,Upwind,4246.129,0.311,4246.002,0.311,1615.706,1615.714,176.892,54.615,359.998,12.912,-0.030,0.0000,-0.2393,0.0000,0.9436,0.5000,0.0000,0.0000
67.192,Upwind,4264.463,0.311,4264.335,0.311,1626.630,1626.638,176.888,54.624,359.998,12.912,-0.030,-0.0001,-0.2393,0.0000,0.9436,0.5000,0.0000,0.0000
67.392,Upwind,4282.797,0.311,4282.669,0.311,1637.556,1637.564,176.885,54.632,359.998,12.912,-0.030,0.0000,-0.2393,0.0000,0.9437,0.5000,0.0000,0.0000
67.593,Upwind,4301.133,0.310,4301.006,0.310,1648.483,1648.491,176.881,54.640,359.998,12.912,-0.030,0.0000,-0.2393,0.0000,0.9437,0.5000,0.0000,0.0000
67.797,Upwind,4319.473,0.310,4319.346,0.310,1660.323,1660.331,176.877,54.649,359.998,12.912,-0.030,0.0000,-0.2393,0.0000,0.9438,0.5000,0.0000,0.0000
67.992,Upwind,4337.816,0.310,4337.688,0.310,1670.342,1670.350,176.874,54.655,359.998,12.912,-0.031,0.0000,-0.2393,0.0000,0.9439,0.5000,0.0000,0.0000
68.197,Upwind,4356.159,0.310,4356.032,0.310,1682.185,1682.193,176.869,54.663,359.998,12.912,-0.031,0.0000,-0.2393,0.0000,0.9439,0.5000,0.0000,0.0000
68.398,Upwind,4374.505,0.310,4374.377,0.310,1693.118,1693.126,176.865,54.670,359.998,12.912,-0.031,0.0000,-0.2393,0.0000,0.9440,0.5000,0.0000,0.0000
68.591,Upwind,4392.857,0.309,4392.729,0.309,1703.141,1703.150,176.861,54.676,359.998,12.912,-0.031,0.0000,-0.2393,0.0000,0.9440,0.5000,0.0000,0.0000
68.796,Upwind,4411.209,0.309,4411.082,0.309,1714.989,1714.997,176.856,54.683,359.998,12.912,-0.031,-0.0001,-0.2393,0.0000,0.9441,0.5000,0.0000,0.0000
68.988,Upwind,4429.561,0.309,4429.434,0.309,1725.014,1725.023,176.851,54.688,359.998,12.913,-0.031,0.0000,-0.2393,0.0000,0.9442,0.5000,0.0000,0.0000
69.191,Upwind,4447.919,0.309,4447.792,0.309,1735.952,1735.961,176.847,54.694,359.998,12.913,-0.031,0.0000,-0.2392,0.0000,0.9442,0.5000,0.0000,0.0000
69.392,Upwind,4466.277,0.309,4466.149,0.309,1746.892,1746.900,176.842,54.700,359.998,12.913,-0.031,0.0000,-0.2393,0.0000,0.9443,0.5000,0.0000,0.0000
69.595,Upwind,4484.638,0.309,4484.511,0.309,1758.744,1758.753,176.836,54.706,359.998,12.913,-0.031,0.0000,-0.2393,0.0000,0.9444,0.5000,0.0000,0.0000
69.791,Upwind,4503.002,0.309,4502.875,0.309,1768.774,1768.782,176.831,54.711,359.998,12.913,-0.031,0.0000,-0.2393,0.0000,0.9444,0.5000,0.0000,0.0000
69.996,Upwind,4521.370,0.309,4521.242,0.309,1780.629,1780.637,176.825,54.716,359.998,12.912,-0.031,0.0000,-0.2393,0.0000,0.9445,0.5000,0.0000,0.0000
70.192,Upwind,4539.737,0.309,4539.610,0.309,1790.660,1790.669,176.821,54.721,359.998,12.912,-0.031,0.0000,-0.2393,0.0000,0.9446,0.5000,0.0000,0.0000
70.392,Upwind,4558.110,0.308,4557.983,0.308,1801.605,1801.613,176.815,54.725,359.998,12.912,-0.031,0.0000,-0.2393,0.0000,0.9447,0.5000,0.0000,0.0000
70.594,Upwind,4576.484,0.308,4576.356,0.308,1812.550,1812.559,176.809,54.730,359.998,12.912,-0.031,0.0000,-0.2394,0.0000,0.9448,0.5000,0.0000,0.0000
70.790,Upwind,4594.857,0.308,4594.729,0.308,1823.497,1823.505,176.804,54.734,359.998,12.912,-0.031,0.0000,-0.2394,0.0000,0.9448,0.5000,0.0000,0.0000
70.995,Upwind,4613.236,0.308,4613.109,0.308,1835.356,1835.365,176.797,54.739,359.998,12.912,-0.031,0.0000,-0.2394,0.0000,0.9449,0.5000,0.0000,0.0000
71.193,Upwind,4631.616,0.308,4631.488,0.308,1845.392,1845.401,176.792,54.742,359.998,12.912,-0.031,0.0000,-0.2394,0.0000,0.9450,0.5000,0.0000,0.0000
71.390,Upwind,4649.999,0.308,4649.871,0.308,1856.341,1856.350,176.786,54.746,359.998,12.912,-0.032,0.0000,-0.2394,0.0000,0.9451,0.5000,0.0000,0.0000
71.591,Upwind,4668.384,0.308,4668.256,0.308,1867.290,1867.299,176.780,54.750,359.998,12.912,-0.032,0.0000,-0.2395,0.0000,0.9452,0.5000,0.0000,0.0000
71.791,Upwind,4686.772,0.308,4686.645,0.308,1878.240,1878.249,176.774,54.753,359.998,12.912,-0.032,0.0000,-0.2395,0.0000,0.9452,0.5000,0.0000,0.0000
71.992,Upwind,4705.161,0.308,4705.034,0.308,1889.191,1889.200,176.768,54.756,359.998,12.912,-0.032,0.0000,-0.2395,0.0000,0.9453,0.5000,0.0000,0.0000
72.195,Upwind,4723.556,0.308,4723.428,0.308,1901.055,1901.065,176.761,54.760,359.999,12.911,-0.032,0.0000,-0.2395,0.0000,0.9454,0.5000,0.0000,0.0000
72.396,Upwind,4741.947,0.308,4741.820,0.308,1912.008,1912.017,176.755,54.763,359.999,12.911,-0.032,0.0000,-0.2395,0.0000,0.9455,0.5000,0.0000,0.0000
72.594,Upwind,4760.345,0.308,4760.218,0.308,1922.961,1922.970,176.749,54.766,359.999,12.911,-0.032,0.0000,-0.2396,0.0000,0.9456,0.5000,0.0000,0.0000
72.788,Upwind,4778.746,0.308,4778.618,0.308,1933.001,1933.010,176.743,54.769,359.999,12.911,-0.032,0.0000,-0.2396,0.0000,0.9457,0.5000,0.0000,0.0000
72.988,Upwind,4797.146,0.308,4797.019,0.308,1943.955,1943.965,176.736,54.772,359.999,12.911,-0.032,-0.0001,-0.2396,0.0000,0.9458,0.5000,0.0000,0.0000
73.198,Upwind,4815.550,0.308,4815.423,0.308,1955.823,1955.832,176.729,54.775,359.999,12.911,-0.032,0.0000,-0.2397,0.0000,0.9459,0.5000,0.0000,0.0000
73.390,Upwind,4833.954,0.308,4833.827,0.308,1965.865,1965.874,176.723,54.777,359.999,12.911,-0.032,0.0000,-0.2397,0.0000,0.9460,0.5000,0.0000,0.0000
73.593,Upwind,4852.364,0.308,4852.237,0.308,1976.820,1976.830,176.717,54.779,359.999,12.911,-0.032,0.0000,-0.2397,0.0000,0.9461,0.5000,0.0000,0.0000
73.799,Upwind,4870.774,0.308,4870.647,0.308,1988.689,1988.699,176.710,54.782,359.999,12.910,-0.032,0.0000,-0.2397,0.0000,0.9462,0.5000,0.0000,0.0000
73.993,Upwind,4889.187,0.308,4889.060,0.308,1998.733,1998.743,176.703,54.784,359.999,12.910,-0.032,0.0000,-0.2398,0.0000,0.9462,0.5000,0.0000,0.0000
74.191,Crosswind,4907.600,0.308,4907.473,0.308,2009.688,2009.697,176.650,54.738,359.998,12.913,0.082,0.4000,-0.3180,0.0001,0.8593,0.0000,0.0000,0.0000
74.396,Crosswind,4926.001,0.309,4925.874,0.309,2020.616,2020.626,176.411,54.514,359.993,12.955,0.654,0.4000,-0.4103,0.0001,0.7568,0.0000,0.0000,0.0000
74.595,Crosswind,4944.375,0.315,4944.247,0.315,2031.484,2031.493,175.997,54.147,359.991,13.086,1.609,0.4000,-0.5000,0.0001,0.7000,0.0000,0.0000,0.0000
74.788,Crosswind,4962.702,0.331,4962.574,0.331,2042.272,2042.282,175.529,53.740,359.999,13.345,2.856,0.4000,-0.5869,-0.0001,0.7000,0.0000,0.0000,0.0000
74.989,Crosswind,4980.987,0.365,4980.859,0.365,2052.983,2052.993,175.056,53.387,0.033,13.762,4.324,0.4000,-0.6772,-0.0003,0.7008,0.0000,0.0000,0.0000
75.198,Crosswind,4999.226,0.424,4999.099,0.424,2064.522,2064.532,174.538,53.154,0.118,14.411,6.096,0.4000,-0.7714,-0.0007,0.7127,0.0000,0.0000,0.0000
75.398,Crosswind,5017.419,0.520,5017.292,0.520,2075.149,2075.159,174.059,53.162,0.264,15.200,7.851,0.4000,-0.8000,-0.0012,0.7241,0.0000,0.0000,0.0000
75.595,Crosswind,5035.561,0.664,5035.434,0.664,2085.806,2085.816,173.576,53.468,0.490,16.137,9.681,0.4000,-0.8000,-0.0020,0.7357,0.0000,0.0000,0.0000
75.796,Crosswind,5053.648,0.871,5053.521,0.871,2096.557,2096.567,173.084,54.092,0.809,17.161,11.557,0.4000,-0.7893,-0.0029,0.7476,0.0000,0.0000,0.0000
75.999,Crosswind,5071.674,1.155,5071.546,1.155,2107.464,2107.474,172.579,55.024,1.226,18.211,13.454,0.4000,-0.7588,-0.0041,0.7598,0.0000,0.0000,0.0000
76.194,Crosswind,5089.636,1.532,5089.508,1.532,2117.648,2117.658,172.103,56.117,1.693,19.141,15.192,0.4000,-0.7296,-0.0055,0.7711,0.0000,0.0000,0.0000
76.398,Crosswind,5107.522,2.020,5107.395,2.020,2129.968,2129.979,171.523,57.642,2.344,20.143,17.229,0.4000,-0.6990,-0.0071,0.7846,0.0000,0.0000,0.0000
76.597,Crosswind,5125.334,2.634,5125.207,2.634,2141.650,2141.660,170.976,59.185,3.030,20.934,19.076,0.3420,-0.6691,-0.0088,0.7972,0.0000,0.0000,0.0000
76.787,Crosswind,5143.064,3.391,5142.937,3.391,2152.633,2152.643,170.467,60.636,3.719,21.523,20.692,0.2869,-0.6406,-0.0106,0.8086,0.0000,0.0000,0.0000
76.987,Crosswind,5160.709,4.303,5160.582,4.303,2164.916,2164.927,169.912,62.187,4.524,22.003,22.312,0.2343,-0.6106,-0.0124,0.8207,0.0000,0.0000,0.0000
77.192,Crosswind,5178.269,5.382,5178.141,5.382,2177.501,2177.511,169.363,63.637,5.368,22.311,23.746,0.1899,-0.5798,-0.0140,0.8322,0.0000,0.0000,0.0000
77.388,Crosswind,5195.743,6.637,5195.615,6.637,2190.361,2190.371,168.827,64.933,6.233,22.451,24.979,0.1532,-0.5505,-0.0155,0.8430,0.0000,0.0000,0.0000
77.593,Crosswind,5213.131,8.074,5213.004,8.074,2203.461,2203.471,168.308,66.030,7.100,22.435,26.015,0.1231,-0.5197,-0.0166,0.8531,0.0000,0.0000,0.0000
77.794,Crosswind,5230.441,9.697,5230.314,9.697,2216.758,2216.768,167.814,66.898,7.952,22.280,26.869,0.0985,-0.4897,-0.0173,0.8623,0.0000,0.0000,0.0000
77.995,Crosswind,5247.671,11.508,5247.544,11.508,2231.328,2231.339,167.310,67.553,8.843,21.978,27.618,0.0761,-0.4594,-0.0178,0.8713,0.0000,0.0000,0.0000
78.191,Crosswind,5264.829,13.506,5264.702,13.506,2243.745,2243.756,166.912,67.864,9.557,21.631,28.131,0.0613,-0.4301,-0.0178,0.8782,0.0000,0.0000,0.0000
78.387,Crosswind,5281.919,15.689,5281.792,15.689,2257.330,2257.341,166.512,67.944,10.286,21.178,28.589,0.0471,-0.4006,-0.0176,0.8851,0.0000,0.0000,0.0000
78.598,Crosswind,5298.945,18.056,5298.818,18.056,2272.033,2272.044,166.119,67.723,11.008,20.618,28.989,0.0339,-0.3690,-0.0170,0.8916,0.0000,0.0000,0.0000
78.793,Crosswind,5315.919,20.602,5315.792,20.602,2284.413,2284.424,165.823,67.290,11.561,20.103,29.266,0.0247,-0.3398,-0.0163,0.8965,0.0000,0.0000,0.0000
78.988,Crosswind,5332.845,23.323,5332.718,23.323,2297.803,2297.814,165.536,66.568,12.101,19.510,29.516,0.0160,-0.3104,-0.0155,0.9012,0.0000,0.0000,0.0000
79.199,Crosswind,5349.728,26.215,5349.600,26.215,2312.116,2312.127,165.270,65.505,12.612,18.841,29.736,0.0082,-0.3246,-0.0146,0.9055,0.0000,0.0000,0.0000
79.393,Crosswind,5366.577,29.273,5366.450,29.273,2324.025,2324.036,165.078,64.372,12.997,18.275,29.888,0.0031,-0.4120,-0.0137,0.9086,0.0000,0.0000,0.0000
79.596,Crosswind,5383.399,32.491,5383.271,32.491,2337.804,2337.815,164.886,62.781,13.436,17.671,30.040,-0.0019,-0.5036,-0.0129,0.9116,0.0000,0.0000,0.0000
79.796,Crosswind,5400.196,35.863,5400.069,35.863,2350.198,2350.209,164.740,61.133,13.863,17.227,30.163,-0.0055,-0.5935,-0.0122,0.9136,0.0000,0.0000,0.0000
79.987,Crosswind,5416.976,39.387,5416.849,39.387,2361.260,2361.271,164.628,59.536,14.298,16.948,30.264,-0.0078,-0.6795,-0.0116,0.9152,0.0000,0.0000,0.0000
80.191,Crosswind,5433.737,43.062,5433.609,43.062,2372.990,2373.002,164.527,57.777,14.844,16.806,30.364,-0.0097,-0.7713,-0.0111,0.9166,0.0000,0.0000,0.0000
80.387,Crosswind,5450.477,46.888,5450.349,46.888,2384.375,2384.386,164.441,56.087,15.481,16.848,30.454,-0.0109,-0.8000,-0.0108,0.9178,0.0000,0.0000,0.0000
80.593,Crosswind,5467.195,50.869,5467.067,50.869,2395.437,2395.448,164.368,54.569,16.208,17.056,30.531,-0.0114,-0.7867,-0.0107,0.9188,0.0000,0.0000,0.0000
80.794,Crosswind,5483.889,55.011,5483.761,55.011,2406.218,2406.229,164.302,53.285,17.004,17.383,30.589,-0.0111,-0.7567,-0.0107,0.9198,0.0000,0.0000,0.0000
80.993,Crosswind,5500.546,59.321,5500.418,59.321,2416.768,2416.780,164.238,52.262,17.844,17.772,30.621,-0.0098,-0.7268,-0.0108,0.9207,0.0000,0.0000,0.0000
81.187,Crosswind,5517.164,63.806,5517.036,63.806,2427.140,2427.151,164.173,51.495,18.703,18.177,30.623,-0.0075,-0.6976,-0.0110,0.9216,0.0000,0.0000,0.0000
81.392,Crosswind,5533.732,68.472,5533.604,68.472,2437.381,2437.393,164.105,50.960,19.558,18.555,30.594,-0.0044,-0.6670,-0.0112,0.9225,0.0000,0.0000,0.0000
81.593,Crosswind,5550.250,73.323,5550.122,73.323,2447.536,2447.548,164.032,50.618,20.392,18.876,30.534,-0.0005,-0.6369,-0.0114,0.9235,0.0000,0.0000,0.0000
81.793,Crosswind,5566.706,78.362,5566.579,78.362,2457.638,2457.650,163.958,50.420,21.189,19.117,30.445,0.0040,-0.6068,-0.0116,0.9246,0.0000,0.0000,0.0000
81.991,Crosswind,5583.101,83.592,5582.974,83.592,2467.710,2467.722,163.884,50.313,21.939,19.262,30.332,0.0089,-0.5772,-0.0118,0.9256,0.0000,0.0000,0.0000
82.197,Crosswind,5599.429,89.012,5599.302,89.012,2478.603,2478.615,163.808,50.236,22.690,19.304,30.188,0.0144,-0.5461,-0.0120,0.9267,0.0000,0.0000,0.0000
82.393,Crosswind,5615.687,94.620,5615.560,94.620,2487.806,2487.818,163.751,50.156,23.271,19.242,30.055,0.0190,-0.5168,-0.0121,0.9275,0.0000,0.0000,0.0000
82.590,Crosswind,5631.878,100.415,5631.750,100.415,2497.824,2497.836,163.699,50.007,23.849,19.077,29.905,0.0239,-0.4873,-0.0121,0.9280,0.0000,0.0000,0.0000
82.795,Crosswind,5648.005,106.392,5647.877,106.392,2508.631,2508.643,163.660,49.728,24.409,18.789,29.741,0.0290,-0.4566,-0.0121,0.9281,0.0000,0.0000,0.0000
82.991,Crosswind,5664.065,112.547,5663.938,112.547,2517.716,2517.728,163.642,49.365,24.834,18.465,29.607,0.0328,-0.4435,-0.0121,0.9280,0.0000,0.0000,0.0000
83.191,Crosswind,5680.067,118.876,5679.939,118.876,2527.536,2527.548,163.641,48.796,25.254,18.045,29.471,0.0365,-0.5332,-0.0121,0.9276,0.0000,0.0000,0.0000
83.388,Crosswind,5696.014,125.371,5695.887,125.371,2537.221,2537.233,163.656,48.025,25.664,17.612,29.355,0.0395,-0.6218,-0.0120,0.9271,0.0000,0.0000,0.0000
83.592,Crosswind,5711.906,132.029,5711.779,132.029,2546.734,2546.746,163.688,47.082,26.099,17.228,29.271,0.0414,-0.7137,-0.0120,0.9264,0.0000,0.0000,0.0000
