time_s,leg,north_m,east_m,along_m,cross_m,agl_ft,altitude_ft,speed_kts,vertical_speed_fps,heading_deg,pitch_deg,roll_deg,aileron_cmd,elevator_cmd,rudder_cmd,throttle_cmd,flaps_cmd,gear_cmd,brake_cmd
0.000,Upwind,0.085,0.000,0.000,0.000,3.691,3.691,0.000,0.000,0.000,0.450,0.000,0.0000,0.0018,0.0000,0.0000,0.5000,1.0000,1.0000
0.193,Upwind,0.085,0.000,0.000,0.000,3.691,3.691,0.000,0.000,0.000,0.450,0.000,0.0000,0.0308,0.0000,0.0000,0.5000,1.0000,1.0000
0.391,Upwind,0.085,0.000,0.000,0.000,3.691,3.691,0.000,0.000,0.000,0.450,0.000,0.0000,0.0604,0.0000,0.0000,0.5000,1.0000,1.0000
0.589,Upwind,0.085,0.000,0.000,0.000,3.691,3.691,0.000,0.000,0.000,0.450,0.000,0.0000,0.0629,0.0000,0.0000,0.5000,1.0000,1.0000
0.792,Upwind,0.085,0.000,0.000,0.000,3.691,3.691,0.000,0.000,0.000,0.450,0.000,0.0000,0.0629,0.0000,0.0199,0.5000,1.0000,0.0000
0.991,Upwind,0.085,0.000,0.000,0.000,3.691,3.691,0.000,0.000,0.000,0.450,0.000,0.0000,0.0629,0.0000,0.1193,0.5000,1.0000,0.0000
1.201,Upwind,0.085,0.000,0.000,0.000,3.691,3.691,0.000,0.000,0.000,0.450,0.000,0.0000,0.0629,0.0000,0.2243,0.5000,1.0000,0.0000
1.394,Upwind,0.085,0.000,0.000,0.000,3.691,3.691,0.000,0.000,0.000,0.450,0.000,0.0000,0.0629,0.0000,0.3211,0.5000,1.0000,0.0000
1.588,Upwind,0.085,0.000,0.000,0.000,3.691,3.691,0.000,0.000,0.000,0.449,0.000,0.0000,0.0629,0.0000,0.4181,0.5000,1.0000,0.0000
1.795,Upwind,0.085,0.000,0.000,0.000,3.691,3.691,0.000,0.000,0.000,0.449,0.000,0.0000,0.0629,0.0000,0.5215,0.5000,1.0000,0.0000
1.995,Upwind,0.085,0.000,0.000,0.000,3.691,3.691,0.000,0.000,0.000,0.449,0.000,0.0000,0.0628,0.0000,0.6214,0.5000,1.0000,0.0000
2.197,Upwind,0.085,0.000,0.000,0.000,3.691,3.691,0.002,0.000,0.000,0.449,0.000,0.0000,0.0628,0.0000,0.7224,0.5000,1.0000,0.0000
2.393,Upwind,0.086,0.000,0.001,0.000,3.691,3.691,0.011,0.000,0.000,0.449,0.000,0.0000,0.0628,0.0000,0.8206,0.5000,1.0000,0.0000
2.596,Upwind,0.088,0.000,0.003,0.000,3.691,3.691,0.028,0.000,0.000,0.449,0.000,0.0000,0.0629,0.0000,0.9222,0.5000,1.0000,0.0000
2.793,Upwind,0.092,0.000,0.007,0.000,3.691,3.691,0.056,0.000,0.000,0.449,0.000,0.0000,0.0629,0.0000,1.0000,0.5000,1.0000,0.0000
2.997,Upwind,0.101,0.000,0.015,0.000,3.691,3.691,0.097,0.000,0.000,0.449,0.000,0.0000,0.0629,0.0000,1.0000,0.5000,1.0000,0.0000
3.198,Upwind,0.114,0.000,0.029,0.000,3.691,3.691,0.153,0.000,0.000,0.449,0.000,0.0000,0.0629,0.0000,1.0000,0.5000,1.0000,0.0000
3.401,Upwind,0.134,0.000,0.049,0.000,3.691,3.691,0.227,0.000,0.000,0.449,0.000,0.0000,0.0629,0.0000,1.0000,0.5000,1.0000,0.0000
3.597,Upwind,0.163,0.000,0.078,0.000,3.691,3.691,0.323,0.000,0.000,0.449,0.000,0.0000,0.0629,0.0000,1.0000,0.5000,1.0000,0.0000
3.796,Upwind,0.203,0.000,0.118,0.000,3.691,3.691,0.443,0.000,0.000,0.449,0.000,0.0000,0.0629,0.0000,1.0000,0.5000,1.0000,0.0000
4.003,Upwind,0.257,0.000,0.172,0.000,3.691,3.691,0.593,0.000,0.000,0.450,0.000,0.0000,0.0630,0.0000,1.0000,0.5000,1.0000,0.0000
4.198,Upwind,0.329,0.000,0.244,0.000,3.691,3.691,0.777,0.000,0.000,0.450,0.000,0.0000,0.0630,0.0000,1.0000,0.5000,1.0000,0.0000
4.398,Upwind,0.422,0.000,0.337,0.000,3.691,3.691,1.001,0.000,0.000,0.450,0.000,0.0000,0.0630,0.0000,1.0000,0.5000,1.0000,0.0000
4.595,Upwind,0.541,0.000,0.456,0.000,3.691,3.691,1.272,0.000,0.000,0.450,0.000,0.0000,0.0631,0.0000,1.0000,0.5000,1.0000,0.0000
4.790,Upwind,0.677,0.000,0.592,0.000,3.691,3.691,1.596,0.000,0.000,0.450,0.000,0.0000,0.0631,0.0000,1.0000,0.5000,1.0000,0.0000
4.990,Upwind,0.861,0.000,0.775,0.000,3.691,3.691,1.982,0.000,0.000,0.451,0.000,0.0000,0.0631,0.0000,1.0000,0.5000,1.0000,0.0000
5.200,Upwind,1.108,0.000,1.023,0.000,3.691,3.691,2.436,0.000,0.000,0.451,0.000,0.0000,0.0632,0.0000,1.0000,0.5000,1.0000,0.0000
5.393,Upwind,1.364,0.000,1.279,0.000,3.691,3.691,2.968,0.000,0.000,0.452,0.000,0.0000,0.0633,0.0000,1.0000,0.5000,1.0000,0.0000
5.599,Upwind,1.732,0.000,1.646,0.000,3.691,3.691,3.585,0.000,0.000,0.452,0.000,0.0000,0.0633,0.0000,1.0000,0.5000,1.0000,0.0000
5.801,Upwind,2.142,0.000,2.057,0.000,3.691,3.691,4.295,0.000,0.000,0.452,0.000,0.0000,0.0634,0.0000,1.0000,0.5000,1.0000,0.0000
5.990,Upwind,2.588,0.000,2.503,0.000,3.691,3.691,5.035,0.000,0.000,0.453,0.000,0.0000,0.0634,0.0000,1.0000,0.5000,1.0000,0.0000
6.200,Upwind,3.212,0.000,3.127,0.000,3.691,3.691,6.025,0.000,0.000,0.453,0.000,0.0000,0.0635,0.0000,1.0000,0.5000,1.0000,0.0000
6.395,Upwind,3.893,0.000,3.808,0.000,3.691,3.691,7.059,0.000,0.000,0.454,0.000,0.0000,0.0636,0.0000,1.0000,0.5000,1.0000,0.0000
6.594,Upwind,4.687,0.000,4.602,0.000,3.691,3.691,8.213,0.001,0.000,0.454,0.000,0.0000,0.0637,0.0000,1.0000,0.5000,1.0000,0.0000
6.799,Upwind,5.608,0.000,5.523,0.000,3.691,3.691,9.480,0.001,0.000,0.455,0.000,0.0000,0.0637,0.0000,1.0000,0.5000,1.0000,0.0000
6.993,Upwind,6.660,0.000,6.575,0.000,3.691,3.691,10.765,0.001,0.000,0.455,0.000,0.0000,0.0636,0.0000,1.0000,0.5000,1.0000,0.0000
7.192,Upwind,7.741,0.000,7.656,0.000,3.691,3.692,12.049,0.001,0.000,0.454,0.000,0.0000,0.0636,0.0000,1.0000,0.5000,1.0000,0.0000
7.398,Upwind,9.162,0.000,9.077,0.000,3.692,3.692,13.332,0.001,0.000,0.454,0.000,0.0000,0.0635,0.0000,1.0000,0.5000,1.0000,0.0000
7.602,Upwind,10.611,0.000,10.525,0.000,3.692,3.692,14.615,0.001,0.000,0.454,0.000,0.0000,0.0635,0.0000,1.0000,0.5000,1.0000,0.0000
7.795,Upwind,12.191,0.000,12.106,0.000,3.692,3.692,15.896,0.001,0.000,0.453,0.000,0.0000,0.0634,0.0000,1.0000,0.5000,1.0000,0.0000
7.994,Upwind,13.904,0.000,13.818,0.000,3.692,3.693,17.069,0.002,0.000,0.453,0.000,0.0000,0.0634,0.0000,1.0000,0.5000,1.0000,0.0000
8.198,Upwind,15.748,0.000,15.662,0.000,3.693,3.693,18.454,0.002,0.000,0.453,0.000,0.0000,0.0633,0.0000,1.0000,0.5000,1.0000,0.0000
8.398,Upwind,17.723,0.000,17.638,0.000,3.693,3.693,19.732,0.002,0.000,0.452,0.000,0.0000,0.0632,0.0000,1.0000,0.5000,1.0000,0.0000
8.589,Upwind,19.649,0.000,19.564,0.000,3.694,3.694,21.008,0.002,0.000,0.452,0.000,0.0000,0.0632,0.0000,1.0000,0.5000,1.0000,0.0000
8.795,Upwind,22.068,0.000,21.983,0.000,3.694,3.694,22.283,0.002,0.000,0.451,0.000,0.0000,0.0631,0.0000,1.0000,0.5000,1.0000,0.0000
8.994,Upwind,24.437,0.000,24.352,0.000,3.694,3.694,23.557,0.002,0.000,0.450,0.000,0.0000,0.0630,0.0000,1.0000,0.5000,1.0000,0.0000
9.200,Upwind,26.938,0.000,26.852,0.000,3.695,3.695,24.830,0.003,0.000,0.450,0.000,0.0000,0.0629,0.0000,1.0000,0.5000,1.0000,0.0000
9.393,Upwind,29.569,0.000,29.484,0.000,3.695,3.696,26.101,0.003,0.000,0.449,0.000,0.0000,0.0628,0.0000,1.0000,0.5000,1.0000,0.0000
9.590,Upwind,32.096,0.000,32.010,0.000,3.696,3.696,27.371,0.003,0.000,0.448,0.000,0.0000,0.0627,0.0000,1.0000,0.5000,1.0000,0.0000
9.795,Upwind,35.223,0.000,35.138,0.000,3.697,3.697,28.640,0.003,0.000,0.447,0.000,0.0000,0.0625,0.0000,1.0000,0.5000,1.0000,0.0000
10.001,Upwind,38.246,0.000,38.161,0.000,3.697,3.697,29.907,0.004,0.000,0.446,0.000,0.0000,0.0624,0.0000,1.0000,0.5000,1.0000,0.0000
10.199,Upwind,41.399,0.000,41.314,0.000,3.698,3.698,31.173,0.004,0.000,0.446,0.000,0.0000,0.0623,0.0000,1.0000,0.5000,1.0000,0.0000
10.391,Upwind,44.404,0.001,44.319,0.001,3.699,3.699,32.438,0.004,0.000,0.445,0.000,0.0000,0.0621,0.0000,1.0000,0.5000,1.0000,0.0000
10.594,Upwind,48.096,0.001,48.011,0.001,3.700,3.700,33.700,0.004,0.000,0.443,0.000,0.0000,0.0620,0.0000,1.0000,0.5000,1.0000,0.0000
10.791,Upwind,51.339,0.001,51.254,0.001,3.700,3.701,34.962,0.004,0.000,0.442,0.000,0.0000,0.0618,0.0000,1.0000,0.5000,1.0000,0.0000
10.997,Upwind,55.312,0.001,55.227,0.001,3.701,3.701,36.222,0.005,0.000,0.441,0.000,0.0000,0.0616,0.0000,1.0000,0.5000,1.0000,0.0000
11.199,Upwind,59.115,0.001,59.030,0.001,3.702,3.702,37.480,0.005,0.000,0.440,0.000,0.0000,0.0615,0.0000,1.0000,0.5000,1.0000,0.0000
11.392,Upwind,62.714,0.001,62.629,0.001,3.703,3.703,38.737,0.005,0.000,0.439,0.000,0.0000,0.0613,0.0000,1.0000,0.5000,1.0000,0.0000
11.591,Upwind,66.765,0.001,66.679,0.001,3.704,3.704,39.992,0.005,0.000,0.437,0.000,0.0000,0.0611,0.0000,1.0000,0.5000,1.0000,0.0000
11.799,Upwind,71.298,0.001,71.213,0.001,3.705,3.705,41.245,0.006,0.000,0.436,0.000,0.0000,0.0609,0.0000,1.0000,0.5000,1.0000,0.0000
12.011,Upwind,75.983,0.001,75.898,0.001,3.707,3.707,42.497,0.006,0.000,0.434,0.000,0.0000,0.0607,0.0000,1.0000,0.5000,1.0000,0.0000
12.198,Upwind,80.065,0.001,79.980,0.001,3.708,3.708,43.747,0.007,0.000,0.433,0.000,0.0000,0.0604,0.0000,1.0000,0.5000,1.0000,0.0000
12.402,Upwind,84.641,0.001,84.556,0.001,3.709,3.709,44.995,0.007,0.000,0.431,0.000,0.0000,0.0602,0.0000,1.0000,0.5000,1.0000,0.0000
12.592,Upwind,88.948,0.002,88.863,0.002,3.710,3.711,46.137,0.007,0.000,0.429,0.000,-0.0001,0.0599,0.0000,1.0000,0.5000,1.0000,0.0000
12.797,Upwind,94.178,0.002,94.093,0.002,3.712,3.712,47.485,0.008,0.000,0.427,0.000,-0.0001,0.0596,0.0000,1.0000,0.5000,1.0000,0.0000
12.993,Upwind,99.138,0.002,99.053,0.002,3.714,3.714,48.727,0.008,0.000,0.425,0.000,-0.0001,0.0593,0.0000,1.0000,0.5000,1.0000,0.0000
13.198,Upwind,104.227,0.002,104.141,0.002,3.715,3.715,49.967,0.009,0.000,0.423,0.000,-0.0001,0.0590,0.0000,1.0000,0.5000,1.0000,0.0000
13.390,Upwind,109.003,0.002,108.917,0.002,3.717,3.717,51.205,0.009,0.001,0.421,0.000,-0.0001,0.0587,0.0000,1.0000,0.5000,1.0000,0.0000
13.590,Upwind,114.335,0.002,114.250,0.002,3.719,3.719,52.440,0.009,0.001,0.418,0.000,-0.0001,0.0584,0.0000,1.0000,0.5000,1.0000,0.0000
13.798,Upwind,120.255,0.003,120.169,0.003,3.721,3.721,53.673,0.010,0.001,0.416,0.000,-0.0001,0.0580,0.0000,1.0000,0.5000,1.0000,0.0000
13.991,Upwind,125.380,0.003,125.295,0.003,3.723,3.723,54.904,0.010,0.001,0.414,0.000,-0.0001,0.0576,0.0000,1.0000,0.5000,1.0000,0.0000
14.195,Upwind,131.574,0.003,131.489,0.003,3.725,3.725,56.133,0.009,0.001,0.411,0.000,-0.0001,0.0573,0.0000,1.0000,0.5000,1.0000,0.0000
14.389,Upwind,136.931,0.003,136.846,0.003,3.726,3.726,57.360,0.008,0.001,0.409,0.000,-0.0001,0.0570,0.0000,1.0000,0.5000,1.0000,0.0000
14.591,Upwind,142.896,0.004,142.811,0.004,3.728,3.728,58.585,0.008,0.001,0.407,0.000,-0.0001,0.0568,0.0000,1.0000,0.5000,1.0000,0.0000
14.797,Upwind,149.501,0.004,149.415,0.004,3.729,3.729,59.807,0.008,0.001,0.405,0.000,-0.0001,0.0565,0.0000,1.0000,0.5000,1.0000,0.0000
15.001,Upwind,155.728,0.004,155.642,0.004,3.731,3.731,61.028,0.008,0.001,0.403,0.000,-0.0001,0.0562,0.0000,1.0000,0.5000,1.0000,0.0000
15.196,Upwind,162.080,0.005,161.995,0.005,3.733,3.733,62.246,0.008,0.001,0.401,0.000,-0.0001,0.0559,0.0000,1.0000,0.5000,1.0000,0.0000
15.399,Upwind,168.558,0.005,168.473,0.005,3.734,3.734,63.463,0.009,0.001,0.398,0.000,-0.0002,0.0556,0.0000,1.0000,0.5000,1.0000,0.0000
15.588,Upwind,174.606,0.005,174.520,0.005,3.736,3.736,64.677,0.009,0.001,0.396,0.000,-0.0002,0.0552,0.0000,1.0000,0.5000,1.0000,0.0000
15.789,Upwind,181.323,0.006,181.238,0.006,3.738,3.738,65.889,0.009,0.001,0.394,0.000,-0.0002,0.0549,0.0000,1.0000,0.5000,1.0000,0.0000
15.996,Upwind,188.740,0.006,188.655,0.006,3.740,3.740,67.098,0.009,0.002,0.392,0.000,-0.0002,0.0546,0.0000,1.0000,0.5000,1.0000,0.0000
16.189,Upwind,195.131,0.006,195.046,0.006,3.741,3.741,68.306,0.009,0.002,0.389,0.000,-0.0002,0.0543,0.0000,1.0000,0.5000,1.0000,0.0000
16.391,Upwind,202.221,0.007,202.136,0.007,3.743,3.743,69.511,0.009,0.002,0.387,0.000,-0.0002,0.0539,0.0000,1.0000,0.5000,1.0000,0.0000
16.595,Upwind,210.042,0.007,209.957,0.007,3.745,3.745,70.714,0.009,0.002,0.385,0.000,-0.0002,0.0536,0.0000,1.0000,0.5000,1.0000,0.0000
16.797,Upwind,217.390,0.008,217.305,0.008,3.747,3.747,71.915,0.010,0.002,0.382,0.000,-0.0003,0.0533,0.0000,1.0000,0.5000,1.0000,0.0000
16.996,Upwind,224.862,0.009,224.776,0.009,3.749,3.749,73.113,0.010,0.002,0.380,0.000,-0.0003,0.0529,0.0000,1.0000,0.5000,1.0000,0.0000
17.199,Upwind,232.456,0.009,232.371,0.009,3.751,3.751,74.210,0.010,0.002,0.377,0.000,-0.0003,0.0526,0.0000,1.0000,0.5000,1.0000,0.0000
17.391,Upwind,239.526,0.010,239.441,0.010,3.753,3.753,75.503,0.010,0.003,0.375,0.000,-0.0003,0.0522,0.0000,1.0000,0.5000,1.0000,0.0000
17.595,Upwind,248.014,0.010,247.929,0.010,3.755,3.755,76.694,0.010,0.003,0.372,0.000,-0.0003,0.0518,0.0000,1.0000,0.5000,1.0000,0.0000
17.789,Upwind,255.309,0.011,255.224,0.011,3.757,3.757,77.883,0.010,0.003,0.370,0.000,-0.0003,0.0515,0.0000,1.0000,0.5000,1.0000,0.0000
17.998,Upwind,264.062,0.012,263.977,0.012,3.759,3.759,79.070,0.010,0.003,0.367,0.000,-0.0004,0.0511,0.0000,1.0000,0.5000,1.0000,0.0000
18.200,Upwind,272.269,0.013,272.184,0.013,3.761,3.761,80.254,0.010,0.003,0.364,0.000,-0.0004,0.0507,0.0000,1.0000,0.5000,1.0000,0.0000
18.391,Upwind,279.899,0.013,279.814,0.013,3.763,3.763,81.436,0.011,0.003,0.362,0.000,-0.0004,0.0504,0.0000,1.0000,0.5000,1.0000,0.0000
18.589,Upwind,288.339,0.014,288.254,0.014,3.765,3.765,82.615,0.011,0.004,0.359,0.000,-0.0004,0.0500,0.0000,1.0000,0.5000,1.0000,0.0000
18.789,Upwind,296.900,0.015,296.815,0.015,3.767,3.767,83.792,0.011,0.004,0.356,0.000,-0.0005,0.0496,0.0000,1.0000,0.5000,1.0000,0.0000
19.000,Upwind,306.311,0.016,306.226,0.016,3.769,3.769,84.966,0.011,0.004,0.353,0.000,-0.0005,0.0492,0.0000,1.0000,0.5000,1.0000,0.0000
19.197,Upwind,315.124,0.017,315.038,0.017,3.772,3.772,86.138,0.011,0.004,0.351,0.000,-0.0005,0.0488,0.0000,1.0000,0.5000,1.0000,0.0000
19.392,Upwind,323.308,0.018,323.223,0.018,3.774,3.774,87.307,0.011,0.004,0.348,0.000,-0.0005,0.0484,0.0000,1.0000,0.5000,1.0000,0.0000
19.595,Upwind,333.110,0.019,333.025,0.019,3.776,3.776,88.473,0.011,0.005,0.345,0.000,-0.0006,0.0480,0.0000,1.0000,0.5000,1.0000,0.0000
19.789,Upwind,341.514,0.020,341.429,0.020,3.778,3.778,89.637,0.011,0.005,0.342,0.000,-0.0006,0.0476,0.0000,1.0000,0.5000,1.0000,0.0000
19.995,Upwind,351.576,0.022,351.491,0.022,3.781,3.781,90.799,0.012,0.005,0.339,0.000,-0.0006,0.0472,0.0000,1.0000,0.5000,1.0000,0.0000
20.190,Upwind,360.200,0.023,360.114,0.023,3.783,3.783,91.957,0.012,0.005,0.336,0.000,-0.0007,0.0468,0.0000,1.0000,0.5000,1.0000,0.0000
20.393,Upwind,369.721,0.024,369.636,0.024,3.785,3.785,93.113,0.012,0.006,0.333,0.000,-0.0007,0.0464,0.0000,1.0000,0.5000,1.0000,0.0000
20.590,Upwind,379.361,0.025,379.276,0.025,3.787,3.788,94.267,0.012,0.006,0.330,0.000,-0.0007,0.0459,0.0000,1.0000,0.5000,1.0000,0.0000
20.791,Upwind,389.120,0.027,389.034,0.027,3.790,3.790,95.418,0.012,0.006,0.327,0.000,-0.0008,0.0455,0.0000,1.0000,0.5000,1.0000,0.0000
20.991,Upwind,398.997,0.028,398.911,0.028,3.792,3.792,96.566,0.012,0.007,0.324,0.000,-0.0008,0.0451,0.0000,1.0000,0.5000,1.0000,0.0000
21.195,Upwind,409.830,0.030,409.745,0.030,3.795,3.795,97.711,0.012,0.007,0.321,0.000,-0.0008,0.0446,0.0000,1.0000,0.5000,1.0000,0.0000
21.397,Upwind,419.953,0.032,419.867,0.032,3.797,3.797,98.854,0.012,0.007,0.318,0.000,-0.0009,0.0442,0.0000,1.0000,0.5000,1.0000,0.0000
21.590,Upwind,429.335,0.034,429.249,0.034,3.800,3.800,99.994,0.012,0.008,0.315,0.000,-0.0009,0.0438,0.0000,1.0000,0.5000,1.0000,0.0000
21.793,Upwind,439.682,0.035,439.597,0.035,3.802,3.802,101.131,0.013,0.008,0.312,0.000,-0.0009,0.0433,0.0000,1.0000,0.5000,1.0000,0.0000
21.993,Upwind,450.146,0.037,450.061,0.037,3.805,3.805,102.266,0.013,0.008,0.309,0.000,-0.0010,0.0429,0.0000,1.0000,0.5000,1.0000,0.0000
22.194,Upwind,461.614,0.039,461.529,0.039,3.807,3.807,103.397,0.013,0.009,0.305,0.000,-0.0010,0.0424,0.0000,1.0000,0.5000,1.0000,0.0000
22.400,Upwind,472.321,0.042,472.235,0.042,3.810,3.810,104.526,0.013,0.009,0.302,0.000,-0.0011,0.0420,0.0000,1.0000,0.5000,1.0000,0.0000
22.594,Upwind,483.143,0.044,483.058,0.044,3.812,3.812,105.652,0.013,0.009,0.299,0.000,-0.0011,0.0415,0.0000,1.0000,0.5000,1.0000,0.0000
22.797,Upwind,494.081,0.046,493.996,0.046,3.815,3.815,106.776,0.013,0.010,0.296,0.000,-0.0012,0.0411,0.0000,1.0000,0.5000,1.0000,0.0000
22.995,Upwind,505.135,0.048,505.050,0.048,3.817,3.817,107.896,0.013,0.010,0.292,0.000,-0.0012,0.0406,0.0000,1.0000,0.5000,1.0000,0.0000
23.190,Upwind,515.369,0.051,515.284,0.051,3.820,3.820,109.014,0.013,0.010,0.289,0.000,-0.0013,0.0401,0.0000,1.0000,0.5000,1.0000,0.0000
23.396,Upwind,527.588,0.054,527.503,0.054,3.823,3.823,110.128,0.013,0.011,0.286,0.000,-0.0013,0.0397,0.0000,1.0000,0.5000,1.0000,0.0000
23.594,Upwind,538.986,0.056,538.901,0.056,3.825,3.825,111.240,0.013,0.011,0.282,0.000,-0.0014,0.0392,0.0000,1.0000,0.5000,1.0000,0.0000
23.797,Upwind,550.499,0.059,550.413,0.059,3.828,3.828,112.349,0.013,0.012,0.279,-0.001,-0.0014,0.0387,0.0000,1.0000,0.5000,1.0000,0.0000
23.992,Upwind,561.152,0.062,561.067,0.062,3.830,3.831,113.455,0.014,0.012,0.276,-0.001,-0.0015,0.0383,0.0000,1.0000,0.5000,1.0000,0.0000
24.195,Upwind,573.865,0.065,573.780,0.065,3.833,3.833,114.558,0.014,0.012,0.272,-0.001,-0.0015,0.0378,0.0000,1.0000,0.5000,1.0000,0.0000
24.398,Upwind,585.719,0.068,585.633,0.068,3.836,3.836,115.658,0.014,0.013,0.269,-0.001,-0.0016,0.0373,0.0000,1.0000,0.5000,1.0000,0.0000
24.600,Upwind,597.685,0.072,597.600,0.072,3.839,3.839,116.755,0.014,0.013,0.265,-0.001,-0.0017,0.0368,0.0000,1.0000,0.5000,1.0000,0.0000
24.799,Upwind,609.764,0.075,609.679,0.075,3.841,3.841,117.850,0.014,0.014,0.262,-0.001,-0.0017,0.0363,0.0000,1.0000,0.5000,1.0000,0.0000
24.997,Upwind,621.956,0.079,621.870,0.079,3.844,3.844,118.941,0.014,0.014,0.259,-0.001,-0.0018,0.0359,0.0000,1.0000,0.5000,1.0000,0.0000
25.195,Upwind,634.259,0.082,634.174,0.082,3.847,3.847,120.029,0.014,0.015,0.255,-0.001,-0.0018,0.0354,0.0000,1.0000,0.5000,1.0000,0.0000
25.396,Upwind,646.675,0.086,646.589,0.086,3.850,3.850,121.115,0.014,0.015,0.252,-0.001,-0.0019,0.0349,0.0000,1.0000,0.5000,1.0000,0.0000
25.597,Upwind,659.202,0.090,659.116,0.090,3.853,3.853,122.197,0.014,0.016,0.248,-0.001,-0.0020,0.0344,0.0000,1.0000,0.5000,1.0000,0.0000
25.793,Upwind,671.840,0.094,671.755,0.094,3.855,3.855,123.276,0.014,0.016,0.245,-0.001,-0.0020,0.0339,0.0000,1.0000,0.5000,1.0000,0.0000
25.991,Upwind,683.522,0.098,683.437,0.098,3.858,3.858,124.352,0.014,0.017,0.241,-0.001,-0.0021,0.0334,0.0000,1.0000,0.5000,1.0000,0.0000
26.191,Upwind,696.373,0.102,696.287,0.102,3.861,3.861,125.426,0.014,0.017,0.237,-0.001,-0.0022,0.0329,0.0000,1.0000,0.5000,1.0000,0.0000
26.395,Upwind,710.418,0.107,710.333,0.107,3.864,3.864,126.496,0.014,0.018,0.234,-0.001,-0.0022,0.0324,0.0000,1.0000,0.5000,1.0000,0.0000
26.594,Upwind,723.498,0.112,723.413,0.112,3.867,3.867,127.563,0.014,0.018,0.230,-0.001,-0.0023,0.0319,0.0000,1.0000,0.5000,1.0000,0.0000
26.792,Upwind,735.584,0.116,735.499,0.116,3.870,3.870,128.627,0.015,0.019,0.227,-0.001,-0.0024,0.0314,0.0000,1.0000,0.5000,1.0000,0.0000
26.994,Upwind,749.986,0.122,749.901,0.122,3.873,3.873,129.688,0.015,0.019,0.223,-0.002,-0.0024,0.0309,0.0000,1.0000,0.5000,1.0000,0.0000
27.193,Upwind,762.272,0.127,762.187,0.127,3.875,3.875,130.746,0.015,0.020,0.219,-0.002,-0.0025,0.0304,0.0000,1.0000,0.5000,1.0000,0.0000
27.398,Upwind,776.910,0.132,776.825,0.132,3.878,3.878,131.801,0.015,0.020,0.216,-0.002,-0.0026,0.0299,0.0000,1.0000,0.5000,1.0000,0.0000
27.597,Upwind,790.534,0.138,790.449,0.138,3.881,3.881,132.852,0.015,0.021,0.212,-0.002,-0.0027,0.0293,0.0000,1.0000,0.5000,1.0000,0.0000
27.796,Upwind,804.267,0.144,804.182,0.144,3.884,3.884,133.901,0.015,0.021,0.209,-0.002,-0.0027,0.0288,0.0000,1.0000,0.5000,1.0000,0.0000
27.989,Upwind,816.950,0.149,816.865,0.149,3.887,3.887,134.948,0.015,0.022,0.205,-0.002,-0.0028,0.0283,0.0000,1.0000,0.5000,1.0000,0.0000
28.188,Upwind,830.889,0.155,830.804,0.155,3.890,3.890,135.992,0.015,0.023,0.201,-0.002,-0.0029,0.0278,0.0000,1.0000,0.5000,1.0000,0.0000
28.390,Upwind,844.935,0.161,844.850,0.161,3.893,3.893,137.033,0.015,0.023,0.198,-0.002,-0.0030,0.0273,0.0000,1.0000,0.5000,1.0000,0.0000
28.598,Upwind,860.273,0.168,860.188,0.168,3.896,3.896,138.071,0.015,0.024,0.194,-0.002,-0.0031,0.0268,0.0000,1.0000,0.5000,1.0000,0.0000
28.797,Upwind,874.542,0.175,874.457,0.175,3.899,3.899,139.107,0.015,0.024,0.190,-0.002,-0.0032,0.0262,0.0000,1.0000,0.5000,1.0000,0.0000
28.997,Upwind,888.917,0.182,888.832,0.182,3.902,3.902,140.140,0.015,0.025,0.186,-0.002,-0.0032,0.0257,0.0000,1.0000,0.5000,1.0000,0.0000
29.197,Upwind,903.399,0.189,903.314,0.189,3.905,3.905,141.171,0.015,0.025,0.183,-0.003,-0.0033,0.0252,0.0000,1.0000,0.5000,1.0000,0.0000
29.400,Upwind,917.986,0.196,917.901,0.196,3.908,3.908,142.199,0.015,0.026,0.179,-0.003,-0.0034,0.0247,0.0000,1.0000,0.5000,1.0000,0.0000
29.589,Upwind,931.451,0.203,931.365,0.203,3.911,3.911,143.224,0.015,0.027,0.175,-0.003,-0.0035,0.0241,0.0000,1.0000,0.5000,1.0000,0.0000
29.791,Upwind,946.240,0.210,946.155,0.210,3.914,3.914,144.246,0.015,0.027,0.171,-0.003,-0.0036,0.0236,0.0000,1.0000,0.5000,1.0000,0.0000
30.003,Upwind,962.381,0.219,962.296,0.219,3.917,3.917,145.266,0.015,0.028,0.168,-0.003,-0.0037,0.0231,0.0000,1.0000,0.5000,1.0000,0.0000
30.188,Upwind,976.134,0.226,976.049,0.226,3.920,3.920,146.198,0.016,0.028,0.164,-0.003,-0.0038,0.0226,0.0000,1.0000,0.5000,1.0000,0.0000
30.388,Upwind,991.238,0.234,991.153,0.234,3.924,3.924,147.297,0.016,0.029,0.160,-0.003,-0.0039,0.0220,0.0000,1.0000,0.5000,1.0000,0.0000
30.597,Upwind,1007.718,0.243,1007.633,0.243,3.927,3.927,148.308,0.016,0.029,0.156,-0.003,-0.0040,0.0215,0.0000,1.0000,0.5000,1.0000,0.0000
30.796,Upwind,1023.039,0.252,1022.953,0.252,3.930,3.930,149.317,0.016,0.030,0.152,-0.004,-0.0041,0.0209,0.0000,1.0000,0.5000,1.0000,0.0000
30.995,Upwind,1038.463,0.261,1038.378,0.261,3.933,3.933,150.323,0.015,0.031,0.149,-0.004,-0.0042,-0.0097,0.0000,1.0000,0.5000,1.0000,0.0000
31.193,Upwind,1053.990,0.270,1053.905,0.270,3.935,3.935,151.325,0.005,0.031,0.152,-0.004,-0.0043,-0.0990,0.0000,1.0000,0.5000,1.0000,0.0000
31.394,Upwind,1069.621,0.279,1069.535,0.279,3.935,3.935,152.319,-0.007,0.032,0.169,-0.004,-0.0043,-0.1890,0.0000,1.0000,0.5000,1.0000,0.0000
31.588,Upwind,1084.038,0.288,1083.953,0.288,3.933,3.933,153.306,-0.007,0.033,0.188,-0.004,-0.0044,-0.2766,0.0000,1.0000,0.5000,1.0000,0.0000
31.793,Upwind,1101.185,0.299,1101.100,0.299,3.932,3.932,154.283,-0.002,0.033,0.205,-0.004,-0.0046,-0.3690,0.0000,1.0000,0.5000,1.0000,0.0000
31.994,Upwind,1117.119,0.309,1117.033,0.309,3.932,3.932,155.253,0.005,0.034,0.222,-0.005,-0.0047,-0.4594,0.0000,1.0000,0.5000,1.0000,0.0000
32.192,Upwind,1131.811,0.318,1131.726,0.318,3.935,3.935,156.213,0.030,0.035,0.270,-0.005,-0.0048,-0.5481,0.0000,1.0000,0.5000,1.0000,0.0000
32.394,Upwind,1149.282,0.329,1149.196,0.329,3.945,3.945,157.164,0.069,0.035,0.397,-0.005,-0.0049,-0.6393,0.0000,1.0000,0.5000,1.0000,0.0000
32.589,Upwind,1164.153,0.339,1164.068,0.339,3.964,3.964,158.106,0.129,0.036,0.644,-0.005,-0.0050,-0.6500,0.0000,1.0000,0.5000,1.0000,0.0000
32.799,Upwind,1181.834,0.351,1181.748,0.351,3.996,3.997,159.041,0.192,0.037,1.016,-0.005,-0.0051,-0.6500,0.0000,1.0000,0.5000,1.0000,0.0000
32.990,Upwind,1196.882,0.361,1196.797,0.361,4.040,4.040,159.968,0.246,0.038,1.504,-0.005,-0.0053,-0.6500,0.0000,1.0000,0.5000,1.0000,0.0000
33.199,Upwind,1214.769,0.374,1214.684,0.374,4.095,4.095,160.886,0.293,0.038,2.098,-0.006,-0.0054,-0.6500,0.0000,1.0000,0.5000,1.0000,0.0000
33.399,Upwind,1231.378,0.386,1231.292,0.386,4.157,4.158,161.793,0.336,0.039,2.790,-0.006,-0.0055,-0.6500,0.0000,1.0000,0.5000,1.0000,0.0000
33.596,Upwind,1248.079,0.398,1247.994,0.398,4.228,4.228,162.687,0.372,0.040,3.568,-0.006,-0.0056,-0.6500,0.0000,1.0000,0.5000,1.0000,0.0000
33.791,Upwind,1263.468,0.409,1263.383,0.409,4.321,4.321,163.561,0.637,0.041,4.419,-0.009,-0.0053,-0.6500,0.0000,1.0000,0.5000,1.0000,0.0000
33.992,Upwind,1280.342,0.422,1280.256,0.422,4.518,4.518,164.407,1.417,0.041,5.308,-0.017,-0.0048,-0.6500,0.0000,1.0000,0.5000,1.0000,0.0000
34.191,Upwind,1297.300,0.435,1297.215,0.435,4.919,4.919,165.215,2.665,0.042,6.201,-0.029,-0.0043,-0.6500,0.0000,1.0000,0.5000,1.0000,0.0000
34.400,Upwind,1315.762,0.449,1315.676,0.449,5.610,5.610,165.982,4.312,0.042,7.070,-0.043,-0.0037,-0.6500,0.0000,1.0000,0.5000,1.0000,0.0000
34.591,Upwind,1331.452,0.460,1331.367,0.460,6.665,6.665,166.702,6.278,0.042,7.899,-0.059,-0.0031,-0.6500,0.0000,1.0000,0.5000,1.0000,0.0000
34.794,Upwind,1350.069,0.474,1349.984,0.474,8.137,8.137,167.374,8.475,0.041,8.675,-0.074,-0.0026,-0.6500,0.0000,1.0000,0.5000,1.0000,0.0000
34.998,Upwind,1367.320,0.487,1367.235,0.487,10.064,10.065,167.995,10.818,0.040,9.395,-0.088,-0.0020,-0.6500,0.0000,1.0000,0.5000,1.0000,0.0000
35.191,Upwind,1383.182,0.498,1383.097,0.498,12.472,12.472,168.564,13.276,0.038,10.061,-0.101,-0.0015,-0.6500,0.0000,1.0000,0.5000,1.0000,0.0000
35.389,Upwind,1400.533,0.509,1400.448,0.509,15.379,15.380,169.082,15.804,0.036,10.676,-0.112,-0.0010,-0.6500,0.0000,1.0000,0.5000,1.0000,0.0000
35.592,Upwind,1417.928,0.520,1417.843,0.520,18.796,18.796,169.553,18.366,0.033,11.245,-0.121,-0.0005,-0.6252,0.0000,1.0000,0.5000,1.0000,0.0000
35.790,Upwind,1435.360,0.530,1435.274,0.530,22.726,22.726,169.978,20.926,0.029,11.765,-0.128,-0.0001,-0.5954,0.0001,1.0000,0.5000,1.0000,0.0000
35.999,Upwind,1454.279,0.540,1454.194,0.540,27.164,27.164,170.361,23.447,0.025,12.226,-0.132,0.0003,-0.5640,0.0001,1.0000,0.5000,1.0000,0.0000
36.195,Upwind,1471.770,0.549,1471.685,0.549,32.101,32.101,170.706,25.911,0.021,12.625,-0.135,0.0007,-0.5347,0.0001,1.0000,0.5000,1.0000,0.0000
36.392,Upwind,1487.823,0.556,1487.738,0.556,37.522,37.522,171.017,28.290,0.016,12.957,-0.135,0.0010,-0.5051,0.0001,1.0000,0.5000,1.0000,0.0000
36.593,Upwind,1506.814,0.563,1506.729,0.563,43.411,43.411,171.298,30.576,0.011,13.222,-0.134,0.0013,-0.4750,0.0001,1.0000,0.5000,1.0000,0.0000
36.789,Upwind,1522.897,0.568,1522.811,0.568,49.745,49.745,171.552,32.748,0.007,13.421,-0.131,0.0015,-0.4456,0.0001,1.0000,0.5000,1.0000,0.0000
36.990,Upwind,1540.453,0.573,1540.368,0.573,56.501,56.501,171.783,34.786,0.003,13.556,-0.126,0.0017,-0.4155,0.0001,1.0000,0.5000,1.0000,0.0000
37.197,Upwind,1559.484,0.578,1559.399,0.578,63.650,63.650,171.996,36.673,359.999,13.632,-0.121,0.0018,-0.3843,0.0001,1.0000,0.5000,1.0000,0.0000
37.394,Upwind,1577.061,0.581,1576.975,0.581,71.160,71.160,172.195,38.402,359.996,13.650,-0.115,0.0018,-0.3549,0.0001,1.0000,0.5000,1.0000,0.0000
37.596,Upwind,1594.646,0.583,1594.561,0.583,78.999,78.999,172.384,39.962,359.993,13.615,-0.109,0.0018,-0.3246,0.0001,1.0000,0.5000,1.0000,0.0000
37.791,Upwind,1610.774,0.585,1610.689,0.585,87.133,87.133,172.568,41.344,359.991,13.531,-0.102,0.0018,-0.2952,0.0000,1.0000,0.5000,1.0000,0.0000
37.999,Upwind,1629.845,0.587,1629.760,0.587,95.525,95.525,172.748,42.546,359.989,13.399,-0.095,0.0016,-0.2641,0.0000,1.0000,0.5000,1.0000,0.0000
38.190,Upwind,1645.992,0.587,1645.907,0.587,104.139,104.139,172.928,43.561,359.988,13.222,-0.088,0.0015,-0.2354,0.0000,0.9992,0.5000,1.0000,0.0000
38.399,Upwind,1665.089,0.588,1665.003,0.588,112.937,112.937,173.105,44.390,359.988,13.004,-0.081,0.0013,-0.2420,0.0000,0.9967,0.5000,1.0000,0.0000
38.592,Upwind,1681.260,0.587,1681.175,0.587,121.880,121.881,173.277,45.009,359.988,12.764,-0.075,0.0010,-0.2942,0.0000,0.9943,0.5000,1.0000,0.0000
38.796,Upwind,1700.388,0.587,1700.302,0.587,130.927,130.928,173.443,45.434,359.989,12.552,-0.069,0.0008,-0.3356,0.0000,0.9920,0.5000,1.0000,0.0000
38.989,Upwind,1716.588,0.586,1716.502,0.586,140.044,140.045,173.604,45.717,359.989,12.404,-0.064,0.0006,-0.3615,0.0000,0.9897,0.5000,1.0000,0.0000
39.190,Upwind,1734.276,0.585,1734.191,0.585,149.208,149.209,173.760,45.918,359.990,12.337,-0.060,0.0004,-0.3683,0.0000,0.9875,0.5000,1.0000,0.0000
39.395,Upwind,1753.457,0.583,1753.372,0.583,158.410,158.410,173.910,46.097,359.991,12.348,-0.056,0.0002,-0.3582,0.0000,0.9854,0.5000,1.0000,0.0000
39.593,Upwind,1771.180,0.582,1771.094,0.582,167.649,167.649,174.051,46.300,359.991,12.423,-0.053,0.0000,-0.3376,0.0000,0.9834,0.5000,1.0000,0.0000
39.797,Upwind,1788.916,0.580,1788.831,0.580,176.933,176.934,174.184,46.556,359.992,12.537,-0.050,-0.0001,-0.3106,0.0000,0.9816,0.5000,1.0000,0.0000
39.990,Upwind,1805.186,0.579,1805.101,0.579,186.275,186.276,174.308,46.873,359.992,12.662,-0.048,-0.0002,-0.2836,0.0000,0.9798,0.5000,1.0000,0.0000
40.195,Upwind,1824.427,0.576,1824.342,0.576,195.686,195.687,174.421,47.245,359.993,12.777,-0.047,-0.0002,-0.2595,0.0000,0.9782,0.5000,1.0000,0.0000
40.395,Upwind,1842.198,0.574,1842.112,0.574,205.175,205.176,174.526,47.651,359.993,12.864,-0.046,-0.0002,-0.2436,0.0000,0.9768,0.5000,1.0000,0.0000
40.597,Upwind,1859.977,0.572,1859.892,0.572,214.747,214.748,174.622,48.066,359.993,12.916,-0.045,-0.0003,-0.2358,0.0000,0.9754,0.5000,1.0000,0.0000
40.792,Upwind,1876.282,0.570,1876.197,0.570,224.401,224.402,174.710,48.466,359.993,12.931,-0.044,-0.0002,-0.2352,0.0000,0.9742,0.5000,1.0000,0.0000
40.990,Upwind,1894.077,0.568,1893.991,0.568,234.131,234.132,174.792,48.831,359.992,12.918,-0.044,-0.0002,-0.2404,0.0000,0.9730,0.5000,1.0000,0.0000
41.195,Upwind,1913.362,0.566,1913.277,0.566,243.930,243.931,174.869,49.149,359.992,12.887,-0.044,-0.0002,-0.2486,0.0000,0.9719,0.5000,1.0000,0.0000
41.396,Upwind,1931.172,0.563,1931.087,0.563,253.787,253.788,174.942,49.418,359.992,12.848,-0.044,-0.0001,-0.2570,0.0000,0.9709,0.5000,1.0000,0.0000
41.591,Upwind,1947.505,0.561,1947.420,0.561,263.694,263.695,175.011,49.641,359.991,12.813,-0.044,-0.0001,-0.2640,0.0000,0.9700,0.5000,1.0000,0.0000
41.793,Upwind,1965.329,0.559,1965.244,0.559,273.641,273.643,175.076,49.829,359.991,12.789,-0.044,0.0000,-0.2680,0.0000,0.9691,0.5000,1.0000,0.0000
41.991,Upwind,1983.161,0.556,1983.076,0.556,283.624,283.625,175.138,49.992,359.990,12.780,-0.043,0.0000,-0.2686,0.0000,0.9682,0.5000,1.0000,0.0000
42.197,Upwind,2002.487,0.553,2002.402,0.553,293.637,293.639,175.196,50.143,359.990,12.785,-0.043,0.0001,-0.2662,0.0000,0.9674,0.5000,1.0000,0.0000
42.398,Upwind,2020.334,0.550,2020.248,0.550,303.680,303.682,175.251,50.291,359.989,12.801,-0.043,0.0001,-0.2616,0.0000,0.9666,0.5000,1.0000,0.0000
42.590,Upwind,2036.699,0.548,2036.614,0.548,312.913,312.914,175.298,50.429,359.989,12.823,-0.043,0.0002,-0.2564,0.0000,0.9659,0.5000,1.0000,0.0000
42.794,Upwind,2056.046,0.545,2055.961,0.545,323.857,323.859,175.350,50.597,359.988,12.852,-0.042,0.0002,-0.2501,0.0000,0.9652,0.5000,1.0000,0.0000
42.996,Upwind,2073.912,0.542,2073.827,0.542,333.993,333.994,175.394,50.758,359.988,12.877,-0.042,0.0002,-0.2450,0.0000,0.9646,0.5000,1.0000,0.0000
43.192,Upwind,2090.293,0.539,2090.208,0.539,344.161,344.162,175.434,50.920,359.988,12.896,-0.041,0.0003,-0.2412,0.0000,0.9640,0.5000,1.0000,0.0000
43.391,Upwind,2108.168,0.536,2108.083,0.536,354.361,354.362,175.472,51.080,359.987,12.909,-0.040,0.0003,-0.2390,0.0000,0.9635,0.5000,1.0000,0.0000
43.590,Upwind,2126.049,0.533,2125.964,0.533,364.592,364.594,175.506,51.232,359.987,12.916,-0.039,0.0002,-0.2383,0.0000,0.9630,0.5000,1.0000,0.0000
43.796,Upwind,2145.424,0.529,2145.339,0.529,374.852,374.854,175.538,51.373,359.987,12.916,-0.038,0.0002,-0.2386,0.0000,0.9626,0.5000,1.0000,0.0000
43.993,Upwind,2163.314,0.526,2163.229,0.526,385.140,385.142,175.568,51.502,359.987,12.914,-0.037,0.0002,-0.2394,0.0000,0.9622,0.5000,1.0000,0.0000
44.199,Upwind,2181.208,0.522,2181.123,0.522,395.452,395.454,175.595,51.618,359.987,12.909,-0.036,0.0002,-0.2405,0.0000,0.9618,0.5000,1.0000,0.0000
44.397,Upwind,2199.107,0.519,2199.021,0.519,405.786,405.788,175.621,51.722,359.987,12.905,-0.036,0.0002,-0.2413,0.0000,0.9614,0.5000,1.0000,0.0000
44.597,Upwind,2217.010,0.516,2216.924,0.516,416.140,416.142,175.645,51.815,359.987,12.902,-0.035,0.0002,-0.2416,0.0000,0.9611,0.5000,1.0000,0.0000
44.795,Upwind,2234.917,0.512,2234.831,0.512,426.512,426.514,175.667,51.900,359.987,12.902,-0.034,0.0001,-0.2413,0.0000,0.9608,0.5000,1.0000,0.0000
44.992,Upwind,2251.335,0.509,2251.250,0.509,436.900,436.902,175.687,51.980,359.987,12.905,-0.033,0.0001,-0.2406,0.0000,0.9605,0.5000,1.0000,0.0000
45.196,Upwind,2270.743,0.505,2270.657,0.505,447.303,447.306,175.706,52.056,359.987,12.910,-0.032,0.0001,-0.2394,0.0000,0.9602,0.5000,1.0000,0.0000
45.392,Upwind,2287.168,0.502,2287.083,0.502,457.722,457.724,175.723,52.130,359.987,12.915,-0.031,0.0001,-0.2380,0.0000,0.9600,0.5000,1.0000,0.0000
45.599,Upwind,2306.584,0.499,2306.499,0.499,468.155,468.158,175.739,52.202,359.987,12.922,-0.031,0.0001,-0.2366,0.0000,0.9597,0.5000,1.0000,0.0000
45.790,Upwind,2323.016,0.495,2322.931,0.495,477.732,477.734,175.753,52.267,359.987,12.927,-0.030,0.0001,-0.2355,0.0000,0.9595,0.5000,1.0000,0.0000
46.001,Upwind,2342.440,0.492,2342.355,0.492,489.064,489.067,175.767,52.341,359.988,12.933,-0.029,0.0000,-0.2344,0.0000,0.9593,0.5000,1.0000,0.0000
46.195,Upwind,2360.373,0.488,2360.288,0.488,499.539,499.542,175.779,52.407,359.988,12.936,-0.029,0.0000,-0.2337,0.0000,0.9592,0.5000,1.0000,0.0000
46.399,Upwind,2378.310,0.485,2378.224,0.485,510.027,510.029,175.789,52.469,359.988,12.939,-0.028,0.0000,-0.2333,0.0000,0.9590,0.5000,1.0000,0.0000
46.601,Upwind,2396.249,0.482,2396.164,0.482,520.527,520.529,175.799,52.528,359.988,12.940,-0.028,0.0000,-0.2331,0.0000,0.9589,0.5000,1.0000,0.0000
46.788,Upwind,2412.697,0.478,2412.611,0.478,531.038,531.040,175.807,52.582,359.988,12.941,-0.028,0.0000,-0.2331,0.0000,0.9588,0.5000,1.0000,0.0000
46.992,Upwind,2430.642,0.475,2430.557,0.475,541.559,541.562,175.815,52.633,359.988,12.941,-0.028,0.0000,-0.2330,0.0000,0.9587,0.5000,1.0000,0.0000
47.195,Upwind,2450.086,0.472,2450.001,0.472,552.090,552.093,175.822,52.679,359.988,12.941,-0.028,0.0001,-0.2330,0.0000,0.9586,0.5000,1.0000,0.0000
47.388,Upwind,2466.542,0.469,2466.457,0.469,561.752,561.754,175.827,52.718,359.988,12.941,-0.027,0.0000,-0.2329,0.0000,0.9585,0.5000,1.0000,0.0000
47.589,Upwind,2484.496,0.465,2484.411,0.465,573.179,573.182,175.833,52.762,359.988,12.942,-0.027,0.0001,-0.2327,0.0000,0.9584,0.5000,1.0000,0.0000
47.794,Upwind,2503.950,0.462,2503.865,0.462,583.735,583.738,175.837,52.799,359.988,12.943,-0.027,0.0000,-0.2324,0.0000,0.9583,0.5000,1.0000,0.0000
47.990,Upwind,2520.415,0.459,2520.329,0.459,594.298,594.301,175.841,52.835,359.988,12.945,-0.027,0.0001,-0.2321,0.0000,0.9583,0.5000,1.0000,0.0000
48.193,Upwind,2538.377,0.456,2538.292,0.456,604.869,604.872,175.844,52.869,359.988,12.946,-0.027,0.0000,-0.2317,0.0000,0.9582,0.5000,1.0000,0.0000
48.393,Upwind,2556.343,0.453,2556.258,0.453,615.446,615.449,175.847,52.901,359.989,12.948,-0.027,0.0000,-0.2313,0.0000,0.9582,0.5000,1.0000,0.0000
48.590,Upwind,2574.312,0.449,2574.227,0.449,626.029,626.032,175.849,52.932,359.989,12.950,-0.026,0.0000,-0.2310,0.0000,0.9582,0.5000,1.0000,0.0000
48.790,Upwind,2592.283,0.446,2592.198,0.446,636.618,636.621,175.850,52.962,359.989,12.951,-0.026,0.0000,-0.2307,0.0000,0.9582,0.5000,1.0000,0.0000
48.996,Upwind,2611.755,0.443,2611.669,0.443,647.213,647.217,175.851,52.990,359.989,12.952,-0.026,0.0000,-0.2305,0.0000,0.9582,0.5000,1.0000,0.0000
49.201,Upwind,2629.731,0.440,2629.646,0.440,657.814,657.817,175.852,53.017,359.989,12.953,-0.026,0.0000,-0.2303,0.0000,0.9581,0.5000,1.0000,0.0000
49.397,Upwind,2647.711,0.437,2647.625,0.437,668.420,668.423,175.851,53.042,359.989,12.954,-0.026,0.0000,-0.2302,0.0000,0.9581,0.5000,1.0000,0.0000
49.591,Upwind,2664.194,0.434,2664.109,0.434,679.031,679.034,175.851,53.065,359.989,12.954,-0.026,0.0000,-0.2301,0.0000,0.9582,0.5000,1.0000,0.0000
49.791,Upwind,2682.178,0.432,2682.093,0.432,689.646,689.649,175.850,53.087,359.989,12.954,-0.026,0.0000,-0.2300,0.0000,0.9582,0.5000,1.0000,0.0000
49.994,Upwind,2701.664,0.428,2701.578,0.428,700.265,700.269,175.849,53.108,359.989,12.955,-0.026,0.0001,-0.2299,0.0000,0.9582,0.5000,1.0000,0.0000
50.190,Upwind,2718.154,0.426,2718.069,0.426,710.889,710.892,175.847,53.127,359.990,12.955,-0.026,0.0000,-0.2299,0.0000,0.9582,0.5000,1.0000,0.0000
50.392,Upwind,2736.146,0.423,2736.060,0.423,721.516,721.520,175.845,53.145,359.990,12.955,-0.026,0.0000,-0.2298,0.0000,0.9582,0.5000,1.0000,0.0000
50.595,Upwind,2755.639,0.420,2755.554,0.420,732.147,732.150,175.843,53.162,359.990,12.956,-0.026,0.0000,-0.2297,0.0000,0.9583,0.5000,1.0000,0.0000
50.793,Upwind,2772.136,0.418,2772.051,0.418,742.781,742.784,175.841,53.178,359.990,12.956,-0.026,0.0000,-0.2296,0.0000,0.9583,0.5000,1.0000,0.0000
50.993,Upwind,2790.135,0.415,2790.050,0.415,753.418,753.422,175.838,53.194,359.990,12.957,-0.026,0.0000,-0.2295,0.0000,0.9583,0.5000,1.0000,0.0000
51.197,Upwind,2809.636,0.412,2809.551,0.412,764.058,764.062,175.835,53.208,359.990,12.957,-0.026,0.0000,-0.2294,0.0000,0.9584,0.5000,1.0000,0.0000
51.394,Upwind,2827.640,0.410,2827.555,0.410,774.701,774.705,175.831,53.222,359.990,12.958,-0.026,0.0000,-0.2293,0.0000,0.9584,0.5000,1.0000,0.0000
51.599,Upwind,2845.646,0.407,2845.561,0.407,785.347,785.351,175.828,53.235,359.990,12.958,-0.026,0.0000,-0.2292,0.0000,0.9585,0.5000,1.0000,0.0000
51.788,Upwind,2862.154,0.405,2862.068,0.405,795.995,795.999,175.824,53.247,359.991,12.958,-0.026,0.0000,-0.2291,0.0000,0.9585,0.5000,1.0000,0.0000
51.989,Upwind,2880.164,0.402,2880.079,0.402,806.646,806.650,175.820,53.259,359.991,12.959,-0.026,0.0001,-0.2291,0.0000,0.9586,0.5000,1.0000,0.0000
52.194,Upwind,2899.678,0.400,2899.593,0.400,817.299,817.303,175.816,53.270,359.991,12.959,-0.026,0.0001,-0.2290,0.0000,0.9586,0.5000,1.0000,0.0000
52.397,Upwind,2917.694,0.397,2917.608,0.397,827.954,827.958,175.812,53.281,359.991,12.959,-0.026,0.0000,-0.2290,0.0000,0.9587,0.5000,1.0000,0.0000
52.594,Upwind,2935.711,0.395,2935.626,0.395,838.611,838.615,175.807,53.291,359.991,12.959,-0.026,0.0000,-0.2290,0.0000,0.9588,0.5000,1.0000,0.0000
52.879,Upwind,2961.240,0.392,2961.155,0.392,852.823,852.827,175.801,53.303,359.991,12.959,-0.026,0.0000,-0.2290,0.0000,0.9589,0.5000,1.0000,0.0000
52.999,Upwind,2971.753,0.390,2971.668,0.390,859.931,859.935,175.798,53.308,359.991,12.959,-0.026,0.0000,-0.2289,0.0000,0.9589,0.5000,1.0000,0.0000
53.196,Upwind,2989.778,0.388,2989.692,0.388,870.593,870.597,175.793,53.317,359.991,12.959,-0.026,0.0000,-0.2289,0.0000,0.9590,0.5000,1.0000,0.0000
53.395,Upwind,3007.804,0.386,3007.719,0.386,881.257,881.261,175.788,53.324,359.992,12.960,-0.026,0.0000,-0.2289,0.0000,0.9590,0.5000,1.0000,0.0000
53.599,Upwind,3025.833,0.384,3025.748,0.384,891.923,891.927,175.782,53.332,359.992,12.960,-0.026,0.0000,-0.2289,0.0000,0.9591,0.5000,1.0000,0.0000
53.799,Upwind,3043.864,0.381,3043.779,0.381,902.590,902.594,175.777,53.339,359.992,12.960,-0.026,0.0000,-0.2289,0.0000,0.9592,0.5000,1.0000,0.0000
53.995,Upwind,3061.899,0.379,3061.813,0.379,913.258,913.262,175.772,53.345,359.992,12.960,-0.026,0.0000,-0.2289,0.0000,0.9593,0.5000,1.0000,0.0000
54.198,Upwind,3079.934,0.377,3079.849,0.377,923.928,923.932,175.766,53.352,359.992,12.960,-0.026,0.0000,-0.2288,0.0000,0.9593,0.5000,1.0000,0.0000
54.392,Upwind,3096.466,0.375,3096.381,0.375,934.599,934.603,175.760,53.358,359.992,12.960,-0.026,0.0000,-0.2288,0.0000,0.9594,0.5000,1.0000,0.0000
54.596,Upwind,3116.010,0.373,3115.925,0.373,945.271,945.275,175.755,53.363,359.992,12.960,-0.026,0.0000,-0.2288,0.0000,0.9595,0.5000,1.0000,0.0000
54.788,Upwind,3132.548,0.372,3132.463,0.372,955.944,955.948,175.749,53.369,359.992,12.960,-0.026,0.0000,-0.2289,0.0000,0.9596,0.5000,1.0000,0.0000
54.995,Upwind,3152.098,0.369,3152.013,0.369,966.618,966.623,175.743,53.374,359.993,12.960,-0.026,0.0000,-0.2289,0.0000,0.9597,0.5000,1.0000,0.0000
55.199,Upwind,3170.143,0.368,3170.057,0.368,977.293,977.298,175.737,53.378,359.993,12.960,-0.026,0.0000,-0.2289,0.0000,0.9598,0.5000,1.0000,0.0000
55.390,Upwind,3186.687,0.366,3186.602,0.366,987.969,987.974,175.731,53.383,359.993,12.960,-0.026,0.0000,-0.2289,0.0000,0.9598,0.5000,1.0000,0.0000
55.595,Upwind,3206.243,0.364,3206.158,0.364,998.646,998.651,175.725,53.387,359.993,12.960,-0.026,0.0000,-0.2289,0.0000,0.9599,0.5000,1.0000,0.0000
55.801,Upwind,3224.296,0.362,3224.211,0.362,1008.434,1008.439,175.719,53.391,359.993,12.960,-0.026,0.0000,-0.2289,0.0000,0.9600,0.5000,1.0000,0.0000
55.992,Upwind,3240.847,0.361,3240.762,0.361,1020.003,1020.008,175.713,53.395,359.993,12.960,-0.027,0.0000,-0.2289,0.0000,0.9601,0.5000,1.0000,0.0000
56.199,Upwind,3260.409,0.359,3260.324,0.359,1030.682,1030.687,175.706,53.399,359.993,12.960,-0.027,0.0000,-0.2289,0.0000,0.9602,0.5000,1.0000,0.0000
56.391,Upwind,3276.963,0.357,3276.878,0.357,1041.362,1041.367,175.700,53.403,359.993,12.960,-0.027,0.0000,-0.2289,0.0000,0.9603,0.5000,1.0000,0.0000
56.592,Upwind,3295.025,0.356,3294.940,0.356,1052.043,1052.048,175.693,53.406,359.993,12.960,-0.027,0.0000,-0.2289,0.0000,0.9604,0.5000,1.0000,0.0000
56.797,Upwind,3314.594,0.354,3314.508,0.354,1062.725,1062.730,175.687,53.410,359.994,12.960,-0.027,0.0000,-0.2289,0.0000,0.9605,0.5000,1.0000,0.0000
56.990,Upwind,3331.156,0.352,3331.071,0.352,1073.407,1073.412,175.681,53.413,359.994,12.959,-0.027,0.0000,-0.2290,0.0000,0.9605,0.5000,1.0000,0.0000
57.193,Upwind,3350.730,0.351,3350.645,0.351,1084.090,1084.095,175.674,53.416,359.994,12.959,-0.027,0.0000,-0.2290,0.0000,0.9606,0.5000,1.0000,0.0000
57.394,Upwind,3368.799,0.349,3368.714,0.349,1094.773,1094.778,175.668,53.418,359.994,12.959,-0.027,0.0000,-0.2290,0.0000,0.9607,0.5000,1.0000,0.0000
57.594,Upwind,3386.874,0.348,3386.788,0.348,1105.457,1105.462,175.661,53.421,359.994,12.959,-0.027,0.0000,-0.2291,0.0000,0.9608,0.5000,1.0000,0.0000
57.798,Upwind,3404.948,0.346,3404.863,0.346,1116.141,1116.147,175.654,53.423,359.994,12.959,-0.027,0.0000,-0.2291,0.0000,0.9609,0.5000,1.0000,0.0000
57.999,Upwind,3423.023,0.345,3422.938,0.345,1126.826,1126.831,175.648,53.425,359.994,12.959,-0.027,0.0000,-0.2291,0.0000,0.9610,0.5000,1.0000,0.0000
58.193,Upwind,3441.104,0.344,3441.019,0.344,1137.511,1137.517,175.641,53.428,359.994,12.959,-0.027,0.0000,-0.2291,0.0000,0.9611,0.5000,1.0000,0.0000
58.397,Upwind,3459.185,0.342,3459.099,0.342,1148.197,1148.203,175.634,53.430,359.994,12.958,-0.027,0.0000,-0.2292,0.0000,0.9612,0.5000,1.0000,0.0000
58.596,Upwind,3477.268,0.341,3477.183,0.341,1158.883,1158.889,175.628,53.432,359.994,12.958,-0.027,0.0000,-0.2292,0.0000,0.9613,0.5000,1.0000,0.0000
58.799,Upwind,3495.352,0.340,3495.267,0.340,1169.570,1169.575,175.621,53.434,359.995,12.958,-0.027,0.0000,-0.2292,0.0000,0.9614,0.5000,1.0000,0.0000
58.990,Upwind,3511.933,0.339,3511.848,0.339,1180.257,1180.262,175.614,53.436,359.995,12.958,-0.027,0.0000,-0.2292,0.0000,0.9615,0.5000,1.0000,0.0000
59.192,Upwind,3530.023,0.337,3529.938,0.337,1190.944,1190.950,175.607,53.438,359.995,12.958,-0.027,0.0000,-0.2293,0.0000,0.9616,0.5000,1.0000,0.0000
59.396,Upwind,3549.622,0.336,3549.536,0.336,1201.632,1201.637,175.600,53.439,359.995,12.958,-0.027,0.0000,-0.2293,0.0000,0.9617,0.5000,1.0000,0.0000
59.596,Upwind,3567.718,0.335,3567.633,0.335,1212.320,1212.325,175.594,53.441,359.995,12.958,-0.027,0.0000,-0.2293,0.0000,0.9618,0.5000,1.0000,0.0000
59.797,Upwind,3585.814,0.334,3585.729,0.334,1223.008,1223.014,175.587,53.443,359.995,12.958,-0.027,0.0000,-0.2294,0.0000,0.9619,0.5000,1.0000,0.0000
59.999,Upwind,3603.909,0.333,3603.824,0.333,1233.697,1233.702,175.580,53.444,359.995,12.957,-0.028,0.0000,-0.2294,0.0000,0.9620,0.5000,1.0000,0.0000
60.192,Upwind,3620.503,0.332,3620.418,0.332,1244.386,1244.392,175.573,53.446,359.995,12.957,-0.028,0.0000,-0.2294,0.0000,0.9621,0.5000,1.0000,0.0000
60.390,Upwind,3638.605,0.331,3638.520,0.331,1255.075,1255.081,175.566,53.447,359.995,12.957,-0.028,0.0000,-0.2295,0.0000,0.9622,0.5000,1.0000,0.0000
60.598,Upwind,3658.219,0.330,3658.134,0.330,1265.764,1265.770,175.559,53.449,359.995,12.957,-0.028,0.0000,-0.2295,0.0000,0.9622,0.5000,1.0000,0.0000
60.788,Upwind,3674.815,0.329,3674.730,0.329,1276.454,1276.460,175.552,53.450,359.995,12.957,-0.028,0.0000,-0.2296,0.0000,0.9623,0.5000,1.0000,0.0000
60.990,Upwind,3692.927,0.328,3692.841,0.328,1287.144,1287.150,175.545,53.451,359.996,12.957,-0.028,0.0000,-0.2296,0.0000,0.9624,0.5000,1.0000,0.0000
61.193,Upwind,3711.038,0.327,3710.952,0.327,1297.834,1297.841,175.538,53.452,359.996,12.956,-0.028,0.0000,-0.2296,0.0000,0.9625,0.5000,1.0000,0.0000
61.397,Upwind,3730.661,0.326,3730.575,0.326,1308.525,1308.531,175.531,53.454,359.996,12.956,-0.028,0.0000,-0.2297,0.0000,0.9626,0.5000,1.0000,0.0000
61.591,Upwind,3747.266,0.325,3747.181,0.325,1319.216,1319.222,175.524,53.455,359.996,12.956,-0.028,0.0000,-0.2297,0.0000,0.9627,0.5000,1.0000,0.0000
61.794,Upwind,3766.892,0.324,3766.807,0.324,1329.907,1329.913,175.517,53.456,359.996,12.956,-0.028,0.0000,-0.2297,0.0000,0.9628,0.5000,1.0000,0.0000
61.999,Upwind,3785.012,0.323,3784.927,0.323,1340.598,1340.604,175.510,53.457,359.996,12.956,-0.028,0.0000,-0.2298,0.0000,0.9629,0.5000,1.0000,0.0000
62.195,Upwind,3803.133,0.323,3803.048,0.323,1351.290,1351.296,175.503,53.458,359.996,12.956,-0.028,0.0000,-0.2298,0.0000,0.9630,0.5000,1.0000,0.0000
62.397,Upwind,3821.260,0.322,3821.174,0.322,1361.981,1361.988,175.496,53.459,359.996,12.955,-0.028,0.0000,-0.2298,0.0000,0.9631,0.5000,1.0000,0.0000
62.596,Upwind,3839.383,0.321,3839.298,0.321,1372.673,1372.680,175.489,53.460,359.996,12.955,-0.028,0.0000,-0.2299,0.0000,0.9632,0.5000,1.0000,0.0000
62.788,Upwind,3856.000,0.320,3855.915,0.320,1383.365,1383.372,175.482,53.461,359.996,12.955,-0.028,0.0000,-0.2299,0.0000,0.9633,0.5000,1.0000,0.0000
63.000,Upwind,3875.642,0.320,3875.557,0.320,1394.057,1394.064,175.475,53.462,359.996,12.955,-0.028,0.0000,-0.2300,0.0000,0.9634,0.5000,1.0000,0.0000
63.192,Upwind,3892.266,0.319,3892.180,0.319,1404.750,1404.757,175.468,53.463,359.996,12.955,-0.028,0.0000,-0.2300,0.0000,0.9635,0.5000,1.0000,0.0000
63.398,Upwind,3911.910,0.318,3911.825,0.318,1415.442,1415.449,175.461,53.464,359.997,12.955,-0.028,0.0000,-0.2300,0.0000,0.9636,0.5000,1.0000,0.0000
63.599,Upwind,3930.045,0.318,3929.960,0.318,1426.135,1426.142,175.454,53.465,359.997,12.954,-0.028,0.0000,-0.2301,0.0000,0.9637,0.5000,1.0000,0.0000
63.791,Upwind,3946.676,0.317,3946.590,0.317,1436.828,1436.835,175.447,53.465,359.997,12.954,-0.028,0.0000,-0.2301,0.0000,0.9638,0.5000,1.0000,0.0000
63.990,Upwind,3964.814,0.317,3964.729,0.317,1447.521,1447.528,175.439,53.466,359.997,12.954,-0.028,0.0000,-0.2301,0.0000,0.9639,0.5000,1.0000,0.0000
64.193,Upwind,3984.471,0.316,3984.385,0.316,1457.323,1457.330,175.433,53.467,359.997,12.954,-0.028,0.0000,-0.2302,0.0000,0.9640,0.5000,1.0000,0.0000
64.388,Upwind,4001.104,0.316,4001.019,0.316,1468.908,1468.915,175.425,53.468,359.997,12.954,-0.029,0.0000,-0.2302,0.0000,0.9641,0.5000,1.0000,0.0000
64.593,Upwind,4020.763,0.315,4020.678,0.315,1479.602,1479.609,175.418,53.469,359.997,12.953,-0.029,0.0000,-0.2303,0.0000,0.9642,0.5000,1.0000,0.0000
64.806,Upwind,4038.911,0.315,4038.826,0.315,1491.187,1491.194,175.410,53.469,359.997,12.953,-0.029,-0.0001,-0.2303,0.0000,0.9643,0.5000,0.0000,0.0000
64.994,Upwind,4057.065,0.314,4056.980,0.314,1500.989,1500.996,175.405,53.470,359.997,12.953,-0.029,-0.0001,-0.2304,0.0000,0.9644,0.5000,0.0000,0.0000
65.190,Upwind,4073.707,0.314,4073.622,0.314,1511.683,1511.691,175.402,53.472,359.997,12.952,-0.029,0.0000,-0.2306,0.0000,0.9645,0.5000,0.0000,0.0000
65.396,Upwind,4093.376,0.313,4093.291,0.313,1522.378,1522.385,175.401,53.475,359.997,12.951,-0.029,0.0000,-0.2310,0.0000,0.9645,0.5000,0.0000,0.0000
65.592,Upwind,4110.021,0.313,4109.936,0.313,1533.073,1533.081,175.402,53.477,359.997,12.949,-0.029,0.0000,-0.2316,0.0000,0.9644,0.5000,0.0000,0.0000
65.798,Upwind,4129.699,0.313,4129.613,0.313,1543.769,1543.776,175.406,53.479,359.997,12.946,-0.029,0.0000,-0.2323,0.0000,0.9644,0.5000,0.0000,0.0000
65.996,Upwind,4147.865,0.312,4147.779,0.312,1554.465,1554.472,175.411,53.481,359.998,12.942,-0.029,-0.0001,-0.2332,0.0000,0.9643,0.5000,0.0000,0.0000
66.192,Upwind,4164.519,0.312,4164.434,0.312,1565.161,1565.169,175.419,53.482,359.998,12.938,-0.030,0.0000,-0.2340,0.0000,0.9642,0.5000,0.0000,0.0000
66.396,Upwind,4184.209,0.312,4184.124,0.312,1575.858,1575.865,175.429,53.483,359.998,12.934,-0.030,-0.0001,-0.2349,0.0000,0.9641,0.5000,0.0000,0.0000
66.591,Upwind,4200.873,0.312,4200.787,0.312,1586.554,1586.562,175.441,53.483,359.998,12.930,-0.030,0.0000,-0.2358,0.0000,0.9639,0.5000,0.0000,0.0000
66.798,Upwind,4220.569,0.311,4220.483,0.311,1597.251,1597.259,175.455,53.484,359.998,12.926,-0.030,0.0000,-0.2365,0.0000,0.9637,0.5000,0.0000,0.0000
66.991,Upwind,4237.241,0.311,4237.156,0.311,1607.948,1607.956,175.471,53.485,359.998,12.923,-0.030,0.0000,-0.2372,0.0000,0.9635,0.5000,0.0000,0.0000
67.189,Upwind,4255.432,0.311,4255.346,0.311,1618.645,1618.653,175.489,53.488,359.998,12.920,-0.030,0.0000,-0.2379,0.0000,0.9632,0.5000,0.0000,0.0000
67.398,Upwind,4275.143,0.311,4275.058,0.311,1629.343,1629.351,175.508,53.491,359.998,12.917,-0.030,-0.0001,-0.2384,0.0000,0.9630,0.5000,0.0000,0.0000
67.597,Upwind,4293.346,0.310,4293.260,0.310,1640.041,1640.049,175.529,53.495,359.998,12.915,-0.030,0.0000,-0.2390,0.0000,0.9627,0.5000,0.0000,0.0000
67.800,Upwind,4311.551,0.310,4311.466,0.310,1650.741,1650.749,175.552,53.501,359.998,12.912,-0.030,0.0000,-0.2395,0.0000,0.9624,0.5000,0.0000,0.0000
67.999,Upwind,4329.763,0.310,4329.678,0.310,1661.442,1661.450,175.576,53.508,359.998,12.910,-0.030,0.0000,-0.2401,0.0000,0.9620,0.5000,0.0000,0.0000
68.195,Upwind,4347.981,0.310,4347.896,0.310,1672.144,1672.152,175.601,53.516,359.998,12.907,-0.031,0.0000,-0.2407,0.0000,0.9617,0.5000,0.0000,0.0000
68.391,Upwind,4364.684,0.310,4364.599,0.310,1682.848,1682.856,175.628,53.526,359.998,12.905,-0.031,0.0000,-0.2413,0.0000,0.9613,0.5000,0.0000,0.0000
68.590,Upwind,4382.914,0.310,4382.829,0.310,1693.554,1693.563,175.656,53.536,359.998,12.902,-0.031,0.0000,-0.2419,0.0000,0.9609,0.5000,0.0000,0.0000
68.789,Upwind,4401.147,0.309,4401.062,0.309,1704.263,1704.271,175.686,53.548,359.998,12.899,-0.031,0.0000,-0.2426,0.0000,0.9605,0.5000,0.0000,0.0000
68.992,Upwind,4419.390,0.309,4419.304,0.309,1714.974,1714.982,175.717,53.560,359.998,12.896,-0.031,0.0000,-0.2432,0.0000,0.9600,0.5000,0.0000,0.0000
69.193,Upwind,4437.635,0.309,4437.550,0.309,1725.687,1725.695,175.749,53.574,359.998,12.893,-0.031,0.0000,-0.2439,0.0000,0.9596,0.5000,0.0000,0.0000
69.389,Upwind,4455.886,0.309,4455.801,0.309,1736.403,1736.411,175.782,53.589,359.998,12.890,-0.031,0.0000,-0.2445,0.0000,0.9591,0.5000,0.0000,0.0000
69.599,Upwind,4475.668,0.309,4475.583,0.309,1747.122,1747.131,175.816,53.604,359.998,12.887,-0.031,0.0000,-0.2451,0.0000,0.9587,0.5000,0.0000,0.0000
69.789,Upwind,4492.414,0.309,4492.328,0.309,1756.951,1756.960,175.849,53.620,359.998,12.885,-0.031,0.0000,-0.2457,0.0000,0.9582,0.5000,0.0000,0.0000
69.992,Upwind,4510.684,0.309,4510.598,0.309,1768.571,1768.579,175.887,53.638,359.998,12.882,-0.031,0.0000,-0.2463,0.0000,0.9577,0.5000,0.0000,0.0000
70.192,Upwind,4528.962,0.309,4528.877,0.309,1779.300,1779.309,175.921,53.656,359.998,12.880,-0.031,0.0000,-0.2466,0.0000,0.9572,0.5000,0.0000,0.0000
70.391,Upwind,4547.247,0.309,4547.162,0.309,1790.033,1790.042,175.953,53.675,359.998,12.878,-0.031,0.0000,-0.2468,0.0000,0.9567,0.5000,0.0000,0.0000
70.595,Upwind,4567.065,0.309,4566.980,0.309,1800.770,1800.779,175.984,53.694,359.998,12.878,-0.031,0.0000,-0.2468,0.0000,0.9563,0.5000,0.0000,0.0000
70.800,Upwind,4585.362,0.309,4585.277,0.309,1811.511,1811.520,176.013,53.715,359.998,12.878,-0.031,0.0000,-0.2467,0.0000,0.9559,0.5000,0.0000,0.0000
70.998,Upwind,4603.666,0.309,4603.580,0.309,1822.256,1822.265,176.041,53.738,359.998,12.880,-0.031,0.0000,-0.2464,0.0000,0.9555,0.5000,0.0000,0.0000
71.201,Upwind,4621.972,0.309,4621.887,0.309,1833.006,1833.015,176.068,53.762,359.998,12.881,-0.032,0.0000,-0.2461,0.0000,0.9551,0.5000,0.0000,0.0000
71.390,Upwind,4638.760,0.308,4638.675,0.308,1843.761,1843.770,176.093,53.787,359.998,12.882,-0.032,0.0000,-0.2458,0.0000,0.9548,0.5000,0.0000,0.0000
71.596,Upwind,4658.606,0.308,4658.521,0.308,1854.521,1854.530,176.117,53.814,359.998,12.884,-0.032,-0.0001,-0.2455,0.0000,0.9544,0.5000,0.0000,0.0000
71.794,Upwind,4676.931,0.308,4676.845,0.308,1865.287,1865.295,176.140,53.841,359.998,12.885,-0.032,0.0000,-0.2453,0.0000,0.9541,0.5000,0.0000,0.0000
71.994,Upwind,4695.261,0.308,4695.176,0.308,1876.058,1876.067,176.161,53.869,359.998,12.885,-0.032,0.0000,-0.2452,0.0000,0.9538,0.5000,0.0000,0.0000
72.197,Upwind,4713.595,0.308,4713.509,0.308,1886.834,1886.843,176.182,53.897,359.998,12.886,-0.032,0.0000,-0.2451,0.0000,0.9535,0.5000,0.0000,0.0000
72.399,Upwind,4731.935,0.308,4731.849,0.308,1897.616,1897.625,176.201,53.925,359.999,12.886,-0.032,0.0000,-0.2451,0.0000,0.9533,0.5000,0.0000,0.0000
72.599,Upwind,4750.281,0.308,4750.195,0.308,1908.404,1908.413,176.219,53.952,359.999,12.886,-0.032,0.0000,-0.2450,0.0000,0.9530,0.5000,0.0000,0.0000
72.798,Upwind,4768.630,0.309,4768.544,0.309,1919.197,1919.206,176.236,53.979,359.999,12.886,-0.032,0.0000,-0.2450,0.0000,0.9528,0.5000,0.0000,0.0000
72.990,Upwind,4785.452,0.309,4785.366,0.309,1929.995,1930.005,176.253,54.005,359.999,12.886,-0.032,0.0000,-0.2450,0.0000,0.9525,0.5000,0.0000,0.0000
73.197,Upwind,4805.340,0.309,4805.254,0.309,1940.799,1940.808,176.268,54.031,359.999,12.887,-0.032,0.0000,-0.2449,0.0000,0.9523,0.5000,0.0000,0.0000
73.395,Upwind,4823.701,0.309,4823.615,0.309,1951.607,1951.617,176.282,54.056,359.999,12.887,-0.032,0.0000,-0.2448,0.0000,0.9521,0.5000,0.0000,0.0000
73.592,Upwind,4840.535,0.309,4840.449,0.309,1962.421,1962.431,176.296,54.081,359.999,12.888,-0.032,0.0000,-0.2447,0.0000,0.9519,0.5000,0.0000,0.0000
73.798,Upwind,4860.438,0.309,4860.353,0.309,1973.240,1973.249,176.308,54.106,359.999,12.888,-0.032,0.0000,-0.2445,0.0000,0.9518,0.5000,0.0000,0.0000
73.998,Upwind,4878.812,0.309,4878.726,0.309,1984.063,1984.073,176.320,54.131,359.999,12.889,-0.032,0.0000,-0.2443,0.0000,0.9516,0.5000,0.0000,0.0000
74.198,Upwind,4897.188,0.309,4897.103,0.309,1994.892,1994.902,176.331,54.155,359.999,12.890,-0.032,0.0000,-0.2442,0.0000,0.9515,0.5000,0.0000,0.0000
74.395,Crosswind,4915.571,0.309,4915.485,0.309,2005.725,2005.735,176.327,54.166,359.998,12.891,-0.012,0.4000,-0.2921,0.0000,0.8981,0.0000,0.0000,0.0000
74.598,Crosswind,4933.947,0.309,4933.862,0.309,2016.547,2016.557,176.162,54.023,359.995,12.915,0.388,0.4000,-0.3834,0.0001,0.7966,0.0000,0.0000,0.0000
74.795,Crosswind,4952.299,0.313,4952.214,0.313,2027.323,2027.333,175.810,53.717,359.991,13.014,1.207,0.4000,-0.4718,0.0001,0.7000,0.0000,0.0000,0.0000
74.996,Crosswind,4970.611,0.324,4970.526,0.324,2038.028,2038.038,175.350,53.330,359.994,13.230,2.351,0.4000,-0.5626,0.0000,0.7000,0.0000,0.0000,0.0000
75.195,Crosswind,4988.881,0.350,4988.795,0.350,2048.657,2048.667,174.883,52.972,0.017,13.596,3.739,0.4000,-0.6521,-0.0002,0.7016,0.0000,0.0000,0.0000
75.401,Crosswind,5007.105,0.399,5007.020,0.399,2059.224,2059.234,174.415,52.720,0.077,14.132,5.309,0.4000,-0.7445,-0.0005,0.7123,0.0000,0.0000,0.0000
75.597,Crosswind,5025.287,0.480,5025.201,0.479,2069.757,2069.767,173.948,52.651,0.191,14.850,7.012,0.4000,-0.8000,-0.0010,0.7234,0.0000,0.0000,0.0000
75.793,Crosswind,5043.416,0.604,5043.331,0.604,2080.302,2080.312,173.478,52.853,0.380,15.734,8.806,0.4000,-0.8000,-0.0016,0.7348,0.0000,0.0000,0.0000
75.993,Crosswind,5061.497,0.786,5061.412,0.786,2090.919,2090.929,173.000,53.369,0.656,16.727,10.658,0.4000,-0.8000,-0.0025,0.7464,0.0000,0.0000,0.0000
76.195,Crosswind,5079.517,1.039,5079.431,1.039,2100.768,2100.778,172.552,54.116,0.993,17.682,12.384,0.4000,-0.7697,-0.0037,0.7573,0.0000,0.0000,0.0000
76.397,Crosswind,5097.472,1.379,5097.387,1.379,2112.616,2112.627,172.006,55.306,1.496,18.797,14.433,0.4000,-0.7395,-0.0050,0.7704,0.0000,0.0000,0.0000
76.590,Crosswind,5113.874,1.782,5113.788,1.782,2123.809,2123.819,171.486,56.653,2.057,19.752,16.314,0.4000,-0.7105,-0.0064,0.7827,0.0000,0.0000,0.0000
76.797,Crosswind,5133.177,2.388,5133.091,2.388,2135.288,2135.298,170.953,58.159,2.703,20.592,18.172,0.3759,-0.6795,-0.0082,0.7951,0.0000,0.0000,0.0000
76.990,Crosswind,5149.435,3.024,5149.349,3.024,2147.077,2147.088,170.411,59.738,3.424,21.286,19.976,0.3109,-0.6504,-0.0099,0.8075,0.0000,0.0000,0.0000
77.192,Crosswind,5167.095,3.861,5167.009,3.861,2158.162,2158.172,169.911,61.178,4.138,21.778,21.521,0.2601,-0.6202,-0.0116,0.8186,0.0000,0.0000,0.0000
77.390,Crosswind,5184.672,4.860,5184.587,4.860,2171.594,2171.605,169.324,62.793,5.031,22.173,23.161,0.2070,-0.5906,-0.0133,0.8312,0.0000,0.0000,0.0000
77.597,Crosswind,5203.616,6.136,5203.530,6.136,2184.290,2184.301,168.793,64.139,5.884,22.362,24.473,0.1684,-0.5594,-0.0150,0.8422,0.0000,0.0000,0.0000
77.797,Crosswind,5221.017,7.500,5220.932,7.500,2197.237,2197.248,168.278,65.299,6.747,22.392,25.587,0.1356,-0.5294,-0.0162,0.8523,0.0000,0.0000,0.0000
77.992,Crosswind,5236.897,8.911,5236.812,8.911,2210.395,2210.405,167.785,66.237,7.602,22.277,26.514,0.1079,-0.5002,-0.0171,0.8617,0.0000,0.0000,0.0000
78.200,Crosswind,5255.582,10.781,5255.496,10.781,2223.716,2223.726,167.320,66.930,8.433,22.037,27.274,0.0866,-0.4690,-0.0177,0.8703,0.0000,0.0000,0.0000
78.391,Crosswind,5271.321,12.534,5271.235,12.534,2237.149,2237.160,166.884,67.361,9.228,21.691,27.893,0.0679,-0.4403,-0.0178,0.8780,0.0000,0.0000,0.0000
78.592,Crosswind,5288.426,14.625,5288.341,14.625,2250.642,2250.653,166.482,67.523,9.974,21.260,28.394,0.0527,-0.4102,-0.0177,0.8850,0.0000,0.0000,0.0000
78.797,Crosswind,5306.888,17.097,5306.803,17.097,2264.140,2264.151,166.116,67.413,10.664,20.762,28.802,0.0400,-0.3794,-0.0173,0.8912,0.0000,0.0000,0.0000
78.992,Crosswind,5322.460,19.354,5322.375,19.354,2277.589,2277.600,165.787,67.034,11.292,20.213,29.136,0.0288,-0.3502,-0.0167,0.8967,0.0000,0.0000,0.0000
79.193,Crosswind,5340.806,22.213,5340.721,22.213,2290.936,2290.947,165.497,66.391,11.855,19.627,29.410,0.0194,-0.3200,-0.0159,0.9015,0.0000,0.0000,0.0000
79.391,Crosswind,5356.293,24.790,5356.208,24.790,2304.129,2304.140,165.247,65.496,12.353,19.015,29.634,0.0116,-0.2979,-0.0150,0.9056,0.0000,0.0000,0.0000
79.592,Crosswind,5373.151,27.761,5373.066,27.761,2317.118,2317.129,165.033,64.348,12.792,18.392,29.817,0.0052,-0.3884,-0.0142,0.9090,0.0000,0.0000,0.0000
79.800,Crosswind,5391.385,31.163,5391.299,31.163,2329.852,2329.863,164.853,62.954,13.205,17.811,29.971,0.0002,-0.4820,-0.0132,0.9120,0.0000,0.0000,0.0000
79.992,Crosswind,5406.787,34.185,5406.701,34.185,2342.286,2342.298,164.702,61.368,13.628,17.326,30.106,-0.0040,-0.5681,-0.0125,0.9142,0.0000,0.0000,0.0000
80.203,Crosswind,5424.971,37.922,5424.886,37.922,2354.391,2354.402,164.579,59.661,14.093,16.978,30.227,-0.0071,-0.6631,-0.0118,0.9159,0.0000,0.0000,0.0000
80.388,Crosswind,5440.339,41.223,5440.253,41.223,2365.182,2365.193,164.486,58.058,14.578,16.802,30.327,-0.0093,-0.7467,-0.0114,0.9172,0.0000,0.0000,0.0000
80.594,Crosswind,5458.483,45.287,5458.398,45.287,2377.559,2377.570,164.394,56.211,15.243,16.792,30.434,-0.0111,-0.8000,-0.0110,0.9185,0.0000,0.0000,0.0000
80.793,Crosswind,5473.818,48.868,5473.733,48.868,2388.642,2388.654,164.322,54.657,15.952,16.963,30.520,-0.0122,-0.7982,-0.0108,0.9195,0.0000,0.0000,0.0000
80.994,Crosswind,5491.911,53.274,5491.825,53.274,2399.436,2399.448,164.259,53.324,16.736,17.266,30.588,-0.0120,-0.7680,-0.0107,0.9204,0.0000,0.0000,0.0000
81.198,Crosswind,5508.580,57.514,5508.495,57.514,2409.989,2410.001,164.199,52.248,17.569,17.645,30.631,-0.0110,-0.7375,-0.0107,0.9212,0.0000,0.0000,0.0000
81.397,Crosswind,5525.213,61.928,5525.128,61.928,2420.353,2420.364,164.138,51.431,18.426,18.051,30.644,-0.0091,-0.7076,-0.0109,0.9221,0.0000,0.0000,0.0000
81.600,Crosswind,5541.797,66.522,5541.712,66.522,2430.577,2430.589,164.074,50.852,19.285,18.441,30.626,-0.0062,-0.6772,-0.0111,0.9230,0.0000,0.0000,0.0000
81.796,Crosswind,5558.333,71.301,5558.248,71.301,2440.707,2440.719,164.006,50.477,20.126,18.781,30.574,-0.0025,-0.6478,-0.0113,0.9239,0.0000,0.0000,0.0000
81.992,Crosswind,5573.439,75.847,5573.354,75.847,2450.779,2450.790,163.935,50.259,20.933,19.046,30.493,0.0018,-0.6184,-0.0115,0.9249,0.0000,0.0000,0.0000
82.204,Crosswind,5591.224,81.427,5591.139,81.427,2460.818,2460.829,163.863,50.145,21.696,19.219,30.385,0.0068,-0.5865,-0.0118,0.9259,0.0000,0.0000,0.0000
82.394,Crosswind,5607.570,86.776,5607.484,86.776,2470.840,2470.852,163.794,50.080,22.405,19.290,30.256,0.0119,-0.5581,-0.0119,0.9269,0.0000,0.0000,0.0000
82.599,Crosswind,5623.853,92.315,5623.768,92.315,2480.849,2480.861,163.731,50.013,23.057,19.256,30.112,0.0171,-0.5273,-0.0120,0.9278,0.0000,0.0000,0.0000
82.790,Crosswind,5638.715,97.557,5638.629,97.557,2490.841,2490.853,163.678,49.895,23.650,19.119,29.960,0.0223,-0.4986,-0.0121,0.9284,0.0000,0.0000,0.0000
82.990,Crosswind,5654.869,103.453,5654.784,103.453,2500.801,2500.813,163.639,49.684,24.185,18.884,29.806,0.0271,-0.4687,-0.0121,0.9285,0.0000,0.0000,0.0000
83.196,Crosswind,5672.292,110.043,5672.207,110.043,2510.706,2510.718,163.616,49.344,24.664,18.558,29.655,0.0314,-0.4378,-0.0121,0.9285,0.0000,0.0000,0.0000
83.393,Crosswind,5688.314,116.308,5688.229,116.308,2520.528,2520.540,163.612,48.837,25.094,18.154,29.513,0.0356,-0.5060,-0.0121,0.9281,0.0000,0.0000,0.0000
83.590,Crosswind,5702.949,122.200,5702.863,122.200,2530.227,2530.240,163.624,48.128,25.503,17.718,29.388,0.0389,-0.5944,-0.0120,0.9276,0.0000,0.0000,0.0000
