time_s,leg,north_m,east_m,along_m,cross_m,agl_ft,altitude_ft,speed_kts,vertical_speed_fps,heading_deg,pitch_deg,roll_deg,aileron_cmd,elevator_cmd,rudder_cmd,throttle_cmd,flaps_cmd,gear_cmd,brake_cmd
1.786,Upwind,0.489,0.000,0.489,0.000,3.691,3.691,2.373,0.001,0.000,0.450,0.000,0.0000,0.0075,0.0000,0.0000,0.5000,1.0000,1.0000
1.981,Upwind,0.639,0.000,0.639,0.000,3.693,3.693,0.701,0.038,0.000,0.374,0.000,0.0000,0.0355,0.0000,0.0000,0.5000,1.0000,1.0000
2.176,Upwind,0.644,0.000,0.644,0.000,3.706,3.706,0.028,0.043,0.000,0.318,0.000,0.0000,0.0571,0.0000,0.0000,0.5000,1.0000,1.0000
2.376,Upwind,0.642,0.000,0.642,0.000,3.696,3.696,0.071,-0.119,0.000,0.450,0.000,0.0000,0.0712,0.0000,0.0000,0.5000,1.0000,1.0000
2.573,Upwind,0.641,0.000,0.641,0.000,3.680,3.680,0.017,-0.026,0.000,0.489,0.000,0.0000,0.0665,0.0000,0.0106,0.5000,1.0000,0.0000
2.770,Upwind,0.642,0.000,0.642,0.000,3.684,3.684,0.026,0.041,0.000,0.457,0.000,0.0000,0.0607,0.0000,0.1089,0.5000,1.0000,0.0000
2.972,Upwind,0.643,0.000,0.643,0.000,3.691,3.691,0.014,0.021,0.000,0.438,0.000,0.0000,0.0618,0.0000,0.2100,0.5000,1.0000,0.0000
3.174,Upwind,0.644,0.000,0.644,0.000,3.692,3.692,0.012,-0.008,0.000,0.447,0.000,0.0000,0.0633,0.0000,0.3108,0.5000,1.0000,0.0000
3.370,Upwind,0.645,0.000,0.645,0.000,3.690,3.690,0.022,-0.006,0.000,0.451,0.000,0.0000,0.0633,0.0000,0.4091,0.5000,1.0000,0.0000
3.579,Upwind,0.649,0.000,0.649,0.000,3.690,3.690,0.044,0.003,0.000,0.450,0.000,0.0000,0.0628,0.0000,0.5137,0.5000,1.0000,0.0000
3.772,Upwind,0.655,0.000,0.655,0.000,3.691,3.691,0.073,0.002,0.000,0.449,0.000,0.0000,0.0627,0.0000,0.6098,0.5000,1.0000,0.0000
3.972,Upwind,0.666,0.000,0.666,0.000,3.691,3.691,0.118,0.000,0.000,0.449,0.000,0.0000,0.0629,0.0000,0.7099,0.5000,1.0000,0.0000
4.171,Upwind,0.680,0.000,0.680,0.000,3.691,3.691,0.179,-0.001,0.000,0.449,0.000,0.0000,0.0629,0.0000,0.8095,0.5000,1.0000,0.0000
4.379,Upwind,0.706,0.000,0.706,0.000,3.691,3.691,0.267,0.000,0.000,0.449,0.000,0.0000,0.0629,0.0000,0.9134,0.5000,1.0000,0.0000
4.575,Upwind,0.739,0.000,0.739,0.000,3.691,3.691,0.371,0.000,0.000,0.449,0.000,0.0000,0.0629,0.0000,1.0000,0.5000,1.0000,0.0000
4.773,Upwind,0.785,0.000,0.785,0.000,3.691,3.691,0.490,0.000,0.000,0.449,0.000,0.0000,0.0629,0.0000,1.0000,0.5000,1.0000,0.0000
4.970,Upwind,0.840,0.000,0.840,0.000,3.691,3.691,0.649,0.000,0.000,0.450,0.000,0.0000,0.0630,0.0000,1.0000,0.5000,1.0000,0.0000
5.179,Upwind,0.926,0.000,0.926,0.000,3.691,3.691,0.863,0.000,0.000,0.450,0.000,0.0000,0.0630,0.0000,1.0000,0.5000,1.0000,0.0000
5.378,Upwind,1.029,0.000,1.029,0.000,3.691,3.691,1.103,0.000,0.000,0.450,0.000,0.0000,0.0630,0.0000,1.0000,0.5000,1.0000,0.0000
5.589,Upwind,1.172,0.000,1.172,0.000,3.691,3.691,1.393,0.000,0.000,0.450,0.000,0.0000,0.0631,0.0000,1.0000,0.5000,1.0000,0.0000
5.774,Upwind,1.323,0.000,1.323,0.000,3.691,3.691,1.739,0.000,0.000,0.451,0.000,0.0000,0.0631,0.0000,1.0000,0.5000,1.0000,0.0000
5.986,Upwind,1.526,0.000,1.526,0.000,3.691,3.691,2.149,0.000,0.000,0.451,0.000,0.0000,0.0632,0.0000,1.0000,0.5000,1.0000,0.0000
6.187,Upwind,1.776,0.000,1.776,0.000,3.691,3.691,2.632,0.000,0.000,0.451,0.000,0.0000,0.0632,0.0000,1.0000,0.5000,1.0000,0.0000
6.386,Upwind,2.079,0.000,2.079,0.000,3.691,3.691,3.194,0.000,0.000,0.452,0.000,0.0000,0.0633,0.0000,1.0000,0.5000,1.0000,0.0000
6.587,Upwind,2.480,0.000,2.480,0.000,3.691,3.691,3.846,0.000,0.000,0.452,0.000,0.0000,0.0633,0.0000,1.0000,0.5000,1.0000,0.0000
6.774,Upwind,2.886,0.000,2.886,0.000,3.691,3.691,4.527,0.000,0.000,0.453,0.000,0.0000,0.0634,0.0000,1.0000,0.5000,1.0000,0.0000
6.988,Upwind,3.456,0.000,3.456,0.000,3.691,3.691,5.443,0.000,0.000,0.453,0.000,0.0000,0.0635,0.0000,1.0000,0.5000,1.0000,0.0000
7.185,Upwind,4.026,0.000,4.026,0.000,3.691,3.691,6.404,0.000,0.000,0.454,0.000,0.0000,0.0635,0.0000,1.0000,0.5000,1.0000,0.0000
7.374,Upwind,4.748,0.000,4.748,0.000,3.691,3.691,7.482,0.000,0.000,0.454,0.000,0.0000,0.0636,0.0000,1.0000,0.5000,1.0000,0.0000
7.578,Upwind,5.589,0.000,5.589,0.000,3.691,3.691,8.683,0.001,0.000,0.455,0.000,0.0000,0.0637,0.0000,1.0000,0.5000,1.0000,0.0000
7.774,Upwind,6.560,0.000,6.560,0.000,3.691,3.691,9.967,0.001,0.000,0.455,0.000,0.0000,0.0637,0.0000,1.0000,0.5000,1.0000,0.0000
7.980,Upwind,7.662,0.000,7.662,0.000,3.691,3.691,11.252,0.001,0.000,0.455,0.000,0.0000,0.0636,0.0000,1.0000,0.5000,1.0000,0.0000
8.186,Upwind,8.897,0.000,8.897,0.000,3.692,3.692,12.536,0.001,0.000,0.454,0.000,0.0000,0.0636,0.0000,1.0000,0.5000,1.0000,0.0000
8.383,Upwind,10.264,0.000,10.264,0.000,3.692,3.692,13.818,0.001,0.000,0.454,0.000,0.0000,0.0635,0.0000,1.0000,0.5000,1.0000,0.0000
8.572,Upwind,11.763,0.000,11.763,0.000,3.692,3.692,14.993,0.001,0.000,0.454,0.000,0.0000,0.0635,0.0000,1.0000,0.5000,1.0000,0.0000
8.783,Upwind,13.393,0.000,13.393,0.000,3.692,3.692,16.381,0.001,0.000,0.453,0.000,0.0000,0.0634,0.0000,1.0000,0.5000,1.0000,0.0000
8.980,Upwind,15.156,0.000,15.156,0.000,3.693,3.693,17.660,0.002,0.000,0.453,0.000,0.0000,0.0634,0.0000,1.0000,0.5000,1.0000,0.0000
9.188,Upwind,17.213,0.000,17.213,0.000,3.693,3.693,18.938,0.002,0.000,0.453,0.000,0.0000,0.0633,0.0000,1.0000,0.5000,1.0000,0.0000
9.379,Upwind,19.075,0.000,19.075,0.000,3.693,3.693,20.216,0.002,0.000,0.452,0.000,0.0000,0.0632,0.0000,1.0000,0.5000,1.0000,0.0000
9.578,Upwind,21.231,0.000,21.231,0.000,3.694,3.694,21.491,0.002,0.000,0.452,0.000,0.0000,0.0632,0.0000,1.0000,0.5000,1.0000,0.0000
9.772,Upwind,23.519,0.000,23.519,0.000,3.694,3.694,22.660,0.002,0.000,0.451,0.000,0.0000,0.0631,0.0000,1.0000,0.5000,1.0000,0.0000
9.980,Upwind,25.938,0.000,25.938,0.000,3.694,3.694,24.040,0.002,0.000,0.450,0.000,0.0000,0.0630,0.0000,1.0000,0.5000,1.0000,0.0000
10.187,Upwind,28.488,0.000,28.488,0.000,3.695,3.695,25.312,0.003,0.000,0.450,0.000,0.0000,0.0629,0.0000,1.0000,0.5000,1.0000,0.0000
10.376,Upwind,31.169,0.000,31.169,0.000,3.695,3.695,26.583,0.003,0.000,0.449,0.000,0.0000,0.0628,0.0000,1.0000,0.5000,1.0000,0.0000
10.585,Upwind,33.980,0.000,33.980,0.000,3.696,3.696,27.853,0.003,0.000,0.448,0.000,0.0000,0.0627,0.0000,1.0000,0.5000,1.0000,0.0000
10.784,Upwind,36.922,0.000,36.922,0.000,3.697,3.697,29.121,0.003,0.000,0.448,0.000,0.0000,0.0626,0.0000,1.0000,0.5000,1.0000,0.0000
10.975,Upwind,39.995,0.000,39.995,0.000,3.697,3.697,30.388,0.003,0.000,0.447,0.000,0.0000,0.0625,0.0000,1.0000,0.5000,1.0000,0.0000
11.178,Upwind,43.197,0.000,43.197,0.000,3.698,3.698,31.654,0.004,0.000,0.446,0.000,0.0000,0.0623,0.0000,1.0000,0.5000,1.0000,0.0000
11.385,Upwind,46.530,0.001,46.530,0.001,3.699,3.699,32.918,0.004,0.000,0.445,0.000,0.0000,0.0622,0.0000,1.0000,0.5000,1.0000,0.0000
11.591,Upwind,50.287,0.001,50.287,0.001,3.699,3.699,34.181,0.004,0.000,0.444,0.000,0.0000,0.0620,0.0000,1.0000,0.5000,1.0000,0.0000
11.790,Upwind,53.891,0.001,53.891,0.001,3.700,3.700,35.442,0.004,0.000,0.443,0.000,0.0000,0.0619,0.0000,1.0000,0.5000,1.0000,0.0000
11.985,Upwind,57.308,0.001,57.308,0.001,3.701,3.701,36.702,0.005,0.000,0.442,0.000,0.0000,0.0617,0.0000,1.0000,0.5000,1.0000,0.0000
12.185,Upwind,61.160,0.001,61.160,0.001,3.702,3.702,37.960,0.005,0.000,0.440,0.000,0.0000,0.0615,0.0000,1.0000,0.5000,1.0000,0.0000
12.386,Upwind,65.141,0.001,65.141,0.001,3.703,3.703,39.216,0.005,0.000,0.439,0.000,0.0000,0.0614,0.0000,1.0000,0.5000,1.0000,0.0000
12.570,Upwind,68.904,0.001,68.904,0.001,3.704,3.704,40.367,0.005,0.000,0.438,0.000,0.0000,0.0612,0.0000,1.0000,0.5000,1.0000,0.0000
12.773,Upwind,73.491,0.001,73.491,0.001,3.705,3.705,41.724,0.006,0.000,0.436,0.000,0.0000,0.0610,0.0000,1.0000,0.5000,1.0000,0.0000
12.974,Upwind,77.859,0.001,77.859,0.001,3.706,3.706,42.872,0.006,0.000,0.435,0.000,0.0000,0.0608,0.0000,1.0000,0.5000,1.0000,0.0000
13.176,Upwind,82.356,0.001,82.356,0.001,3.707,3.707,44.226,0.006,0.000,0.433,0.000,0.0000,0.0605,0.0000,1.0000,0.5000,1.0000,0.0000
13.371,Upwind,86.982,0.002,86.982,0.002,3.708,3.708,45.370,0.006,0.000,0.432,0.000,0.0000,0.0603,0.0000,1.0000,0.5000,1.0000,0.0000
13.575,Upwind,91.735,0.002,91.735,0.002,3.710,3.710,46.720,0.007,0.000,0.430,0.000,0.0000,0.0601,0.0000,1.0000,0.5000,1.0000,0.0000
13.770,Upwind,96.205,0.002,96.205,0.002,3.711,3.711,47.861,0.007,0.000,0.429,0.000,0.0000,0.0598,0.0000,1.0000,0.5000,1.0000,0.0000
13.973,Upwind,101.627,0.002,101.627,0.002,3.713,3.713,49.207,0.007,0.000,0.427,0.000,0.0000,0.0596,0.0000,1.0000,0.5000,1.0000,0.0000
14.188,Upwind,107.198,0.002,107.198,0.002,3.714,3.714,50.447,0.008,0.001,0.425,0.000,0.0000,0.0593,0.0000,1.0000,0.5000,1.0000,0.0000
14.384,Upwind,112.029,0.002,112.029,0.002,3.716,3.716,51.685,0.009,0.001,0.423,0.000,-0.0001,0.0589,0.0000,1.0000,0.5000,1.0000,0.0000
14.577,Upwind,117.422,0.003,117.422,0.003,3.717,3.717,52.921,0.009,0.001,0.420,0.000,-0.0001,0.0586,0.0000,1.0000,0.5000,1.0000,0.0000
14.785,Upwind,122.941,0.003,122.941,0.003,3.719,3.719,54.155,0.009,0.001,0.418,0.000,-0.0001,0.0583,0.0000,1.0000,0.5000,1.0000,0.0000
14.977,Upwind,128.587,0.003,128.587,0.003,3.721,3.721,55.387,0.010,0.001,0.416,0.000,-0.0001,0.0579,0.0000,1.0000,0.5000,1.0000,0.0000
15.184,Upwind,134.360,0.003,134.360,0.003,3.723,3.723,56.616,0.010,0.001,0.413,0.000,-0.0001,0.0576,0.0000,1.0000,0.5000,1.0000,0.0000
15.387,Upwind,140.259,0.003,140.259,0.003,3.725,3.725,57.843,0.010,0.001,0.410,0.000,-0.0001,0.0572,0.0000,1.0000,0.5000,1.0000,0.0000
15.576,Upwind,146.284,0.004,146.284,0.004,3.727,3.727,59.068,0.011,0.001,0.408,0.000,-0.0001,0.0568,0.0000,1.0000,0.5000,1.0000,0.0000
15.776,Upwind,152.435,0.004,152.435,0.004,3.729,3.729,60.290,0.011,0.001,0.405,0.000,-0.0001,0.0564,0.0000,1.0000,0.5000,1.0000,0.0000
15.970,Upwind,158.184,0.004,158.184,0.004,3.731,3.731,61.408,0.010,0.001,0.402,0.000,-0.0001,0.0560,0.0000,1.0000,0.5000,1.0000,0.0000
16.174,Upwind,165.114,0.005,165.114,0.005,3.733,3.733,62.727,0.009,0.001,0.400,0.000,-0.0001,0.0557,0.0000,1.0000,0.5000,1.0000,0.0000
16.373,Upwind,171.641,0.005,171.641,0.005,3.735,3.735,63.943,0.008,0.001,0.397,0.000,-0.0001,0.0554,0.0000,1.0000,0.5000,1.0000,0.0000
16.582,Upwind,178.293,0.005,178.293,0.005,3.737,3.737,65.156,0.009,0.001,0.395,0.000,-0.0001,0.0551,0.0000,1.0000,0.5000,1.0000,0.0000
16.772,Upwind,185.070,0.006,185.070,0.006,3.739,3.739,66.367,0.009,0.002,0.393,0.000,-0.0001,0.0548,0.0000,1.0000,0.5000,1.0000,0.0000
16.983,Upwind,191.972,0.006,191.972,0.006,3.740,3.740,67.576,0.009,0.002,0.391,0.000,-0.0001,0.0545,0.0000,1.0000,0.5000,1.0000,0.0000
17.173,Upwind,198.997,0.007,198.997,0.007,3.742,3.742,68.682,0.009,0.002,0.389,0.000,-0.0001,0.0542,0.0000,1.0000,0.5000,1.0000,0.0000
17.384,Upwind,206.147,0.007,206.147,0.007,3.744,3.744,69.987,0.009,0.002,0.386,0.000,-0.0001,0.0538,0.0000,1.0000,0.5000,1.0000,0.0000
17.572,Upwind,213.420,0.008,213.420,0.008,3.746,3.746,71.189,0.009,0.002,0.384,0.000,-0.0002,0.0535,0.0000,1.0000,0.5000,1.0000,0.0000
17.778,Upwind,220.817,0.008,220.817,0.008,3.748,3.748,72.388,0.010,0.002,0.381,0.000,-0.0002,0.0531,0.0000,1.0000,0.5000,1.0000,0.0000
17.985,Upwind,228.337,0.009,228.337,0.009,3.750,3.750,73.586,0.010,0.002,0.379,0.000,-0.0002,0.0528,0.0000,1.0000,0.5000,1.0000,0.0000
18.182,Upwind,235.980,0.009,235.980,0.009,3.752,3.752,74.781,0.010,0.002,0.376,0.000,-0.0002,0.0524,0.0000,1.0000,0.5000,1.0000,0.0000
18.386,Upwind,243.747,0.010,243.747,0.010,3.754,3.754,75.974,0.010,0.003,0.374,0.000,-0.0002,0.0521,0.0000,1.0000,0.5000,1.0000,0.0000
18.572,Upwind,251.635,0.011,251.635,0.011,3.755,3.755,77.065,0.010,0.003,0.371,0.000,-0.0002,0.0517,0.0000,1.0000,0.5000,1.0000,0.0000
18.771,Upwind,259.646,0.011,259.646,0.011,3.757,3.757,78.253,0.010,0.003,0.369,0.000,-0.0002,0.0514,0.0000,1.0000,0.5000,1.0000,0.0000
18.976,Upwind,267.779,0.012,267.779,0.012,3.759,3.759,79.439,0.010,0.003,0.366,0.000,-0.0002,0.0510,0.0000,1.0000,0.5000,1.0000,0.0000
19.188,Upwind,276.728,0.013,276.728,0.013,3.762,3.762,80.721,0.011,0.003,0.363,0.000,-0.0002,0.0506,0.0000,1.0000,0.5000,1.0000,0.0000
19.379,Upwind,284.411,0.014,284.411,0.014,3.764,3.764,81.901,0.011,0.003,0.361,0.000,-0.0003,0.0502,0.0000,1.0000,0.5000,1.0000,0.0000
19.572,Upwind,292.909,0.015,292.909,0.015,3.766,3.766,83.080,0.011,0.004,0.358,0.000,-0.0003,0.0498,0.0000,1.0000,0.5000,1.0000,0.0000
19.772,Upwind,301.528,0.015,301.528,0.015,3.768,3.768,84.255,0.011,0.004,0.355,0.000,-0.0003,0.0494,0.0000,1.0000,0.5000,1.0000,0.0000
19.987,Upwind,310.267,0.016,310.267,0.016,3.770,3.770,85.428,0.011,0.004,0.352,0.000,-0.0003,0.0490,0.0000,1.0000,0.5000,1.0000,0.0000
20.173,Upwind,319.128,0.017,319.128,0.017,3.772,3.772,86.501,0.011,0.004,0.350,0.000,-0.0003,0.0487,0.0000,1.0000,0.5000,1.0000,0.0000
20.387,Upwind,328.108,0.019,328.108,0.019,3.775,3.775,87.767,0.011,0.005,0.347,0.000,-0.0003,0.0482,0.0000,1.0000,0.5000,1.0000,0.0000
20.576,Upwind,337.209,0.020,337.209,0.020,3.777,3.777,88.933,0.011,0.005,0.344,0.000,-0.0004,0.0478,0.0000,1.0000,0.5000,1.0000,0.0000
20.781,Upwind,346.429,0.021,346.429,0.021,3.779,3.779,90.095,0.011,0.005,0.341,0.000,-0.0004,0.0474,0.0000,1.0000,0.5000,1.0000,0.0000
20.981,Upwind,355.769,0.022,355.769,0.022,3.781,3.781,91.256,0.012,0.005,0.338,0.000,-0.0004,0.0470,0.0000,1.0000,0.5000,1.0000,0.0000
21.180,Upwind,365.228,0.023,365.228,0.023,3.784,3.784,92.413,0.012,0.006,0.335,0.000,-0.0004,0.0466,0.0000,1.0000,0.5000,1.0000,0.0000
21.385,Upwind,374.807,0.025,374.807,0.025,3.786,3.786,93.568,0.012,0.006,0.332,0.000,-0.0004,0.0462,0.0000,1.0000,0.5000,1.0000,0.0000
21.574,Upwind,384.503,0.026,384.503,0.026,3.788,3.788,94.721,0.012,0.006,0.329,0.000,-0.0004,0.0458,0.0000,1.0000,0.5000,1.0000,0.0000
21.779,Upwind,394.319,0.028,394.319,0.028,3.791,3.791,95.871,0.012,0.006,0.326,0.000,-0.0005,0.0453,0.0000,1.0000,0.5000,1.0000,0.0000
21.974,Upwind,404.252,0.029,404.252,0.029,3.793,3.793,96.922,0.012,0.007,0.323,0.000,-0.0005,0.0449,0.0000,1.0000,0.5000,1.0000,0.0000
22.183,Upwind,414.303,0.031,414.303,0.031,3.796,3.796,98.162,0.012,0.007,0.320,0.000,-0.0005,0.0445,0.0000,1.0000,0.5000,1.0000,0.0000
22.384,Upwind,424.472,0.033,424.472,0.033,3.798,3.798,99.303,0.012,0.007,0.317,0.000,-0.0005,0.0440,0.0000,1.0000,0.5000,1.0000,0.0000
22.577,Upwind,434.758,0.034,434.758,0.034,3.801,3.801,100.442,0.012,0.008,0.314,0.000,-0.0006,0.0436,0.0000,1.0000,0.5000,1.0000,0.0000
22.786,Upwind,445.161,0.036,445.161,0.036,3.803,3.803,101.578,0.013,0.008,0.310,0.000,-0.0006,0.0432,0.0000,1.0000,0.5000,1.0000,0.0000
22.983,Upwind,455.681,0.038,455.681,0.038,3.806,3.806,102.712,0.013,0.008,0.307,0.000,-0.0006,0.0427,0.0000,1.0000,0.5000,1.0000,0.0000
23.186,Upwind,466.317,0.040,466.317,0.040,3.808,3.808,103.842,0.013,0.009,0.304,0.000,-0.0006,0.0423,0.0000,1.0000,0.5000,1.0000,0.0000
23.378,Upwind,477.070,0.043,477.070,0.043,3.811,3.811,104.970,0.013,0.009,0.301,0.000,-0.0007,0.0418,0.0000,1.0000,0.5000,1.0000,0.0000
23.571,Upwind,487.938,0.045,487.938,0.045,3.813,3.813,106.001,0.013,0.009,0.298,0.000,-0.0007,0.0414,0.0000,1.0000,0.5000,1.0000,0.0000
23.779,Upwind,498.922,0.047,498.922,0.047,3.816,3.816,107.217,0.013,0.010,0.294,0.000,-0.0007,0.0409,0.0000,1.0000,0.5000,1.0000,0.0000
23.987,Upwind,510.021,0.050,510.021,0.050,3.818,3.818,108.336,0.013,0.010,0.291,0.000,-0.0008,0.0404,0.0000,1.0000,0.5000,1.0000,0.0000
24.174,Upwind,521.235,0.052,521.235,0.052,3.821,3.821,109.453,0.013,0.011,0.288,0.000,-0.0008,0.0400,0.0000,1.0000,0.5000,1.0000,0.0000
24.383,Upwind,532.564,0.055,532.564,0.055,3.824,3.824,110.566,0.013,0.011,0.284,0.000,-0.0008,0.0395,0.0000,1.0000,0.5000,1.0000,0.0000
24.585,Upwind,544.007,0.058,544.007,0.058,3.826,3.826,111.677,0.013,0.011,0.281,0.000,-0.0008,0.0390,0.0000,1.0000,0.5000,1.0000,0.0000
24.786,Upwind,555.565,0.060,555.565,0.060,3.829,3.829,112.785,0.013,0.012,0.278,0.000,-0.0009,0.0386,0.0000,1.0000,0.5000,1.0000,0.0000
24.980,Upwind,567.236,0.063,567.236,0.063,3.832,3.832,113.889,0.014,0.012,0.274,0.000,-0.0009,0.0381,0.0000,1.0000,0.5000,1.0000,0.0000
25.181,Upwind,579.020,0.067,579.020,0.067,3.834,3.834,114.991,0.014,0.013,0.271,0.000,-0.0009,0.0376,0.0000,1.0000,0.5000,1.0000,0.0000
25.379,Upwind,590.918,0.070,590.918,0.070,3.837,3.837,116.090,0.014,0.013,0.268,0.000,-0.0010,0.0371,0.0000,1.0000,0.5000,1.0000,0.0000
25.572,Upwind,602.929,0.073,602.929,0.073,3.840,3.840,117.095,0.014,0.014,0.264,0.000,-0.0010,0.0367,0.0000,1.0000,0.5000,1.0000,0.0000
25.780,Upwind,615.052,0.077,615.052,0.077,3.843,3.843,118.279,0.014,0.014,0.261,0.000,-0.0011,0.0362,0.0000,1.0000,0.5000,1.0000,0.0000
25.988,Upwind,628.313,0.081,628.313,0.081,3.845,3.845,119.369,0.014,0.015,0.257,0.000,-0.0011,0.0357,0.0000,1.0000,0.5000,1.0000,0.0000
26.173,Upwind,639.636,0.084,639.636,0.084,3.848,3.848,120.456,0.014,0.015,0.254,0.000,-0.0011,0.0352,0.0000,1.0000,0.5000,1.0000,0.0000
26.386,Upwind,652.095,0.088,652.095,0.088,3.851,3.851,121.541,0.014,0.016,0.250,-0.001,-0.0012,0.0347,0.0000,1.0000,0.5000,1.0000,0.0000
26.577,Upwind,664.666,0.092,664.666,0.092,3.854,3.854,122.622,0.014,0.016,0.247,-0.001,-0.0012,0.0342,0.0000,1.0000,0.5000,1.0000,0.0000
26.774,Upwind,677.348,0.096,677.348,0.096,3.856,3.856,123.700,0.014,0.017,0.243,-0.001,-0.0012,0.0337,0.0000,1.0000,0.5000,1.0000,0.0000
26.988,Upwind,691.211,0.101,691.211,0.101,3.859,3.859,124.775,0.014,0.017,0.240,-0.001,-0.0013,0.0332,0.0000,1.0000,0.5000,1.0000,0.0000
27.188,Upwind,704.123,0.105,704.123,0.105,3.862,3.862,125.847,0.014,0.018,0.236,-0.001,-0.0013,0.0327,0.0000,1.0000,0.5000,1.0000,0.0000
27.371,Upwind,714.967,0.109,714.967,0.109,3.865,3.865,126.916,0.014,0.018,0.232,-0.001,-0.0014,0.0322,0.0000,1.0000,0.5000,1.0000,0.0000
27.576,Upwind,729.179,0.114,729.179,0.114,3.868,3.868,127.981,0.015,0.019,0.229,-0.001,-0.0014,0.0317,0.0000,1.0000,0.5000,1.0000,0.0000
27.785,Upwind,742.411,0.119,742.411,0.119,3.871,3.871,129.044,0.015,0.019,0.225,-0.001,-0.0015,0.0312,0.0000,1.0000,0.5000,1.0000,0.0000
27.976,Upwind,755.753,0.125,755.753,0.125,3.874,3.874,130.104,0.015,0.020,0.222,-0.001,-0.0015,0.0307,0.0000,1.0000,0.5000,1.0000,0.0000
28.192,Upwind,770.329,0.130,770.329,0.130,3.877,3.877,131.161,0.015,0.020,0.218,-0.001,-0.0016,0.0302,0.0000,1.0000,0.5000,1.0000,0.0000
28.386,Upwind,782.762,0.135,782.762,0.135,3.880,3.880,132.214,0.015,0.021,0.214,-0.001,-0.0016,0.0297,0.0000,1.0000,0.5000,1.0000,0.0000
28.571,Upwind,795.286,0.141,795.286,0.141,3.882,3.882,133.177,0.015,0.021,0.211,-0.001,-0.0016,0.0292,0.0000,1.0000,0.5000,1.0000,0.0000
28.792,Upwind,811.357,0.147,811.357,0.147,3.885,3.885,134.313,0.015,0.022,0.207,-0.001,-0.0017,0.0286,0.0000,1.0000,0.5000,1.0000,0.0000
28.971,Upwind,822.926,0.152,822.926,0.152,3.888,3.888,135.271,0.015,0.022,0.204,-0.001,-0.0017,0.0282,0.0000,1.0000,0.5000,1.0000,0.0000
29.199,Upwind,839.248,0.160,839.248,0.160,3.891,3.891,136.401,0.015,0.023,0.200,-0.001,-0.0018,0.0276,0.0000,1.0000,0.5000,1.0000,0.0000
29.378,Upwind,852.174,0.165,852.174,0.165,3.894,3.894,137.441,0.015,0.024,0.196,-0.001,-0.0018,0.0271,0.0000,1.0000,0.5000,1.0000,0.0000
29.581,Upwind,866.378,0.172,866.378,0.172,3.897,3.897,138.478,0.015,0.024,0.192,-0.001,-0.0019,0.0266,0.0000,1.0000,0.5000,1.0000,0.0000
29.775,Upwind,880.689,0.179,880.689,0.179,3.900,3.900,139.513,0.015,0.025,0.189,-0.001,-0.0019,0.0260,0.0000,1.0000,0.5000,1.0000,0.0000
29.986,Upwind,895.106,0.186,895.106,0.186,3.903,3.903,140.545,0.015,0.025,0.185,-0.002,-0.0020,0.0255,0.0000,1.0000,0.5000,1.0000,0.0000
30.178,Upwind,909.629,0.193,909.629,0.193,3.906,3.906,141.575,0.015,0.026,0.181,-0.002,-0.0020,0.0250,0.0000,1.0000,0.5000,1.0000,0.0000
30.372,Upwind,924.258,0.200,924.258,0.200,3.909,3.909,142.516,0.015,0.027,0.178,-0.002,-0.0021,0.0245,0.0000,1.0000,0.5000,1.0000,0.0000
30.587,Upwind,940.225,0.209,940.225,0.209,3.913,3.913,143.625,0.015,0.027,0.174,-0.002,-0.0022,0.0239,0.0000,1.0000,0.5000,1.0000,0.0000
30.773,Upwind,953.832,0.216,953.832,0.216,3.915,3.915,144.562,0.015,0.028,0.170,-0.002,-0.0022,0.0234,0.0000,1.0000,0.5000,1.0000,0.0000
31.004,Upwind,971.277,0.225,971.277,0.225,3.918,3.918,145.496,0.016,0.028,0.167,-0.002,-0.0023,0.0230,0.0000,1.0000,0.5000,1.0000,0.0000
31.186,Upwind,983.825,0.232,983.825,0.232,3.922,3.922,146.681,0.016,0.029,0.162,-0.002,-0.0023,0.0223,0.0000,1.0000,0.5000,1.0000,0.0000
31.375,Upwind,998.979,0.241,998.979,0.241,3.925,3.925,147.694,0.016,0.030,0.158,-0.002,-0.0024,0.0218,0.0000,1.0000,0.5000,1.0000,0.0000
31.580,Upwind,1014.236,0.249,1014.236,0.249,3.928,3.928,148.704,0.016,0.030,0.155,-0.002,-0.0024,0.0213,0.0000,1.0000,0.5000,1.0000,0.0000
31.772,Upwind,1029.597,0.258,1029.597,0.258,3.931,3.931,149.712,0.016,0.031,0.151,-0.002,-0.0025,0.0207,0.0000,1.0000,0.5000,1.0000,0.0000
31.983,Upwind,1045.062,0.267,1045.062,0.267,3.934,3.934,150.717,0.012,0.032,0.148,-0.002,-0.0026,-0.0502,0.0000,1.0000,0.5000,1.0000,0.0000
32.175,Upwind,1060.630,0.277,1060.630,0.277,3.935,3.935,151.716,-0.001,0.032,0.158,-0.002,-0.0026,-0.1370,0.0000,1.0000,0.5000,1.0000,0.0000
32.377,Upwind,1076.300,0.286,1076.300,0.286,3.934,3.934,152.707,-0.008,0.033,0.177,-0.003,-0.0027,-0.2276,0.0000,1.0000,0.5000,1.0000,0.0000
32.581,Upwind,1092.072,0.296,1092.072,0.296,3.933,3.933,153.690,-0.005,0.034,0.195,-0.003,-0.0028,-0.3196,0.0000,1.0000,0.5000,1.0000,0.0000
32.775,Upwind,1107.944,0.306,1107.944,0.306,3.932,3.932,154.664,-0.002,0.034,0.211,-0.003,-0.0028,-0.4067,0.0000,1.0000,0.5000,1.0000,0.0000
32.972,Upwind,1123.916,0.317,1123.916,0.317,3.933,3.933,155.630,0.014,0.035,0.235,-0.003,-0.0029,-0.4956,0.0000,1.0000,0.5000,1.0000,0.0000
33.202,Upwind,1141.331,0.328,1141.331,0.328,3.938,3.938,156.587,0.044,0.036,0.309,-0.003,-0.0030,-0.5988,0.0000,1.0000,0.5000,1.0000,0.0000
33.373,Upwind,1156.156,0.338,1156.156,0.338,3.951,3.951,157.534,0.089,0.037,0.480,-0.003,-0.0030,-0.6500,0.0000,1.0000,0.5000,1.0000,0.0000
33.571,Upwind,1171.062,0.348,1171.062,0.348,3.976,3.976,158.473,0.155,0.038,0.777,-0.003,-0.0031,-0.6500,0.0000,1.0000,0.5000,1.0000,0.0000
33.778,Upwind,1188.784,0.361,1188.784,0.361,4.013,4.013,159.405,0.215,0.038,1.196,-0.003,-0.0032,-0.6500,0.0000,1.0000,0.5000,1.0000,0.0000
33.972,Upwind,1205.241,0.372,1205.241,0.372,4.061,4.061,160.329,0.265,0.039,1.726,-0.003,-0.0033,-0.6500,0.0000,1.0000,0.5000,1.0000,0.0000
34.175,Upwind,1221.793,0.384,1221.793,0.384,4.118,4.118,161.242,0.311,0.040,2.360,-0.004,-0.0034,-0.6500,0.0000,1.0000,0.5000,1.0000,0.0000
34.380,Upwind,1238.438,0.396,1238.438,0.396,4.185,4.185,162.144,0.351,0.041,3.087,-0.004,-0.0034,-0.6500,0.0000,1.0000,0.5000,1.0000,0.0000
34.578,Upwind,1255.175,0.409,1255.175,0.409,4.259,4.259,163.032,0.413,0.042,3.896,-0.004,-0.0034,-0.6500,0.0000,1.0000,0.5000,1.0000,0.0000
34.778,Upwind,1272.002,0.422,1272.002,0.422,4.380,4.380,163.896,0.884,0.042,4.767,-0.007,-0.0031,-0.6500,0.0000,1.0000,0.5000,1.0000,0.0000
34.982,Upwind,1288.916,0.435,1288.916,0.435,4.646,4.646,164.727,1.855,0.043,5.660,-0.013,-0.0028,-0.6500,0.0000,1.0000,0.5000,1.0000,0.0000
35.191,Upwind,1307.333,0.449,1307.333,0.449,5.151,5.151,165.520,3.268,0.044,6.546,-0.021,-0.0025,-0.6500,0.0000,1.0000,0.5000,1.0000,0.0000
35.378,Upwind,1322.988,0.462,1322.988,0.462,5.978,5.978,166.269,5.050,0.044,7.401,-0.031,-0.0021,-0.6500,0.0000,1.0000,0.5000,1.0000,0.0000
35.582,Upwind,1340.135,0.475,1340.135,0.475,7.190,7.190,166.971,7.116,0.044,8.209,-0.040,-0.0018,-0.6500,0.0000,1.0000,0.5000,1.0000,0.0000
35.782,Upwind,1357.348,0.489,1357.348,0.489,8.837,8.837,167.623,9.379,0.044,8.963,-0.050,-0.0015,-0.6500,0.0000,1.0000,0.5000,1.0000,0.0000
35.975,Upwind,1374.621,0.502,1374.621,0.502,10.950,10.950,168.223,11.767,0.043,9.661,-0.058,-0.0012,-0.6500,0.0000,1.0000,0.5000,1.0000,0.0000
36.173,Upwind,1391.947,0.515,1391.947,0.515,13.551,13.551,168.773,14.259,0.042,10.306,-0.066,-0.0009,-0.6500,0.0000,1.0000,0.5000,1.0000,0.0000
36.383,Upwind,1409.319,0.528,1409.319,0.528,16.657,16.657,169.272,16.802,0.041,10.902,-0.073,-0.0007,-0.6298,0.0000,1.0000,0.5000,1.0000,0.0000
36.572,Upwind,1426.732,0.541,1426.732,0.541,20.274,20.274,169.726,19.378,0.039,11.447,-0.079,-0.0005,-0.5448,0.0000,1.0000,0.5000,1.0000,0.0000
36.782,Upwind,1444.179,0.553,1444.179,0.553,24.407,24.407,170.139,21.946,0.037,11.903,-0.083,-0.0003,-0.4501,0.0000,1.0000,0.5000,1.0000,0.0000
36.971,Upwind,1460.199,0.564,1460.199,0.564,28.643,28.643,170.488,24.248,0.035,12.208,-0.086,-0.0002,-0.3704,0.0000,1.0000,0.5000,1.0000,0.0000
37.174,Upwind,1479.159,0.576,1479.159,0.576,33.734,33.734,170.840,26.629,0.033,12.396,-0.088,0.0000,-0.3447,0.0000,1.0000,0.5000,1.0000,0.0000
37.385,Upwind,1496.685,0.587,1496.685,0.587,39.762,39.763,171.194,28.976,0.031,12.441,-0.090,0.0001,-0.3459,0.0000,1.0000,0.5000,1.0000,0.0000
37.586,Upwind,1514.232,0.598,1514.232,0.598,45.753,45.753,171.501,30.884,0.029,12.378,-0.090,0.0002,-0.3666,0.0000,1.0000,0.5000,1.0000,0.0000
37.772,Upwind,1531.801,0.608,1531.801,0.608,52.099,52.099,171.795,32.530,0.027,12.264,-0.090,0.0002,-0.3940,0.0000,1.0000,0.5000,1.0000,0.0000
37.974,Upwind,1549.391,0.617,1549.391,0.617,58.748,58.748,172.077,33.927,0.025,12.143,-0.090,0.0003,-0.4189,0.0000,1.0000,0.5000,1.0000,0.0000
38.176,Upwind,1567.002,0.626,1567.002,0.626,65.655,65.656,172.350,35.114,0.023,12.052,-0.089,0.0003,-0.4345,0.0000,1.0000,0.5000,1.0000,0.0000
38.374,Upwind,1584.634,0.635,1584.634,0.635,72.784,72.784,172.616,36.152,0.021,12.013,-0.088,0.0003,-0.4377,0.0000,1.0000,0.5000,1.0000,0.0000
38.572,Upwind,1602.288,0.643,1602.288,0.643,80.109,80.110,172.874,37.087,0.019,12.031,-0.087,0.0004,-0.4288,0.0000,1.0000,0.5000,1.0000,0.0000
38.772,Upwind,1619.963,0.651,1619.963,0.651,86.983,86.983,173.101,37.894,0.018,12.092,-0.086,0.0004,-0.4108,0.0000,0.9968,0.5000,1.0000,0.0000
38.972,Upwind,1637.658,0.658,1637.658,0.658,95.294,95.295,173.352,38.824,0.016,12.204,-0.084,0.0004,-0.3838,0.0000,0.9933,0.5000,1.0000,0.0000
39.173,Upwind,1655.371,0.665,1655.371,0.665,103.144,103.144,173.567,39.674,0.015,12.325,-0.083,0.0004,-0.3568,0.0000,0.9903,0.5000,1.0000,0.0000
39.370,Upwind,1671.622,0.671,1671.622,0.671,110.489,110.490,173.748,40.457,0.014,12.434,-0.081,0.0004,-0.3340,0.0000,0.9877,0.5000,1.0000,0.0000
39.570,Upwind,1689.365,0.678,1689.365,0.678,119.355,119.355,173.946,41.377,0.013,12.544,-0.080,0.0004,-0.3120,0.0000,0.9850,0.5000,1.0000,0.0000
39.781,Upwind,1708.601,0.684,1708.601,0.684,127.714,127.714,174.113,42.208,0.012,12.617,-0.078,0.0003,-0.2988,0.0000,0.9826,0.5000,1.0000,0.0000
39.973,Upwind,1726.369,0.689,1726.369,0.689,136.235,136.236,174.267,43.001,0.012,12.662,-0.077,0.0003,-0.2916,0.0000,0.9805,0.5000,1.0000,0.0000
40.183,Upwind,1744.148,0.695,1744.148,0.695,144.911,144.911,174.409,43.743,0.011,12.681,-0.075,0.0002,-0.2896,0.0000,0.9785,0.5000,1.0000,0.0000
40.378,Upwind,1761.936,0.699,1761.936,0.699,153.729,153.729,174.540,44.424,0.011,12.681,-0.073,0.0002,-0.2910,0.0000,0.9766,0.5000,0.0000,0.0000
40.575,Upwind,1779.735,0.704,1779.735,0.704,162.676,162.677,174.665,45.041,0.010,12.670,-0.072,0.0002,-0.2939,0.0000,0.9749,0.5000,0.0000,0.0000
40.775,Upwind,1797.542,0.708,1797.542,0.708,171.741,171.741,174.783,45.596,0.010,12.657,-0.071,0.0001,-0.2966,0.0000,0.9732,0.5000,0.0000,0.0000
40.983,Upwind,1815.360,0.712,1815.360,0.712,180.911,180.912,174.896,46.096,0.009,12.648,-0.069,0.0001,-0.2978,0.0000,0.9716,0.5000,0.0000,0.0000
41.177,Upwind,1833.186,0.716,1833.186,0.716,190.176,190.177,175.004,46.551,0.009,12.647,-0.068,0.0001,-0.2971,0.0000,0.9701,0.5000,0.0000,0.0000
41.384,Upwind,1851.022,0.719,1851.022,0.719,199.529,199.530,175.107,46.971,0.008,12.656,-0.067,0.0000,-0.2943,0.0000,0.9687,0.5000,0.0000,0.0000
41.578,Upwind,1868.867,0.723,1868.867,0.723,208.963,208.964,175.206,47.365,0.008,12.674,-0.066,0.0000,-0.2897,0.0000,0.9673,0.5000,0.0000,0.0000
41.772,Upwind,1886.720,0.726,1886.720,0.726,218.474,218.475,175.300,47.741,0.007,12.697,-0.065,0.0000,-0.2841,0.0000,0.9660,0.5000,0.0000,0.0000
41.975,Upwind,1904.582,0.728,1904.582,0.728,228.058,228.059,175.391,48.102,0.007,12.724,-0.064,0.0000,-0.2783,0.0000,0.9647,0.5000,0.0000,0.0000
42.175,Upwind,1922.453,0.731,1922.453,0.731,237.713,237.715,175.477,48.450,0.006,12.749,-0.063,0.0000,-0.2729,0.0000,0.9635,0.5000,0.0000,0.0000
42.383,Upwind,1940.331,0.733,1940.331,0.733,247.437,247.438,175.560,48.786,0.005,12.772,-0.063,0.0000,-0.2684,0.0000,0.9623,0.5000,0.0000,0.0000
42.574,Upwind,1958.217,0.735,1958.217,0.735,257.227,257.228,175.640,49.106,0.005,12.789,-0.062,0.0000,-0.2651,0.0000,0.9612,0.5000,0.0000,0.0000
42.774,Upwind,1976.110,0.737,1976.110,0.737,267.079,267.080,175.717,49.410,0.004,12.801,-0.061,0.0001,-0.2630,0.0000,0.9601,0.5000,0.0000,0.0000
42.980,Upwind,1994.011,0.739,1994.011,0.739,276.989,276.991,175.791,49.696,0.003,12.808,-0.061,0.0001,-0.2619,0.0000,0.9591,0.5000,0.0000,0.0000
43.180,Upwind,2011.920,0.741,2011.920,0.741,286.955,286.957,175.863,49.961,0.003,12.811,-0.060,0.0001,-0.2615,0.0000,0.9581,0.5000,0.0000,0.0000
43.372,Upwind,2029.835,0.742,2029.835,0.742,296.973,296.974,175.932,50.207,0.002,12.811,-0.059,0.0001,-0.2615,0.0000,0.9571,0.5000,0.0000,0.0000
43.579,Upwind,2047.759,0.743,2047.759,0.743,307.037,307.039,176.000,50.435,0.001,12.811,-0.058,0.0001,-0.2615,0.0000,0.9562,0.5000,0.0000,0.0000
43.775,Upwind,2065.689,0.744,2065.689,0.744,317.145,317.147,176.067,50.645,0.001,12.812,-0.058,0.0001,-0.2614,0.0000,0.9552,0.5000,0.0000,0.0000
43.982,Upwind,2083.627,0.745,2083.627,0.745,327.294,327.296,176.132,50.840,0.000,12.813,-0.057,0.0001,-0.2609,0.0000,0.9543,0.5000,0.0000,0.0000
44.175,Upwind,2101.573,0.746,2101.573,0.746,337.481,337.482,176.196,51.024,360.000,12.816,-0.056,0.0001,-0.2601,0.0000,0.9534,0.5000,0.0000,0.0000
44.377,Upwind,2119.526,0.746,2119.526,0.746,347.703,347.704,176.258,51.197,359.999,12.821,-0.056,0.0001,-0.2590,0.0000,0.9525,0.5000,0.0000,0.0000
44.577,Upwind,2137.486,0.747,2137.486,0.747,357.959,357.960,176.320,51.362,359.999,12.826,-0.055,0.0001,-0.2577,0.0000,0.9517,0.5000,0.0000,0.0000
44.785,Upwind,2155.454,0.747,2155.454,0.747,367.388,367.390,176.375,51.506,359.998,12.831,-0.054,0.0001,-0.2566,0.0000,0.9509,0.5000,0.0000,0.0000
44.983,Upwind,2173.429,0.747,2173.429,0.747,378.566,378.568,176.440,51.670,359.998,12.837,-0.053,0.0001,-0.2553,0.0000,0.9500,0.5000,0.0000,0.0000
45.174,Upwind,2191.411,0.747,2191.411,0.747,388.914,388.916,176.498,51.815,359.998,12.842,-0.053,0.0001,-0.2544,0.0000,0.9492,0.5000,0.0000,0.0000
45.373,Upwind,2209.401,0.747,2209.401,0.747,399.291,399.293,176.556,51.953,359.997,12.846,-0.052,0.0001,-0.2537,0.0000,0.9484,0.5000,0.0000,0.0000
45.575,Upwind,2227.398,0.746,2227.398,0.746,409.695,409.697,176.611,52.085,359.997,12.848,-0.051,0.0001,-0.2532,0.0000,0.9476,0.5000,0.0000,0.0000
45.771,Upwind,2243.902,0.746,2243.902,0.746,419.255,419.257,176.659,52.199,359.996,12.850,-0.051,0.0001,-0.2528,0.0000,0.9469,0.5000,0.0000,0.0000
45.979,Upwind,2263.413,0.745,2263.413,0.745,430.578,430.580,176.712,52.327,359.996,12.852,-0.050,0.0001,-0.2523,0.0000,0.9462,0.5000,0.0000,0.0000
46.183,Upwind,2281.431,0.744,2281.431,0.744,441.055,441.057,176.759,52.438,359.996,12.855,-0.049,0.0001,-0.2517,0.0000,0.9455,0.5000,0.0000,0.0000
46.376,Upwind,2299.454,0.744,2299.454,0.744,451.553,451.555,176.802,52.544,359.995,12.858,-0.049,0.0001,-0.2510,0.0000,0.9449,0.5000,0.0000,0.0000
46.589,Upwind,2318.987,0.743,2318.987,0.743,462.072,462.074,176.844,52.645,359.995,12.861,-0.048,0.0000,-0.2503,0.0000,0.9443,0.5000,0.0000,0.0000
46.783,Upwind,2335.520,0.742,2335.520,0.742,472.610,472.613,176.882,52.741,359.995,12.865,-0.047,0.0000,-0.2494,0.0000,0.9438,0.5000,0.0000,0.0000
46.979,Upwind,2353.561,0.740,2353.561,0.740,483.168,483.170,176.919,52.834,359.994,12.869,-0.047,0.0001,-0.2485,0.0000,0.9433,0.5000,0.0000,0.0000
47.172,Upwind,2370.104,0.739,2370.104,0.739,493.744,493.746,176.953,52.923,359.994,12.873,-0.046,0.0000,-0.2477,0.0000,0.9428,0.5000,0.0000,0.0000
47.372,Upwind,2389.661,0.738,2389.661,0.738,504.337,504.339,176.985,53.009,359.994,12.876,-0.046,0.0001,-0.2469,0.0000,0.9423,0.5000,0.0000,0.0000
47.581,Upwind,2407.718,0.736,2407.718,0.736,514.947,514.950,177.015,53.092,359.994,12.880,-0.045,0.0000,-0.2462,0.0000,0.9419,0.5000,0.0000,0.0000
47.780,Upwind,2425.781,0.735,2425.781,0.735,525.573,525.576,177.044,53.171,359.993,12.883,-0.045,0.0001,-0.2456,0.0000,0.9415,0.5000,0.0000,0.0000
47.973,Upwind,2443.848,0.733,2443.848,0.733,536.215,536.218,177.070,53.246,359.993,12.885,-0.044,0.0000,-0.2451,0.0000,0.9411,0.5000,0.0000,0.0000
48.172,Upwind,2461.920,0.732,2461.920,0.732,546.872,546.874,177.095,53.318,359.993,12.887,-0.044,0.0000,-0.2446,0.0000,0.9408,0.5000,0.0000,0.0000
48.374,Upwind,2479.997,0.730,2479.997,0.730,557.542,557.545,177.118,53.387,359.993,12.889,-0.043,0.0001,-0.2442,0.0000,0.9405,0.5000,0.0000,0.0000
48.575,Upwind,2498.078,0.728,2498.078,0.728,568.226,568.229,177.140,53.452,359.992,12.891,-0.043,0.0000,-0.2439,0.0000,0.9402,0.5000,0.0000,0.0000
48.772,Upwind,2516.164,0.726,2516.164,0.726,578.923,578.925,177.160,53.514,359.992,12.893,-0.042,0.0001,-0.2435,0.0000,0.9399,0.5000,0.0000,0.0000
48.976,Upwind,2534.254,0.724,2534.254,0.724,589.631,589.634,177.179,53.572,359.992,12.894,-0.042,0.0001,-0.2431,0.0000,0.9396,0.5000,0.0000,0.0000
49.184,Upwind,2552.348,0.722,2552.348,0.722,600.351,600.354,177.196,53.628,359.992,12.896,-0.041,0.0001,-0.2428,0.0000,0.9394,0.5000,0.0000,0.0000
49.382,Upwind,2570.445,0.720,2570.445,0.720,611.082,611.085,177.212,53.682,359.992,12.898,-0.041,0.0001,-0.2424,0.0000,0.9391,0.5000,0.0000,0.0000
49.572,Upwind,2588.547,0.718,2588.547,0.718,621.824,621.827,177.227,53.733,359.991,12.899,-0.040,0.0001,-0.2420,0.0000,0.9389,0.5000,0.0000,0.0000
49.775,Upwind,2606.653,0.715,2606.653,0.715,632.575,632.578,177.241,53.781,359.991,12.901,-0.040,0.0001,-0.2416,0.0000,0.9387,0.5000,0.0000,0.0000
49.973,Upwind,2624.763,0.713,2624.763,0.713,643.336,643.339,177.254,53.828,359.991,12.903,-0.040,0.0000,-0.2413,0.0000,0.9385,0.5000,0.0000,0.0000
50.177,Upwind,2642.876,0.711,2642.876,0.711,654.106,654.109,177.266,53.872,359.991,12.904,-0.039,0.0001,-0.2410,0.0000,0.9384,0.5000,0.0000,0.0000
50.371,Upwind,2660.993,0.708,2660.993,0.708,664.885,664.888,177.277,53.914,359.991,12.906,-0.039,0.0000,-0.2407,0.0000,0.9382,0.5000,0.0000,0.0000
50.577,Upwind,2679.113,0.706,2679.113,0.706,675.671,675.675,177.287,53.955,359.991,12.907,-0.038,0.0001,-0.2404,0.0000,0.9381,0.5000,0.0000,0.0000
50.780,Upwind,2697.237,0.704,2697.237,0.704,686.466,686.470,177.296,53.994,359.991,12.908,-0.038,0.0001,-0.2401,0.0000,0.9380,0.5000,0.0000,0.0000
50.978,Upwind,2715.364,0.701,2715.364,0.701,697.269,697.272,177.304,54.030,359.990,12.909,-0.038,0.0001,-0.2399,0.0000,0.9378,0.5000,0.0000,0.0000
51.183,Upwind,2733.494,0.699,2733.494,0.699,708.078,708.082,177.311,54.065,359.990,12.910,-0.037,0.0000,-0.2397,0.0000,0.9377,0.5000,0.0000,0.0000
51.373,Upwind,2751.628,0.696,2751.628,0.696,718.895,718.898,177.318,54.099,359.990,12.911,-0.037,0.0000,-0.2395,0.0000,0.9376,0.5000,0.0000,0.0000
51.574,Upwind,2769.765,0.693,2769.765,0.693,729.718,729.721,177.324,54.130,359.990,12.912,-0.037,0.0001,-0.2393,0.0000,0.9376,0.5000,0.0000,0.0000
51.775,Upwind,2787.905,0.691,2787.905,0.691,740.547,740.550,177.329,54.161,359.990,12.913,-0.036,0.0000,-0.2392,0.0000,0.9375,0.5000,0.0000,0.0000
51.970,Upwind,2804.536,0.688,2804.536,0.688,751.382,751.385,177.334,54.189,359.990,12.913,-0.036,0.0001,-0.2390,0.0000,0.9374,0.5000,0.0000,0.0000
52.178,Upwind,2824.194,0.685,2824.194,0.685,762.222,762.226,177.338,54.217,359.990,12.914,-0.036,0.0001,-0.2388,0.0000,0.9374,0.5000,0.0000,0.0000
52.370,Upwind,2840.831,0.683,2840.831,0.683,773.068,773.072,177.342,54.243,359.990,12.915,-0.035,0.0000,-0.2387,0.0000,0.9373,0.5000,0.0000,0.0000
52.575,Upwind,2860.496,0.680,2860.496,0.680,783.919,783.923,177.345,54.268,359.990,12.916,-0.035,0.0000,-0.2385,0.0000,0.9373,0.5000,0.0000,0.0000
52.770,Upwind,2877.138,0.677,2877.138,0.677,794.775,794.779,177.347,54.291,359.990,12.916,-0.035,0.0000,-0.2384,0.0000,0.9372,0.5000,0.0000,0.0000
52.972,Upwind,2896.809,0.674,2896.809,0.674,805.635,805.639,177.349,54.314,359.990,12.917,-0.034,0.0000,-0.2382,0.0000,0.9372,0.5000,0.0000,0.0000
53.176,Upwind,2914.970,0.672,2914.970,0.672,816.500,816.504,177.350,54.336,359.990,12.918,-0.034,0.0000,-0.2381,0.0000,0.9372,0.5000,0.0000,0.0000
53.374,Upwind,2933.134,0.669,2933.134,0.669,827.370,827.374,177.351,54.356,359.990,12.918,-0.034,0.0001,-0.2380,0.0000,0.9372,0.5000,0.0000,0.0000
53.572,Upwind,2951.300,0.666,2951.300,0.666,838.243,838.247,177.352,54.376,359.990,12.919,-0.034,0.0000,-0.2379,0.0000,0.9372,0.5000,0.0000,0.0000
53.774,Upwind,2969.469,0.663,2969.469,0.663,849.120,849.124,177.352,54.395,359.990,12.919,-0.033,0.0001,-0.2378,0.0000,0.9372,0.5000,0.0000,0.0000
53.981,Upwind,2987.641,0.660,2987.641,0.660,860.000,860.005,177.352,54.413,359.990,12.919,-0.033,0.0000,-0.2377,0.0000,0.9372,0.5000,0.0000,0.0000
54.174,Upwind,3005.816,0.657,3005.816,0.657,870.885,870.889,177.352,54.430,359.989,12.920,-0.033,0.0001,-0.2376,0.0000,0.9372,0.5000,0.0000,0.0000
54.373,Upwind,3023.993,0.654,3023.993,0.654,881.772,881.776,177.351,54.446,359.989,12.920,-0.033,0.0000,-0.2375,0.0000,0.9372,0.5000,0.0000,0.0000
54.577,Upwind,3042.173,0.652,3042.173,0.652,892.663,892.667,177.349,54.461,359.989,12.921,-0.032,0.0001,-0.2375,0.0000,0.9372,0.5000,0.0000,0.0000
54.779,Upwind,3060.356,0.649,3060.356,0.649,903.556,903.561,177.348,54.476,359.989,12.921,-0.032,0.0000,-0.2374,0.0000,0.9372,0.5000,0.0000,0.0000
54.974,Upwind,3078.541,0.646,3078.541,0.646,914.453,914.457,177.346,54.490,359.989,12.921,-0.032,0.0000,-0.2373,0.0000,0.9372,0.5000,0.0000,0.0000
55.174,Upwind,3096.729,0.643,3096.729,0.643,925.352,925.357,177.344,54.503,359.989,12.921,-0.032,0.0001,-0.2373,0.0000,0.9373,0.5000,0.0000,0.0000
55.374,Upwind,3114.919,0.640,3114.919,0.640,936.254,936.259,177.341,54.516,359.989,12.922,-0.032,0.0000,-0.2372,0.0000,0.9373,0.5000,0.0000,0.0000
55.581,Upwind,3133.112,0.637,3133.112,0.637,947.159,947.163,177.339,54.528,359.989,12.922,-0.031,0.0001,-0.2372,0.0000,0.9373,0.5000,0.0000,0.0000
55.781,Upwind,3151.307,0.634,3151.307,0.634,958.065,958.070,177.336,54.540,359.990,12.922,-0.031,0.0000,-0.2371,0.0000,0.9374,0.5000,0.0000,0.0000
55.975,Upwind,3169.505,0.632,3169.505,0.632,968.974,968.979,177.333,54.551,359.990,12.922,-0.031,0.0001,-0.2371,0.0000,0.9374,0.5000,0.0000,0.0000
56.171,Upwind,3186.189,0.629,3186.189,0.629,979.886,979.890,177.329,54.561,359.990,12.922,-0.031,0.0000,-0.2371,0.0000,0.9375,0.5000,0.0000,0.0000
56.377,Upwind,3205.908,0.626,3205.908,0.626,990.799,990.804,177.326,54.571,359.990,12.923,-0.031,0.0000,-0.2370,0.0000,0.9375,0.5000,0.0000,0.0000
56.577,Upwind,3224.114,0.623,3224.114,0.623,1001.714,1001.719,177.322,54.581,359.990,12.923,-0.030,0.0000,-0.2370,0.0000,0.9376,0.5000,0.0000,0.0000
56.792,Upwind,3243.839,0.620,3243.839,0.620,1012.631,1012.636,177.318,54.590,359.990,12.923,-0.030,0.0001,-0.2370,0.0000,0.9376,0.5000,0.0000,0.0000
56.970,Upwind,3259.014,0.618,3259.014,0.618,1023.550,1023.555,177.314,54.599,359.990,12.923,-0.030,0.0000,-0.2370,0.0000,0.9377,0.5000,0.0000,0.0000
57.174,Upwind,3278.744,0.615,3278.744,0.615,1034.470,1034.475,177.310,54.607,359.990,12.923,-0.030,0.0000,-0.2370,0.0000,0.9377,0.5000,0.0000,0.0000
57.375,Upwind,3296.959,0.612,3296.959,0.612,1045.393,1045.398,177.305,54.615,359.990,12.923,-0.030,0.0001,-0.2369,0.0000,0.9378,0.5000,0.0000,0.0000
57.575,Upwind,3315.176,0.609,3315.176,0.609,1056.316,1056.322,177.301,54.623,359.990,12.923,-0.030,0.0000,-0.2369,0.0000,0.9379,0.5000,0.0000,0.0000
57.780,Upwind,3333.396,0.606,3333.396,0.606,1067.242,1067.247,177.296,54.630,359.990,12.923,-0.030,0.0001,-0.2369,0.0000,0.9379,0.5000,0.0000,0.0000
57.981,Upwind,3351.618,0.603,3351.618,0.603,1078.168,1078.174,177.291,54.637,359.990,12.923,-0.029,0.0000,-0.2369,0.0000,0.9380,0.5000,0.0000,0.0000
58.177,Upwind,3369.842,0.601,3369.842,0.601,1089.096,1089.102,177.286,54.644,359.990,12.923,-0.029,0.0000,-0.2369,0.0000,0.9381,0.5000,0.0000,0.0000
58.371,Upwind,3386.550,0.598,3386.550,0.598,1100.026,1100.031,177.281,54.650,359.990,12.923,-0.029,0.0000,-0.2370,0.0000,0.9381,0.5000,0.0000,0.0000
58.575,Upwind,3406.298,0.595,3406.298,0.595,1110.956,1110.962,177.276,54.656,359.990,12.923,-0.029,0.0000,-0.2369,0.0000,0.9382,0.5000,0.0000,0.0000
58.778,Upwind,3424.530,0.593,3424.530,0.593,1121.888,1121.893,177.271,54.662,359.990,12.923,-0.029,0.0001,-0.2369,0.0000,0.9383,0.5000,0.0000,0.0000
58.982,Upwind,3442.763,0.590,3442.763,0.590,1132.821,1132.826,177.265,54.667,359.990,12.923,-0.029,0.0000,-0.2370,0.0000,0.9384,0.5000,0.0000,0.0000
59.181,Upwind,3460.999,0.587,3460.999,0.587,1143.755,1143.760,177.260,54.672,359.990,12.923,-0.029,0.0000,-0.2369,0.0000,0.9384,0.5000,0.0000,0.0000
59.371,Upwind,3479.238,0.585,3479.238,0.585,1154.690,1154.695,177.254,54.678,359.990,12.923,-0.029,0.0000,-0.2370,0.0000,0.9385,0.5000,0.0000,0.0000
59.587,Upwind,3497.478,0.582,3497.478,0.582,1165.626,1165.631,177.249,54.682,359.990,12.923,-0.029,0.0000,-0.2370,0.0000,0.9386,0.5000,0.0000,0.0000
59.782,Upwind,3515.721,0.580,3515.721,0.580,1176.563,1176.568,177.243,54.687,359.991,12.923,-0.029,0.0000,-0.2370,0.0000,0.9387,0.5000,0.0000,0.0000
59.983,Upwind,3533.967,0.577,3533.967,0.577,1187.500,1187.506,177.237,54.692,359.991,12.923,-0.028,0.0000,-0.2370,0.0000,0.9388,0.5000,0.0000,0.0000
60.184,Upwind,3552.214,0.575,3552.214,0.575,1198.439,1198.445,177.231,54.696,359.991,12.923,-0.028,0.0000,-0.2370,0.0000,0.9388,0.5000,0.0000,0.0000
60.374,Upwind,3570.464,0.572,3570.464,0.572,1209.379,1209.385,177.225,54.700,359.991,12.923,-0.028,0.0000,-0.2370,0.0000,0.9389,0.5000,0.0000,0.0000
60.577,Upwind,3588.716,0.570,3588.716,0.570,1220.319,1220.325,177.219,54.704,359.991,12.923,-0.028,0.0000,-0.2370,0.0000,0.9390,0.5000,0.0000,0.0000
60.772,Upwind,3606.971,0.567,3606.971,0.567,1231.260,1231.266,177.213,54.708,359.991,12.923,-0.028,0.0000,-0.2370,0.0000,0.9391,0.5000,0.0000,0.0000
60.971,Upwind,3623.706,0.565,3623.706,0.565,1242.202,1242.208,177.206,54.712,359.991,12.923,-0.028,0.0000,-0.2370,0.0000,0.9392,0.5000,0.0000,0.0000
61.179,Upwind,3643.486,0.562,3643.486,0.562,1253.145,1253.151,177.200,54.715,359.991,12.923,-0.028,0.0000,-0.2371,0.0000,0.9393,0.5000,0.0000,0.0000
61.370,Upwind,3660.226,0.560,3660.226,0.560,1263.176,1263.182,177.194,54.718,359.991,12.922,-0.028,0.0000,-0.2371,0.0000,0.9394,0.5000,0.0000,0.0000
61.575,Upwind,3680.011,0.558,3680.011,0.558,1275.032,1275.038,177.188,54.722,359.991,12.922,-0.028,0.0001,-0.2372,0.0000,0.9394,0.5000,0.0000,0.0000
61.776,Upwind,3698.277,0.555,3698.277,0.555,1285.977,1285.983,177.181,54.725,359.991,12.922,-0.028,0.0000,-0.2372,0.0000,0.9395,0.5000,0.0000,0.0000
61.978,Upwind,3716.545,0.553,3716.545,0.553,1296.922,1296.928,177.175,54.728,359.991,12.922,-0.028,0.0001,-0.2372,0.0000,0.9396,0.5000,0.0000,0.0000
62.181,Upwind,3734.815,0.551,3734.815,0.551,1307.868,1307.874,177.168,54.730,359.992,12.922,-0.028,0.0000,-0.2372,0.0000,0.9397,0.5000,0.0000,0.0000
62.378,Upwind,3753.087,0.548,3753.087,0.548,1318.814,1318.820,177.162,54.733,359.992,12.922,-0.028,0.0001,-0.2373,0.0000,0.9398,0.5000,0.0000,0.0000
62.579,Upwind,3771.362,0.546,3771.362,0.546,1329.761,1329.767,177.155,54.736,359.992,12.922,-0.028,0.0000,-0.2373,0.0000,0.9399,0.5000,0.0000,0.0000
62.771,Upwind,3788.116,0.544,3788.116,0.544,1340.708,1340.715,177.148,54.738,359.992,12.921,-0.028,0.0000,-0.2373,0.0000,0.9400,0.5000,0.0000,0.0000
62.972,Upwind,3806.395,0.542,3806.395,0.542,1351.656,1351.663,177.142,54.741,359.992,12.921,-0.028,0.0000,-0.2373,0.0000,0.9401,0.5000,0.0000,0.0000
63.173,Upwind,3826.200,0.540,3826.200,0.540,1362.604,1362.611,177.135,54.743,359.992,12.921,-0.028,0.0000,-0.2374,0.0000,0.9402,0.5000,0.0000,0.0000
63.379,Upwind,3844.483,0.538,3844.483,0.538,1373.553,1373.560,177.128,54.745,359.992,12.921,-0.028,0.0000,-0.2374,0.0000,0.9403,0.5000,0.0000,0.0000
63.577,Upwind,3862.769,0.536,3862.769,0.536,1384.502,1384.509,177.122,54.748,359.992,12.921,-0.028,0.0000,-0.2374,0.0000,0.9404,0.5000,0.0000,0.0000
63.780,Upwind,3881.057,0.533,3881.057,0.533,1395.452,1395.459,177.115,54.750,359.992,12.921,-0.028,0.0000,-0.2374,0.0000,0.9405,0.5000,0.0000,0.0000
63.975,Upwind,3899.348,0.531,3899.348,0.531,1406.402,1406.409,177.108,54.752,359.992,12.921,-0.028,0.0000,-0.2375,0.0000,0.9406,0.5000,0.0000,0.0000
64.182,Upwind,3917.640,0.529,3917.640,0.529,1417.353,1417.359,177.101,54.754,359.992,12.921,-0.028,0.0000,-0.2375,0.0000,0.9407,0.5000,0.0000,0.0000
64.377,Upwind,3935.935,0.528,3935.935,0.528,1428.304,1428.310,177.094,54.756,359.992,12.920,-0.028,0.0001,-0.2376,0.0000,0.9408,0.5000,0.0000,0.0000
64.574,Upwind,3954.232,0.526,3954.232,0.526,1439.255,1439.262,177.087,54.757,359.993,12.920,-0.028,0.0001,-0.2376,0.0000,0.9409,0.5000,0.0000,0.0000
64.775,Upwind,3972.531,0.524,3972.531,0.524,1450.206,1450.213,177.080,54.759,359.993,12.920,-0.028,0.0000,-0.2376,0.0000,0.9409,0.5000,0.0000,0.0000
64.981,Upwind,3990.833,0.522,3990.833,0.522,1461.158,1461.165,177.073,54.761,359.993,12.920,-0.028,0.0001,-0.2377,0.0000,0.9410,0.5000,0.0000,0.0000
65.173,Upwind,4009.136,0.520,4009.136,0.520,1472.111,1472.118,177.066,54.763,359.993,12.920,-0.028,0.0000,-0.2377,0.0000,0.9411,0.5000,0.0000,0.0000
65.370,Upwind,4025.917,0.518,4025.917,0.518,1483.063,1483.070,177.059,54.764,359.993,12.920,-0.028,0.0000,-0.2377,0.0000,0.9412,0.5000,0.0000,0.0000
65.571,Upwind,4044.224,0.517,4044.224,0.517,1494.016,1494.023,177.052,54.766,359.993,12.919,-0.028,0.0000,-0.2378,0.0000,0.9413,0.5000,0.0000,0.0000
65.779,Upwind,4064.061,0.515,4064.061,0.515,1504.970,1504.977,177.045,54.767,359.993,12.919,-0.028,0.0000,-0.2378,0.0000,0.9414,0.5000,0.0000,0.0000
65.976,Upwind,4082.373,0.513,4082.373,0.513,1515.923,1515.930,177.038,54.769,359.993,12.919,-0.028,0.0000,-0.2378,0.0000,0.9415,0.5000,0.0000,0.0000
66.189,Upwind,4102.214,0.511,4102.214,0.511,1527.790,1527.797,177.031,54.770,359.993,12.919,-0.028,0.0000,-0.2379,0.0000,0.9416,0.5000,0.0000,0.0000
66.381,Upwind,4119.005,0.510,4119.005,0.510,1537.831,1537.838,177.024,54.772,359.993,12.919,-0.028,0.0000,-0.2379,0.0000,0.9417,0.5000,0.0000,0.0000
66.579,Upwind,4137.324,0.508,4137.324,0.508,1548.786,1548.793,177.017,54.773,359.994,12.919,-0.028,0.0000,-0.2380,0.0000,0.9418,0.5000,0.0000,0.0000
66.779,Upwind,4155.645,0.506,4155.645,0.506,1559.740,1559.748,177.010,54.774,359.994,12.918,-0.028,0.0000,-0.2380,0.0000,0.9419,0.5000,0.0000,0.0000
66.975,Upwind,4173.969,0.505,4173.969,0.505,1570.695,1570.703,177.003,54.776,359.994,12.918,-0.028,0.0000,-0.2380,0.0000,0.9420,0.5000,0.0000,0.0000
67.182,Upwind,4192.295,0.503,4192.295,0.503,1581.650,1581.658,176.996,54.777,359.994,12.918,-0.028,0.0000,-0.2381,0.0000,0.9421,0.5000,0.0000,0.0000
67.379,Upwind,4210.623,0.502,4210.623,0.502,1592.606,1592.613,176.988,54.778,359.994,12.918,-0.028,0.0000,-0.2381,0.0000,0.9422,0.5000,0.0000,0.0000
67.583,Upwind,4228.953,0.500,4228.953,0.500,1603.561,1603.569,176.981,54.779,359.994,12.918,-0.028,0.0000,-0.2382,0.0000,0.9423,0.5000,0.0000,0.0000
67.774,Upwind,4247.285,0.499,4247.285,0.499,1614.517,1614.525,176.974,54.780,359.994,12.917,-0.028,0.0000,-0.2382,0.0000,0.9424,0.5000,0.0000,0.0000
67.978,Upwind,4265.620,0.497,4265.620,0.497,1625.474,1625.481,176.967,54.782,359.994,12.917,-0.028,0.0000,-0.2382,0.0000,0.9425,0.5000,0.0000,0.0000
68.180,Upwind,4283.957,0.496,4283.957,0.496,1636.430,1636.438,176.960,54.783,359.994,12.917,-0.028,0.0000,-0.2383,0.0000,0.9426,0.5000,0.0000,0.0000
68.381,Upwind,4302.296,0.495,4302.296,0.495,1647.387,1647.394,176.953,54.784,359.994,12.917,-0.028,0.0000,-0.2383,0.0000,0.9427,0.5000,0.0000,0.0000
68.578,Upwind,4320.637,0.493,4320.637,0.493,1658.343,1658.351,176.945,54.785,359.994,12.917,-0.028,0.0000,-0.2384,0.0000,0.9428,0.5000,0.0000,0.0000
68.781,Upwind,4338.981,0.492,4338.981,0.492,1669.300,1669.308,176.938,54.786,359.995,12.917,-0.028,0.0000,-0.2384,0.0000,0.9429,0.5000,0.0000,0.0000
68.975,Upwind,4357.327,0.491,4357.327,0.491,1680.258,1680.266,176.931,54.787,359.995,12.916,-0.028,0.0000,-0.2384,0.0000,0.9430,0.5000,0.0000,0.0000
69.171,Upwind,4374.145,0.489,4374.145,0.489,1691.215,1691.223,176.924,54.788,359.995,12.916,-0.028,0.0000,-0.2385,0.0000,0.9431,0.5000,0.0000,0.0000
69.380,Upwind,4394.025,0.488,4394.025,0.488,1702.173,1702.181,176.916,54.789,359.995,12.916,-0.028,0.0000,-0.2385,0.0000,0.9432,0.5000,0.0000,0.0000
69.583,Upwind,4412.377,0.487,4412.377,0.487,1713.130,1713.139,176.909,54.790,359.995,12.916,-0.028,0.0000,-0.2386,0.0000,0.9433,0.5000,0.0000,0.0000
69.776,Upwind,4430.731,0.486,4430.731,0.486,1724.089,1724.097,176.902,54.791,359.995,12.916,-0.028,0.0000,-0.2386,0.0000,0.9434,0.5000,0.0000,0.0000
69.970,Upwind,4447.558,0.485,4447.558,0.485,1734.134,1734.142,176.895,54.792,359.995,12.915,-0.028,0.0000,-0.2386,0.0000,0.9435,0.5000,0.0000,0.0000
70.182,Upwind,4467.447,0.484,4467.447,0.484,1746.005,1746.013,176.887,54.793,359.995,12.915,-0.028,0.0000,-0.2387,0.0000,0.9437,0.5000,0.0000,0.0000
70.381,Upwind,4485.808,0.482,4485.808,0.482,1756.964,1756.972,176.880,54.793,359.995,12.915,-0.028,0.0000,-0.2387,0.0000,0.9438,0.5000,0.0000,0.0000
70.582,Upwind,4504.171,0.481,4504.171,0.481,1767.922,1767.931,176.873,54.794,359.995,12.915,-0.028,0.0000,-0.2388,0.0000,0.9439,0.5000,0.0000,0.0000
70.779,Upwind,4522.537,0.480,4522.537,0.480,1778.881,1778.890,176.865,54.795,359.995,12.915,-0.028,0.0000,-0.2388,0.0000,0.9440,0.5000,0.0000,0.0000
70.974,Upwind,4540.905,0.479,4540.905,0.479,1789.840,1789.849,176.858,54.796,359.995,12.914,-0.028,0.0000,-0.2388,0.0000,0.9441,0.5000,0.0000,0.0000
71.174,Upwind,4559.275,0.478,4559.275,0.478,1800.800,1800.808,176.851,54.797,359.996,12.914,-0.028,0.0000,-0.2389,0.0000,0.9442,0.5000,0.0000,0.0000
71.373,Upwind,4577.647,0.477,4577.647,0.477,1810.846,1810.854,176.844,54.798,359.996,12.914,-0.028,0.0000,-0.2389,0.0000,0.9443,0.5000,0.0000,0.0000
71.576,Upwind,4596.021,0.476,4596.021,0.476,1822.719,1822.727,176.836,54.798,359.996,12.914,-0.028,0.0000,-0.2390,0.0000,0.9444,0.5000,0.0000,0.0000
71.775,Upwind,4614.398,0.475,4614.398,0.475,1833.678,1833.687,176.829,54.799,359.996,12.914,-0.029,0.0000,-0.2390,0.0000,0.9445,0.5000,0.0000,0.0000
71.982,Upwind,4632.777,0.475,4632.777,0.475,1844.638,1844.647,176.821,54.800,359.996,12.914,-0.029,0.0000,-0.2391,0.0000,0.9446,0.5000,0.0000,0.0000
72.179,Upwind,4651.158,0.474,4651.158,0.474,1855.598,1855.607,176.814,54.801,359.996,12.913,-0.029,0.0000,-0.2391,0.0000,0.9447,0.5000,0.0000,0.0000
72.379,Upwind,4669.541,0.473,4669.541,0.473,1866.558,1866.567,176.807,54.802,359.996,12.913,-0.029,0.0000,-0.2392,0.0000,0.9448,0.5000,0.0000,0.0000
72.579,Upwind,4687.926,0.472,4687.926,0.472,1877.519,1877.528,176.799,54.802,359.996,12.913,-0.029,0.0000,-0.2392,0.0000,0.9449,0.5000,0.0000,0.0000
72.782,Upwind,4706.314,0.471,4706.314,0.471,1888.479,1888.488,176.792,54.803,359.996,12.913,-0.029,0.0000,-0.2392,0.0000,0.9450,0.5000,0.0000,0.0000
72.972,Upwind,4724.704,0.471,4724.704,0.471,1899.440,1899.449,176.785,54.804,359.996,12.913,-0.029,0.0000,-0.2393,0.0000,0.9451,0.5000,0.0000,0.0000
73.174,Upwind,4743.096,0.470,4743.096,0.470,1910.401,1910.410,176.777,54.804,359.996,12.912,-0.029,0.0000,-0.2393,0.0000,0.9452,0.5000,0.0000,0.0000
73.374,Upwind,4761.490,0.469,4761.490,0.469,1921.362,1921.371,176.770,54.805,359.996,12.912,-0.029,0.0000,-0.2394,0.0000,0.9453,0.5000,0.0000,0.0000
73.582,Upwind,4779.886,0.468,4779.886,0.468,1932.323,1932.332,176.763,54.806,359.996,12.912,-0.029,0.0000,-0.2394,0.0000,0.9454,0.5000,0.0000,0.0000
73.770,Upwind,4796.752,0.468,4796.752,0.468,1943.284,1943.293,176.755,54.807,359.996,12.912,-0.029,0.0000,-0.2395,0.0000,0.9455,0.5000,0.0000,0.0000
73.977,Upwind,4816.686,0.467,4816.686,0.467,1954.245,1954.255,176.748,54.807,359.997,12.912,-0.029,0.0000,-0.2395,0.0000,0.9456,0.5000,0.0000,0.0000
74.183,Upwind,4835.089,0.466,4835.089,0.466,1965.207,1965.216,176.740,54.808,359.997,12.911,-0.029,0.0000,-0.2395,0.0000,0.9457,0.5000,0.0000,0.0000
74.378,Upwind,4853.494,0.466,4853.494,0.466,1976.168,1976.178,176.733,54.809,359.997,12.911,-0.029,0.0000,-0.2396,0.0000,0.9458,0.5000,0.0000,0.0000
74.581,Upwind,4871.902,0.465,4871.902,0.465,1987.130,1987.140,176.726,54.809,359.997,12.911,-0.029,0.0000,-0.2396,0.0000,0.9459,0.5000,0.0000,0.0000
74.779,Upwind,4890.311,0.465,4890.311,0.465,1998.092,1998.102,176.718,54.810,359.997,12.911,-0.029,0.0000,-0.2397,0.0000,0.9460,0.5000,0.0000,0.0000
74.982,Crosswind,4908.722,0.464,4908.722,0.464,2009.053,2009.062,176.675,54.774,359.996,12.912,0.058,0.4000,-0.3114,0.0001,0.8664,0.0000,0.0000,0.0000
75.170,Crosswind,4925.590,0.465,4925.590,0.465,2019.989,2019.999,176.454,54.564,359.992,12.949,0.593,0.4000,-0.3961,0.0001,0.7723,0.0000,0.0000,0.0000
75.371,Crosswind,4943.964,0.469,4943.964,0.469,2029.964,2029.974,176.091,54.238,359.989,13.056,1.430,0.4000,-0.4868,0.0001,0.7000,0.0000,0.0000,0.0000
75.575,Crosswind,4963.823,0.484,4963.823,0.484,2041.668,2041.677,175.584,53.796,359.996,13.317,2.746,0.4000,-0.5784,0.0000,0.7000,0.0000,0.0000,0.0000
75.779,Crosswind,4982.110,0.515,4982.110,0.515,2052.389,2052.399,175.111,53.434,0.027,13.719,4.198,0.4000,-0.6703,-0.0003,0.7000,0.0000,0.0000,0.0000
75.980,Crosswind,5000.351,0.571,5000.351,0.571,2063.049,2063.059,174.632,53.195,0.099,14.295,5.817,0.4000,-0.7606,-0.0007,0.7107,0.0000,0.0000,0.0000
76.173,Crosswind,5018.544,0.663,5018.544,0.663,2073.680,2073.690,174.154,53.157,0.233,15.052,7.556,0.4000,-0.7822,-0.0012,0.7220,0.0000,0.0000,0.0000
76.373,Crosswind,5036.688,0.803,5036.688,0.803,2084.333,2084.343,173.674,53.427,0.443,15.957,9.376,0.4000,-0.6919,-0.0019,0.7336,0.0000,0.0000,0.0000
76.582,Crosswind,5054.776,1.003,5054.776,1.003,2095.074,2095.084,173.191,54.031,0.733,16.900,11.243,0.4000,-0.5980,-0.0029,0.7453,0.0000,0.0000,0.0000
76.770,Crosswind,5071.306,1.254,5071.306,1.254,2105.964,2105.974,172.703,54.912,1.096,17.779,13.126,0.4000,-0.5132,-0.0040,0.7572,0.0000,0.0000,0.0000
76.971,Crosswind,5089.278,1.614,5089.278,1.614,2117.051,2117.061,172.212,55.979,1.520,18.512,15.000,0.4000,-0.4231,-0.0054,0.7690,0.0000,0.0000,0.0000
77.177,Crosswind,5108.674,2.124,5108.674,2.124,2128.361,2128.371,171.721,57.132,1.990,19.039,16.845,0.4000,-0.3300,-0.0072,0.7808,0.0000,0.0000,0.0000
77.373,Crosswind,5126.509,2.718,5126.509,2.718,2138.931,2138.941,171.279,58.157,2.443,19.307,18.496,0.3631,-0.2421,-0.0089,0.7914,0.0000,0.0000,0.0000
77.570,Crosswind,5142.800,3.377,5142.800,3.377,2151.648,2151.659,170.776,59.194,2.986,19.333,20.351,0.2962,-0.1533,-0.0106,0.8034,0.0000,0.0000,0.0000
77.782,Crosswind,5161.987,4.307,5161.987,4.307,2163.560,2163.571,170.343,59.874,3.473,19.072,21.900,0.2456,-0.0581,-0.0124,0.8136,0.0000,0.0000,0.0000
77.978,Crosswind,5179.640,5.314,5179.640,5.314,2175.574,2175.584,169.949,60.193,3.924,18.541,23.256,0.2027,0.0302,-0.0140,0.8227,0.0000,0.0000,0.0000
78.171,Crosswind,5195.781,6.364,5195.781,6.364,2187.608,2187.619,169.598,60.067,4.325,17.757,24.408,0.1665,-0.0118,-0.0152,0.8307,0.0000,0.0000,0.0000
78.374,Crosswind,5214.817,7.758,5214.817,7.758,2199.565,2199.575,169.298,59.408,4.687,16.796,25.372,0.1385,-0.1031,-0.0162,0.8375,0.0000,0.0000,0.0000
78.574,Crosswind,5232.364,9.186,5232.364,9.186,2211.336,2211.347,169.048,58.224,5.042,15.770,26.181,0.1143,-0.1931,-0.0167,0.8431,0.0000,0.0000,0.0000
78.776,Crosswind,5249.896,10.742,5249.896,10.742,2222.823,2222.834,168.847,56.574,5.420,14.771,26.865,0.0936,-0.2841,-0.0169,0.8478,0.0000,0.0000,0.0000
78.982,Crosswind,5267.424,12.420,5267.424,12.420,2233.940,2233.951,168.695,54.546,5.843,13.872,27.454,0.0754,-0.3768,-0.0168,0.8515,0.0000,0.0000,0.0000
79.173,Crosswind,5284.954,14.217,5284.954,14.217,2244.623,2244.634,168.586,52.248,6.327,13.128,27.970,0.0592,-0.4628,-0.0164,0.8544,0.0000,0.0000,0.0000
79.381,Crosswind,5302.492,16.131,5302.492,16.131,2254.829,2254.840,168.517,49.794,6.886,12.577,28.430,0.0445,-0.5565,-0.0158,0.8566,0.0000,0.0000,0.0000
79.579,Crosswind,5320.040,18.163,5320.040,18.163,2264.538,2264.549,168.482,47.301,7.529,12.244,28.846,0.0312,-0.6455,-0.0150,0.8582,0.0000,0.0000,0.0000
79.786,Crosswind,5337.598,20.318,5337.598,20.318,2273.754,2273.765,168.473,44.881,8.261,12.142,29.224,0.0192,-0.7387,-0.0143,0.8593,0.0000,0.0000,0.0000
79.970,Crosswind,5353.701,22.409,5353.701,22.409,2282.503,2282.514,168.483,42.642,9.086,12.271,29.571,0.0084,-0.8000,-0.0135,0.8601,0.0000,0.0000,0.0000
80.181,Crosswind,5372.735,25.031,5372.735,25.031,2290.831,2290.842,168.503,40.701,10.002,12.617,29.885,-0.0005,-0.8000,-0.0128,0.8606,0.0000,0.0000,0.0000
80.370,Crosswind,5388.839,27.390,5388.839,27.390,2298.808,2298.819,168.527,39.134,10.984,13.126,30.164,-0.0084,-0.8000,-0.0122,0.8606,0.0000,0.0000,0.0000
80.572,Crosswind,5407.861,30.360,5407.861,30.360,2306.511,2306.522,168.544,37.967,12.006,13.741,30.402,-0.0139,-0.8000,-0.0117,0.8604,0.0000,0.0000,0.0000
80.779,Crosswind,5425.400,33.290,5425.400,33.290,2314.022,2314.033,168.548,37.200,13.047,14.412,30.595,-0.0179,-0.8000,-0.0114,0.8603,0.0000,0.0000,0.0000
80.973,Crosswind,5442.910,36.414,5442.910,36.414,2321.417,2321.428,168.533,36.811,14.087,15.096,30.739,-0.0200,-0.7567,-0.0111,0.8605,0.0000,0.0000,0.0000
81.178,Crosswind,5460.384,39.744,5460.384,39.744,2328.770,2328.781,168.502,36.779,15.100,15.741,30.829,-0.0202,-0.6643,-0.0111,0.8610,0.0000,0.0000,0.0000
81.372,Crosswind,5477.811,43.289,5477.811,43.289,2336.148,2336.159,168.454,37.038,16.047,16.279,30.859,-0.0185,-0.5769,-0.0110,0.8616,0.0000,0.0000,0.0000
81.579,Crosswind,5495.186,47.055,5495.186,47.055,2343.598,2343.609,168.396,37.491,16.896,16.653,30.823,-0.0147,-0.4837,-0.0111,0.8625,0.0000,0.0000,0.0000
81.771,Crosswind,5511.060,50.704,5511.060,50.704,2351.150,2351.161,168.332,38.030,17.625,16.829,30.723,-0.0091,-0.3974,-0.0112,0.8633,0.0000,0.0000,0.0000
81.977,Crosswind,5529.755,55.256,5529.755,55.256,2358.808,2358.820,168.274,38.542,18.220,16.785,30.562,-0.0017,-0.3312,-0.0112,0.8642,0.0000,0.0000,0.0000
82.171,Crosswind,5545.516,59.306,5545.516,59.306,2366.556,2366.567,168.225,38.892,18.686,16.524,30.353,0.0068,-0.4118,-0.0113,0.8649,0.0000,0.0000,0.0000
82.378,Crosswind,5564.080,64.317,5564.080,64.317,2374.347,2374.358,168.190,38.973,19.069,16.123,30.121,0.0156,-0.5052,-0.0114,0.8653,0.0000,0.0000,0.0000
82.576,Crosswind,5581.159,69.148,5581.159,69.148,2382.126,2382.137,168.172,38.767,19.425,15.671,29.891,0.0238,-0.5943,-0.0114,0.8653,0.0000,0.0000,0.0000
82.778,Crosswind,5598.189,74.164,5598.189,74.164,2389.836,2389.847,168.172,38.297,19.801,15.244,29.682,0.0308,-0.6850,-0.0115,0.8647,0.0000,0.0000,0.0000
82.970,Crosswind,5613.759,78.919,5613.759,78.919,2397.430,2397.442,168.186,37.619,20.231,14.905,29.508,0.0364,-0.7717,-0.0116,0.8641,0.0000,0.0000,0.0000
83.170,Crosswind,5630.704,84.272,5630.704,84.272,2404.875,2404.887,168.213,36.816,20.743,14.699,29.376,0.0402,-0.8000,-0.0117,0.8633,0.0000,0.0000,0.0000
83.373,Crosswind,5649.014,90.261,5649.014,90.261,2412.156,2412.167,168.252,35.995,21.341,14.632,29.288,0.0424,-0.8000,-0.0118,0.8626,0.0000,0.0000,0.0000
83.570,Crosswind,5664.467,95.484,5664.467,95.484,2419.276,2419.288,168.297,35.226,22.010,14.682,29.237,0.0433,-0.8000,-0.0118,0.8618,0.0000,0.0000,0.0000
83.782,Crosswind,5682.681,101.841,5682.681,101.841,2426.253,2426.264,168.344,34.557,22.735,14.824,29.220,0.0431,-0.8000,-0.0119,0.8611,0.0000,0.0000,0.0000
83.976,Crosswind,5699.442,107.890,5699.442,107.890,2433.108,2433.120,168.391,34.020,23.503,15.032,29.228,0.0420,-0.7758,-0.0119,0.8605,0.0000,0.0000,0.0000
84.180,Crosswind,5716.148,114.115,5716.148,114.115,2439.872,2439.884,168.435,33.648,24.294,15.273,29.255,0.0405,-0.7079,-0.0120,0.8599,0.0000,0.0000,0.0000
84.374,Crosswind,5732.794,120.522,5732.794,120.522,2446.578,2446.590,168.477,33.436,25.077,15.495,29.291,0.0387,-0.6508,-0.0120,0.8594,0.0000,0.0000,0.0000
84.585,Crosswind,5749.376,127.114,5749.376,127.114,2453.254,2453.266,168.516,33.341,25.827,15.656,29.324,0.0372,-0.6140,-0.0120,0.8590,0.0000,0.0000,0.0000
84.781,Crosswind,5765.889,133.891,5765.889,133.891,2459.918,2459.930,168.553,33.306,26.530,15.736,29.350,0.0360,-0.6012,-0.0120,0.8585,0.0000,0.0000,0.0000
84.975,Crosswind,5782.331,140.855,5782.331,140.855,2466.577,2466.589,168.591,33.275,27.184,15.732,29.365,0.0352,-0.6107,-0.0120,0.8580,0.0000,0.0000,0.0000
85.175,Crosswind,5798.700,148.003,5798.700,148.003,2473.225,2473.237,168.631,33.201,27.798,15.661,29.371,0.0349,-0.6365,-0.0120,0.8575,0.0000,0.0000,0.0000
