time_s,leg,north_m,east_m,along_m,cross_m,agl_ft,altitude_ft,speed_kts,vertical_speed_fps,heading_deg,pitch_deg,roll_deg,aileron_cmd,elevator_cmd,rudder_cmd,throttle_cmd,flaps_cmd,gear_cmd,brake_cmd
1.871,Upwind,0.662,0.000,0.662,0.000,3.691,3.691,2.581,0.001,0.000,0.450,0.000,0.0000,0.0035,0.0000,0.0000,0.5000,1.0000,1.0000
2.067,Upwind,0.807,0.000,0.807,0.000,3.693,3.693,0.602,0.046,0.000,0.359,0.000,0.0000,0.0329,0.0000,0.0000,0.5000,1.0000,1.0000
2.261,Upwind,0.810,0.000,0.810,0.000,3.707,3.707,0.037,0.031,0.000,0.324,0.000,0.0000,0.0565,0.0000,0.0000,0.5000,1.0000,1.0000
2.462,Upwind,0.808,0.000,0.808,0.000,3.694,3.694,0.076,-0.123,0.000,0.459,0.000,0.0000,0.0717,0.0000,0.0000,0.5000,1.0000,1.0000
2.650,Upwind,0.807,0.000,0.807,0.000,3.679,3.679,0.010,-0.016,0.000,0.491,0.000,0.0000,0.0666,0.0000,0.0099,0.5000,1.0000,0.0000
2.848,Upwind,0.808,0.000,0.808,0.000,3.685,3.685,0.027,0.044,0.000,0.455,0.000,0.0000,0.0604,0.0000,0.1088,0.5000,1.0000,0.0000
3.053,Upwind,0.808,0.000,0.808,0.000,3.691,3.691,0.011,0.019,0.000,0.438,0.000,0.0000,0.0618,0.0000,0.2113,0.5000,1.0000,0.0000
3.255,Upwind,0.808,0.000,0.808,0.000,3.692,3.692,0.005,-0.009,0.000,0.446,0.000,0.0000,0.0633,0.0000,0.3123,0.5000,1.0000,0.0000
3.453,Upwind,0.808,0.000,0.808,0.000,3.690,3.690,0.004,-0.005,0.000,0.452,0.000,0.0000,0.0633,0.0000,0.4114,0.5000,1.0000,0.0000
3.649,Upwind,0.809,0.000,0.809,0.000,3.690,3.690,0.015,0.003,0.000,0.450,0.000,0.0000,0.0628,0.0000,0.5095,0.5000,1.0000,0.0000
3.860,Upwind,0.812,0.000,0.812,0.000,3.691,3.691,0.039,0.002,0.000,0.448,0.000,0.0000,0.0627,0.0000,0.6148,0.5000,1.0000,0.0000
4.056,Upwind,0.818,0.000,0.818,0.000,3.691,3.691,0.069,0.000,0.000,0.449,0.000,0.0000,0.0629,0.0000,0.7127,0.5000,1.0000,0.0000
4.253,Upwind,0.827,0.000,0.827,0.000,3.691,3.691,0.115,-0.001,0.000,0.449,0.000,0.0000,0.0629,0.0000,0.8112,0.5000,1.0000,0.0000
4.462,Upwind,0.844,0.000,0.844,0.000,3.691,3.691,0.184,0.000,0.000,0.449,0.000,0.0000,0.0629,0.0000,0.9159,0.5000,1.0000,0.0000
4.654,Upwind,0.866,0.000,0.866,0.000,3.691,3.691,0.260,0.000,0.000,0.449,0.000,0.0000,0.0629,0.0000,1.0000,0.5000,1.0000,0.0000
4.864,Upwind,0.902,0.000,0.902,0.000,3.691,3.691,0.374,0.000,0.000,0.449,0.000,0.0000,0.0629,0.0000,1.0000,0.5000,1.0000,0.0000
5.057,Upwind,0.948,0.000,0.948,0.000,3.691,3.691,0.508,0.000,0.000,0.450,0.000,0.0000,0.0629,0.0000,1.0000,0.5000,1.0000,0.0000
5.265,Upwind,1.010,0.000,1.010,0.000,3.691,3.691,0.673,0.000,0.000,0.450,0.000,0.0000,0.0630,0.0000,1.0000,0.5000,1.0000,0.0000
5.465,Upwind,1.091,0.000,1.091,0.000,3.691,3.691,0.875,0.000,0.000,0.450,0.000,0.0000,0.0630,0.0000,1.0000,0.5000,1.0000,0.0000
5.654,Upwind,1.186,0.000,1.186,0.000,3.691,3.691,1.098,0.000,0.000,0.450,0.000,0.0000,0.0630,0.0000,1.0000,0.5000,1.0000,0.0000
5.848,Upwind,1.315,0.000,1.315,0.000,3.691,3.691,1.388,0.000,0.000,0.450,0.000,0.0000,0.0631,0.0000,1.0000,0.5000,1.0000,0.0000
6.059,Upwind,1.494,0.000,1.494,0.000,3.691,3.691,1.766,0.000,0.000,0.451,0.000,0.0000,0.0631,0.0000,1.0000,0.5000,1.0000,0.0000
6.253,Upwind,1.681,0.000,1.681,0.000,3.691,3.691,2.145,0.000,0.000,0.451,0.000,0.0000,0.0632,0.0000,1.0000,0.5000,1.0000,0.0000
6.463,Upwind,1.953,0.000,1.953,0.000,3.691,3.691,2.671,0.000,0.000,0.451,0.000,0.0000,0.0632,0.0000,1.0000,0.5000,1.0000,0.0000
6.652,Upwind,2.234,0.000,2.234,0.000,3.691,3.691,3.191,0.000,0.000,0.452,0.000,0.0000,0.0633,0.0000,1.0000,0.5000,1.0000,0.0000
6.862,Upwind,2.634,0.000,2.634,0.000,3.691,3.691,3.901,0.000,0.000,0.452,0.000,0.0000,0.0633,0.0000,1.0000,0.5000,1.0000,0.0000
7.064,Upwind,3.080,0.000,3.080,0.000,3.691,3.691,4.657,0.000,0.000,0.453,0.000,0.0000,0.0634,0.0000,1.0000,0.5000,1.0000,0.0000
7.266,Upwind,3.610,0.000,3.610,0.000,3.691,3.691,5.518,0.000,0.000,0.453,0.000,0.0000,0.0635,0.0000,1.0000,0.5000,1.0000,0.0000
7.472,Upwind,4.292,0.000,4.292,0.000,3.691,3.691,6.489,0.000,0.000,0.454,0.000,0.0000,0.0635,0.0000,1.0000,0.5000,1.0000,0.0000
7.658,Upwind,4.967,0.000,4.967,0.000,3.691,3.691,7.482,0.000,0.000,0.454,0.000,0.0000,0.0636,0.0000,1.0000,0.5000,1.0000,0.0000
7.848,Upwind,5.743,0.000,5.743,0.000,3.691,3.691,8.684,0.001,0.000,0.455,0.000,0.0000,0.0637,0.0000,1.0000,0.5000,1.0000,0.0000
8.061,Upwind,6.800,0.000,6.800,0.000,3.691,3.691,10.076,0.001,0.000,0.455,0.000,0.0000,0.0637,0.0000,1.0000,0.5000,1.0000,0.0000
8.262,Upwind,7.914,0.000,7.914,0.000,3.691,3.691,11.360,0.001,0.000,0.455,0.000,0.0000,0.0636,0.0000,1.0000,0.5000,1.0000,0.0000
8.462,Upwind,9.160,0.000,9.160,0.000,3.692,3.692,12.644,0.001,0.000,0.454,0.000,0.0000,0.0636,0.0000,1.0000,0.5000,1.0000,0.0000
8.658,Upwind,10.538,0.000,10.538,0.000,3.692,3.692,13.926,0.001,0.000,0.454,0.000,0.0000,0.0635,0.0000,1.0000,0.5000,1.0000,0.0000
8.856,Upwind,12.048,0.000,12.048,0.000,3.692,3.692,15.208,0.001,0.000,0.454,0.000,0.0000,0.0635,0.0000,1.0000,0.5000,1.0000,0.0000
9.059,Upwind,13.689,0.000,13.689,0.000,3.692,3.692,16.488,0.001,0.000,0.453,0.000,0.0000,0.0634,0.0000,1.0000,0.5000,1.0000,0.0000
9.250,Upwind,15.310,0.000,15.310,0.000,3.693,3.693,17.661,0.002,0.000,0.453,0.000,0.0000,0.0634,0.0000,1.0000,0.5000,1.0000,0.0000
9.461,Upwind,17.367,0.000,17.367,0.000,3.693,3.693,19.046,0.002,0.000,0.452,0.000,0.0000,0.0633,0.0000,1.0000,0.5000,1.0000,0.0000
9.666,Upwind,19.404,0.000,19.404,0.000,3.693,3.693,20.323,0.002,0.000,0.452,0.000,0.0000,0.0632,0.0000,1.0000,0.5000,1.0000,0.0000
9.866,Upwind,21.571,0.000,21.571,0.000,3.694,3.694,21.599,0.002,0.000,0.451,0.000,0.0000,0.0631,0.0000,1.0000,0.5000,1.0000,0.0000
10.058,Upwind,23.870,0.000,23.870,0.000,3.694,3.694,22.873,0.002,0.000,0.451,0.000,0.0000,0.0631,0.0000,1.0000,0.5000,1.0000,0.0000
10.260,Upwind,26.300,0.000,26.300,0.000,3.695,3.695,24.147,0.002,0.000,0.450,0.000,0.0000,0.0630,0.0000,1.0000,0.5000,1.0000,0.0000
10.463,Upwind,28.861,0.000,28.861,0.000,3.695,3.695,25.419,0.003,0.000,0.450,0.000,0.0000,0.0629,0.0000,1.0000,0.5000,1.0000,0.0000
10.666,Upwind,31.553,0.000,31.553,0.000,3.696,3.696,26.690,0.003,0.000,0.449,0.000,0.0000,0.0628,0.0000,1.0000,0.5000,1.0000,0.0000
10.862,Upwind,34.375,0.000,34.375,0.000,3.696,3.696,27.959,0.003,0.000,0.448,0.000,0.0000,0.0627,0.0000,1.0000,0.5000,1.0000,0.0000
11.068,Upwind,37.328,0.000,37.328,0.000,3.697,3.697,29.228,0.003,0.000,0.447,0.000,0.0000,0.0626,0.0000,1.0000,0.5000,1.0000,0.0000
11.265,Upwind,40.412,0.000,40.412,0.000,3.697,3.697,30.494,0.003,0.000,0.447,0.000,0.0000,0.0624,0.0000,1.0000,0.5000,1.0000,0.0000
11.463,Upwind,43.625,0.000,43.625,0.000,3.698,3.698,31.760,0.004,0.000,0.446,0.000,0.0000,0.0623,0.0000,1.0000,0.5000,1.0000,0.0000
11.652,Upwind,46.685,0.001,46.685,0.001,3.699,3.699,32.919,0.004,0.000,0.445,0.000,0.0000,0.0622,0.0000,1.0000,0.5000,1.0000,0.0000
11.860,Upwind,50.443,0.001,50.443,0.001,3.700,3.700,34.286,0.004,0.000,0.444,0.000,0.0000,0.0620,0.0000,1.0000,0.5000,1.0000,0.0000
12.065,Upwind,54.046,0.001,54.046,0.001,3.700,3.700,35.547,0.004,0.000,0.442,0.000,0.0000,0.0618,0.0000,1.0000,0.5000,1.0000,0.0000
12.250,Upwind,57.463,0.001,57.463,0.001,3.701,3.701,36.702,0.005,0.000,0.441,0.000,0.0000,0.0617,0.0000,1.0000,0.5000,1.0000,0.0000
12.449,Upwind,61.315,0.001,61.315,0.001,3.702,3.702,37.960,0.005,0.000,0.440,0.000,0.0000,0.0615,0.0000,1.0000,0.5000,1.0000,0.0000
12.658,Upwind,65.634,0.001,65.634,0.001,3.703,3.703,39.321,0.005,0.000,0.439,0.000,0.0000,0.0613,0.0000,1.0000,0.5000,1.0000,0.0000
12.858,Upwind,69.755,0.001,69.755,0.001,3.704,3.704,40.471,0.005,0.000,0.438,0.000,0.0000,0.0611,0.0000,1.0000,0.5000,1.0000,0.0000
13.052,Upwind,73.647,0.001,73.647,0.001,3.705,3.705,41.724,0.006,0.000,0.436,0.000,0.0000,0.0609,0.0000,1.0000,0.5000,1.0000,0.0000
13.248,Upwind,78.015,0.001,78.015,0.001,3.706,3.706,42.976,0.006,0.000,0.435,0.000,0.0000,0.0607,0.0000,1.0000,0.5000,1.0000,0.0000
13.464,Upwind,82.892,0.001,82.892,0.001,3.708,3.708,44.329,0.006,0.000,0.433,0.000,0.0000,0.0605,0.0000,1.0000,0.5000,1.0000,0.0000
13.657,Upwind,87.528,0.002,87.528,0.002,3.709,3.709,45.473,0.006,0.000,0.432,0.000,0.0000,0.0603,0.0000,1.0000,0.5000,1.0000,0.0000
13.869,Upwind,92.293,0.002,92.293,0.002,3.710,3.710,46.823,0.007,0.000,0.430,0.000,-0.0001,0.0600,0.0000,1.0000,0.5000,1.0000,0.0000
14.060,Upwind,97.185,0.002,97.185,0.002,3.712,3.712,48.067,0.007,0.000,0.428,0.000,-0.0001,0.0597,0.0000,1.0000,0.5000,1.0000,0.0000
14.259,Upwind,102.206,0.002,102.206,0.002,3.713,3.713,49.309,0.008,0.000,0.426,0.000,-0.0001,0.0594,0.0000,1.0000,0.5000,1.0000,0.0000
14.460,Upwind,107.354,0.002,107.354,0.002,3.715,3.715,50.549,0.008,0.001,0.424,0.000,-0.0001,0.0591,0.0000,1.0000,0.5000,1.0000,0.0000
14.652,Upwind,112.185,0.002,112.185,0.002,3.716,3.716,51.684,0.009,0.001,0.422,0.000,-0.0001,0.0589,0.0000,1.0000,0.5000,1.0000,0.0000
14.858,Upwind,118.032,0.003,118.032,0.003,3.718,3.718,53.022,0.009,0.001,0.420,0.000,-0.0001,0.0585,0.0000,1.0000,0.5000,1.0000,0.0000
15.053,Upwind,123.096,0.003,123.096,0.003,3.720,3.720,54.153,0.009,0.001,0.417,0.000,-0.0001,0.0582,0.0000,1.0000,0.5000,1.0000,0.0000
15.272,Upwind,129.695,0.003,129.695,0.003,3.722,3.722,55.487,0.010,0.001,0.415,0.000,-0.0001,0.0578,0.0000,1.0000,0.5000,1.0000,0.0000
15.448,Upwind,134.514,0.003,134.514,0.003,3.724,3.724,56.613,0.010,0.001,0.412,0.000,-0.0001,0.0575,0.0000,1.0000,0.5000,1.0000,0.0000
15.663,Upwind,140.910,0.003,140.910,0.003,3.726,3.726,57.942,0.011,0.001,0.409,0.000,-0.0001,0.0571,0.0000,1.0000,0.5000,1.0000,0.0000
15.859,Upwind,146.945,0.004,146.945,0.004,3.728,3.728,59.166,0.011,0.001,0.407,0.000,-0.0001,0.0567,0.0000,1.0000,0.5000,1.0000,0.0000
16.061,Upwind,153.107,0.004,153.107,0.004,3.730,3.730,60.388,0.010,0.001,0.404,0.000,-0.0001,0.0563,0.0000,1.0000,0.5000,1.0000,0.0000
16.255,Upwind,159.393,0.004,159.393,0.004,3.732,3.732,61.506,0.009,0.001,0.402,0.000,-0.0001,0.0560,0.0000,1.0000,0.5000,1.0000,0.0000
16.449,Upwind,165.266,0.005,165.266,0.005,3.733,3.733,62.622,0.008,0.001,0.400,0.000,-0.0002,0.0558,0.0000,1.0000,0.5000,1.0000,0.0000
16.661,Upwind,172.343,0.005,172.343,0.005,3.735,3.735,64.040,0.009,0.001,0.397,0.000,-0.0002,0.0554,0.0000,1.0000,0.5000,1.0000,0.0000
16.860,Upwind,179.005,0.005,179.005,0.005,3.737,3.737,65.253,0.009,0.001,0.395,0.000,-0.0002,0.0551,0.0000,1.0000,0.5000,1.0000,0.0000
17.051,Upwind,185.221,0.006,185.221,0.006,3.739,3.739,66.363,0.009,0.002,0.393,0.000,-0.0002,0.0548,0.0000,1.0000,0.5000,1.0000,0.0000
17.264,Upwind,192.703,0.006,192.703,0.006,3.740,3.741,67.672,0.009,0.002,0.391,0.000,-0.0002,0.0544,0.0000,1.0000,0.5000,1.0000,0.0000
17.455,Upwind,199.738,0.007,199.738,0.007,3.742,3.742,68.778,0.009,0.002,0.388,0.000,-0.0002,0.0541,0.0000,1.0000,0.5000,1.0000,0.0000
17.650,Upwind,206.296,0.007,206.296,0.007,3.744,3.744,69.983,0.009,0.002,0.386,0.000,-0.0002,0.0538,0.0000,1.0000,0.5000,1.0000,0.0000
17.851,Upwind,213.569,0.008,213.569,0.008,3.746,3.746,71.185,0.009,0.002,0.384,0.000,-0.0002,0.0535,0.0000,1.0000,0.5000,1.0000,0.0000
18.051,Upwind,220.966,0.008,220.966,0.008,3.748,3.748,72.384,0.010,0.002,0.381,0.000,-0.0003,0.0531,0.0000,1.0000,0.5000,1.0000,0.0000
18.262,Upwind,229.118,0.009,229.118,0.009,3.750,3.750,73.682,0.010,0.002,0.379,0.000,-0.0003,0.0527,0.0000,1.0000,0.5000,1.0000,0.0000
18.466,Upwind,236.771,0.009,236.771,0.009,3.752,3.752,74.876,0.010,0.002,0.376,0.000,-0.0003,0.0524,0.0000,1.0000,0.5000,1.0000,0.0000
18.662,Upwind,244.547,0.010,244.547,0.010,3.754,3.754,76.069,0.010,0.003,0.373,0.000,-0.0003,0.0520,0.0000,1.0000,0.5000,1.0000,0.0000
18.858,Upwind,252.445,0.011,252.445,0.011,3.756,3.756,77.259,0.010,0.003,0.371,0.000,-0.0003,0.0517,0.0000,1.0000,0.5000,1.0000,0.0000
19.048,Upwind,259.793,0.011,259.793,0.011,3.758,3.758,78.348,0.010,0.003,0.369,0.000,-0.0004,0.0513,0.0000,1.0000,0.5000,1.0000,0.0000
19.253,Upwind,268.609,0.012,268.609,0.012,3.760,3.760,79.534,0.010,0.003,0.366,0.000,-0.0004,0.0510,0.0000,1.0000,0.5000,1.0000,0.0000
19.455,Upwind,276.180,0.013,276.180,0.013,3.762,3.762,80.717,0.011,0.003,0.363,0.000,-0.0004,0.0506,0.0000,1.0000,0.5000,1.0000,0.0000
19.649,Upwind,284.556,0.014,284.556,0.014,3.764,3.764,81.897,0.011,0.003,0.361,0.000,-0.0004,0.0502,0.0000,1.0000,0.5000,1.0000,0.0000
19.864,Upwind,293.767,0.015,293.767,0.015,3.766,3.766,83.174,0.011,0.004,0.358,0.000,-0.0004,0.0498,0.0000,1.0000,0.5000,1.0000,0.0000
20.065,Upwind,302.396,0.016,302.396,0.016,3.768,3.768,84.349,0.011,0.004,0.355,0.000,-0.0005,0.0494,0.0000,1.0000,0.5000,1.0000,0.0000
20.259,Upwind,311.145,0.017,311.145,0.017,3.770,3.770,85.522,0.011,0.004,0.352,0.000,-0.0005,0.0490,0.0000,1.0000,0.5000,1.0000,0.0000
20.458,Upwind,320.015,0.018,320.015,0.018,3.773,3.773,86.692,0.011,0.004,0.349,0.000,-0.0005,0.0486,0.0000,1.0000,0.5000,1.0000,0.0000
20.655,Upwind,329.005,0.019,329.005,0.019,3.775,3.775,87.763,0.011,0.005,0.347,0.000,-0.0006,0.0482,0.0000,1.0000,0.5000,1.0000,0.0000
20.855,Upwind,338.116,0.020,338.116,0.020,3.777,3.777,88.929,0.011,0.005,0.344,0.000,-0.0006,0.0478,0.0000,1.0000,0.5000,1.0000,0.0000
21.056,Upwind,347.346,0.021,347.346,0.021,3.779,3.779,90.188,0.011,0.005,0.341,0.000,-0.0006,0.0474,0.0000,1.0000,0.5000,1.0000,0.0000
21.265,Upwind,356.695,0.022,356.695,0.022,3.782,3.782,91.348,0.012,0.005,0.338,0.000,-0.0006,0.0470,0.0000,1.0000,0.5000,1.0000,0.0000
21.450,Upwind,365.370,0.023,365.370,0.023,3.784,3.784,92.410,0.012,0.006,0.335,0.000,-0.0007,0.0466,0.0000,1.0000,0.5000,1.0000,0.0000
21.656,Upwind,375.751,0.025,375.751,0.025,3.786,3.786,93.565,0.012,0.006,0.332,0.000,-0.0007,0.0462,0.0000,1.0000,0.5000,1.0000,0.0000
21.857,Upwind,385.458,0.026,385.458,0.026,3.789,3.789,94.813,0.012,0.006,0.329,0.000,-0.0007,0.0457,0.0000,1.0000,0.5000,1.0000,0.0000
22.049,Upwind,394.459,0.028,394.459,0.028,3.791,3.791,95.867,0.012,0.006,0.326,0.000,-0.0008,0.0453,0.0000,1.0000,0.5000,1.0000,0.0000
22.261,Upwind,405.225,0.029,405.225,0.029,3.793,3.793,97.109,0.012,0.007,0.323,0.000,-0.0008,0.0449,0.0000,1.0000,0.5000,1.0000,0.0000
22.462,Upwind,415.286,0.031,415.286,0.031,3.796,3.796,98.253,0.012,0.007,0.320,0.000,-0.0009,0.0444,0.0000,1.0000,0.5000,1.0000,0.0000
22.656,Upwind,425.464,0.033,425.464,0.033,3.798,3.798,99.300,0.012,0.007,0.317,0.000,-0.0009,0.0440,0.0000,1.0000,0.5000,1.0000,0.0000
22.852,Upwind,434.897,0.034,434.897,0.034,3.801,3.801,100.439,0.012,0.008,0.314,0.000,-0.0009,0.0436,0.0000,1.0000,0.5000,1.0000,0.0000
23.052,Upwind,445.300,0.036,445.300,0.036,3.803,3.803,101.575,0.013,0.008,0.310,0.000,-0.0010,0.0432,0.0000,1.0000,0.5000,1.0000,0.0000
23.260,Upwind,456.701,0.038,456.701,0.038,3.806,3.806,102.802,0.013,0.008,0.307,0.000,-0.0010,0.0427,0.0000,1.0000,0.5000,1.0000,0.0000
23.464,Upwind,467.347,0.040,467.347,0.040,3.808,3.808,103.933,0.013,0.009,0.304,0.000,-0.0011,0.0422,0.0000,1.0000,0.5000,1.0000,0.0000
23.658,Upwind,478.108,0.043,478.108,0.043,3.811,3.811,105.060,0.013,0.009,0.301,0.000,-0.0011,0.0418,0.0000,1.0000,0.5000,1.0000,0.0000
23.854,Upwind,488.075,0.045,488.075,0.045,3.813,3.813,106.091,0.013,0.009,0.298,0.000,-0.0011,0.0413,0.0000,1.0000,0.5000,1.0000,0.0000
24.063,Upwind,499.979,0.047,499.979,0.047,3.816,3.816,107.307,0.013,0.010,0.294,0.000,-0.0012,0.0409,0.0000,1.0000,0.5000,1.0000,0.0000
24.251,Upwind,510.157,0.049,510.157,0.049,3.818,3.818,108.333,0.013,0.010,0.291,0.000,-0.0012,0.0404,0.0000,1.0000,0.5000,1.0000,0.0000
24.453,Upwind,521.371,0.052,521.371,0.052,3.821,3.821,109.449,0.013,0.011,0.288,0.000,-0.0013,0.0400,0.0000,1.0000,0.5000,1.0000,0.0000
24.651,Upwind,532.700,0.055,532.700,0.055,3.824,3.824,110.562,0.013,0.011,0.284,0.000,-0.0013,0.0395,0.0000,1.0000,0.5000,1.0000,0.0000
24.867,Upwind,545.101,0.058,545.101,0.058,3.826,3.826,111.766,0.013,0.011,0.281,0.000,-0.0014,0.0390,0.0000,1.0000,0.5000,1.0000,0.0000
25.062,Upwind,556.668,0.061,556.668,0.061,3.829,3.829,112.873,0.013,0.012,0.277,-0.001,-0.0015,0.0385,0.0000,1.0000,0.5000,1.0000,0.0000
25.253,Upwind,567.370,0.063,567.370,0.063,3.832,3.832,113.886,0.014,0.012,0.274,-0.001,-0.0015,0.0381,0.0000,1.0000,0.5000,1.0000,0.0000
25.455,Upwind,580.142,0.067,580.142,0.067,3.834,3.834,114.988,0.014,0.013,0.271,-0.001,-0.0016,0.0376,0.0000,1.0000,0.5000,1.0000,0.0000
25.648,Upwind,591.052,0.070,591.052,0.070,3.837,3.837,116.087,0.014,0.013,0.268,-0.001,-0.0016,0.0371,0.0000,1.0000,0.5000,1.0000,0.0000
25.864,Upwind,604.068,0.073,604.068,0.073,3.840,3.840,117.274,0.014,0.014,0.264,-0.001,-0.0017,0.0366,0.0000,1.0000,0.5000,1.0000,0.0000
26.068,Upwind,616.201,0.077,616.201,0.077,3.843,3.843,118.367,0.014,0.014,0.260,-0.001,-0.0017,0.0361,0.0000,1.0000,0.5000,1.0000,0.0000
26.260,Upwind,628.445,0.080,628.445,0.080,3.845,3.846,119.456,0.014,0.015,0.257,-0.001,-0.0018,0.0356,0.0000,1.0000,0.5000,1.0000,0.0000
26.450,Upwind,639.768,0.084,639.768,0.084,3.848,3.848,120.453,0.014,0.015,0.254,-0.001,-0.0019,0.0352,0.0000,1.0000,0.5000,1.0000,0.0000
26.656,Upwind,653.270,0.088,653.270,0.088,3.851,3.851,121.627,0.014,0.015,0.250,-0.001,-0.0019,0.0346,0.0000,1.0000,0.5000,1.0000,0.0000
26.856,Upwind,665.850,0.092,665.850,0.092,3.854,3.854,122.618,0.014,0.016,0.247,-0.001,-0.0020,0.0342,0.0000,1.0000,0.5000,1.0000,0.0000
27.064,Upwind,678.540,0.096,678.540,0.096,3.857,3.857,123.786,0.014,0.016,0.243,-0.001,-0.0021,0.0337,0.0000,1.0000,0.5000,1.0000,0.0000
27.258,Upwind,691.342,0.100,691.342,0.100,3.860,3.860,124.861,0.014,0.017,0.239,-0.001,-0.0021,0.0332,0.0000,1.0000,0.5000,1.0000,0.0000
27.454,Upwind,704.254,0.105,704.254,0.105,3.862,3.862,125.843,0.014,0.017,0.236,-0.001,-0.0022,0.0327,0.0000,1.0000,0.5000,1.0000,0.0000
27.667,Upwind,717.275,0.109,717.275,0.109,3.865,3.865,127.001,0.014,0.018,0.232,-0.001,-0.0023,0.0322,0.0000,1.0000,0.5000,1.0000,0.0000
27.860,Upwind,730.407,0.114,730.407,0.114,3.868,3.868,127.978,0.015,0.018,0.229,-0.001,-0.0023,0.0317,0.0000,1.0000,0.5000,1.0000,0.0000
28.066,Upwind,743.648,0.119,743.648,0.119,3.871,3.871,129.129,0.015,0.019,0.225,-0.001,-0.0024,0.0311,0.0000,1.0000,0.5000,1.0000,0.0000
28.248,Upwind,755.882,0.124,755.882,0.124,3.874,3.874,130.100,0.015,0.019,0.222,-0.002,-0.0025,0.0307,0.0000,1.0000,0.5000,1.0000,0.0000
28.451,Upwind,769.332,0.129,769.332,0.129,3.877,3.877,131.157,0.015,0.020,0.218,-0.002,-0.0025,0.0302,0.0000,1.0000,0.5000,1.0000,0.0000
28.650,Upwind,782.890,0.135,782.890,0.135,3.880,3.880,132.211,0.015,0.021,0.214,-0.002,-0.0026,0.0297,0.0000,1.0000,0.5000,1.0000,0.0000
28.850,Upwind,796.557,0.140,796.557,0.140,3.882,3.883,133.261,0.015,0.021,0.211,-0.002,-0.0027,0.0291,0.0000,1.0000,0.5000,1.0000,0.0000
29.067,Upwind,811.484,0.146,811.484,0.146,3.886,3.886,134.397,0.015,0.022,0.207,-0.002,-0.0028,0.0286,0.0000,1.0000,0.5000,1.0000,0.0000
29.264,Upwind,825.376,0.152,825.376,0.152,3.889,3.889,135.442,0.015,0.022,0.203,-0.002,-0.0029,0.0281,0.0000,1.0000,0.5000,1.0000,0.0000
29.466,Upwind,839.374,0.158,839.374,0.158,3.892,3.892,136.484,0.015,0.023,0.199,-0.002,-0.0029,0.0276,0.0000,1.0000,0.5000,1.0000,0.0000
29.663,Upwind,853.480,0.165,853.480,0.165,3.895,3.895,137.524,0.015,0.023,0.196,-0.002,-0.0030,0.0270,0.0000,1.0000,0.5000,1.0000,0.0000
29.856,Upwind,867.693,0.171,867.693,0.171,3.898,3.898,138.561,0.015,0.024,0.192,-0.002,-0.0031,0.0265,0.0000,1.0000,0.5000,1.0000,0.0000
30.053,Upwind,880.815,0.177,880.815,0.177,3.900,3.900,139.510,0.015,0.024,0.189,-0.002,-0.0032,0.0260,0.0000,1.0000,0.5000,1.0000,0.0000
30.252,Upwind,895.231,0.184,895.231,0.184,3.903,3.903,140.542,0.015,0.025,0.185,-0.003,-0.0033,0.0255,0.0000,1.0000,0.5000,1.0000,0.0000
30.452,Upwind,909.754,0.191,909.754,0.191,3.906,3.906,141.571,0.015,0.026,0.181,-0.003,-0.0034,0.0250,0.0000,1.0000,0.5000,1.0000,0.0000
30.663,Upwind,925.607,0.199,925.607,0.199,3.910,3.910,142.683,0.015,0.026,0.177,-0.003,-0.0035,0.0244,0.0000,1.0000,0.5000,1.0000,0.0000
30.860,Upwind,940.349,0.207,940.349,0.207,3.913,3.913,143.707,0.015,0.027,0.173,-0.003,-0.0035,0.0239,0.0000,1.0000,0.5000,1.0000,0.0000
31.057,Upwind,955.197,0.214,955.197,0.214,3.916,3.916,144.728,0.015,0.027,0.170,-0.003,-0.0036,0.0234,0.0000,1.0000,0.5000,1.0000,0.0000
31.266,Upwind,970.150,0.222,970.150,0.222,3.919,3.919,145.747,0.016,0.028,0.166,-0.003,-0.0037,0.0228,0.0000,1.0000,0.5000,1.0000,0.0000
31.454,Upwind,983.949,0.230,983.949,0.230,3.922,3.922,146.678,0.016,0.029,0.162,-0.003,-0.0038,0.0223,0.0000,1.0000,0.5000,1.0000,0.0000
31.664,Upwind,1000.369,0.239,1000.369,0.239,3.925,3.925,147.775,0.016,0.029,0.158,-0.003,-0.0039,0.0218,0.0000,1.0000,0.5000,1.0000,0.0000
31.864,Upwind,1015.635,0.247,1015.635,0.247,3.928,3.928,148.785,0.016,0.030,0.154,-0.004,-0.0040,0.0212,0.0000,1.0000,0.5000,1.0000,0.0000
32.063,Upwind,1031.005,0.256,1031.005,0.256,3.931,3.931,149.792,0.016,0.030,0.150,-0.004,-0.0041,0.0207,0.0000,1.0000,0.5000,1.0000,0.0000
32.257,Upwind,1046.477,0.265,1046.477,0.265,3.934,3.934,150.714,0.012,0.031,0.148,-0.004,-0.0042,-0.0512,0.0000,1.0000,0.5000,1.0000,0.0000
32.455,Upwind,1062.054,0.274,1062.054,0.274,3.935,3.935,151.713,0.000,0.032,0.157,-0.004,-0.0043,-0.1401,0.0000,1.0000,0.5000,1.0000,0.0000
32.650,Upwind,1076.422,0.283,1076.422,0.283,3.934,3.934,152.704,-0.009,0.032,0.176,-0.004,-0.0044,-0.2279,0.0000,1.0000,0.5000,1.0000,0.0000
32.853,Upwind,1092.193,0.293,1092.193,0.293,3.933,3.933,153.687,-0.005,0.033,0.195,-0.004,-0.0045,-0.3194,0.0000,1.0000,0.5000,1.0000,0.0000
33.058,Upwind,1109.392,0.303,1109.392,0.303,3.932,3.932,154.742,-0.002,0.034,0.212,-0.005,-0.0046,-0.4115,0.0000,1.0000,0.5000,1.0000,0.0000
33.248,Upwind,1124.037,0.313,1124.037,0.313,3.933,3.933,155.628,0.013,0.034,0.234,-0.005,-0.0047,-0.4971,0.0000,1.0000,0.5000,1.0000,0.0000
33.455,Upwind,1140.107,0.323,1140.107,0.323,3.938,3.938,156.585,0.042,0.035,0.305,-0.005,-0.0048,-0.5900,0.0000,1.0000,0.5000,1.0000,0.0000
33.658,Upwind,1157.628,0.334,1157.628,0.334,3.952,3.952,157.610,0.093,0.036,0.492,-0.005,-0.0050,-0.6500,0.0000,1.0000,0.5000,1.0000,0.0000
33.856,Upwind,1173.902,0.345,1173.902,0.345,3.975,3.975,158.471,0.153,0.037,0.767,-0.005,-0.0051,-0.6500,0.0000,1.0000,0.5000,1.0000,0.0000
34.057,Upwind,1190.271,0.356,1190.271,0.356,4.015,4.015,159.480,0.218,0.037,1.223,-0.005,-0.0052,-0.6500,0.0000,1.0000,0.5000,1.0000,0.0000
34.263,Upwind,1206.736,0.368,1206.736,0.368,4.064,4.064,160.404,0.268,0.038,1.760,-0.006,-0.0053,-0.6500,0.0000,1.0000,0.5000,1.0000,0.0000
34.464,Upwind,1223.296,0.379,1223.296,0.379,4.122,4.122,161.317,0.313,0.039,2.399,-0.006,-0.0055,-0.6500,0.0000,1.0000,0.5000,1.0000,0.0000
34.651,Upwind,1238.557,0.390,1238.557,0.390,4.183,4.183,162.143,0.350,0.040,3.067,-0.006,-0.0056,-0.6500,0.0000,1.0000,0.5000,1.0000,0.0000
34.855,Upwind,1256.693,0.404,1256.693,0.404,4.257,4.257,163.031,0.409,0.040,3.876,-0.006,-0.0055,-0.6500,0.0000,1.0000,0.5000,1.0000,0.0000
35.057,Upwind,1273.528,0.416,1273.528,0.416,4.391,4.391,163.966,0.931,0.041,4.819,-0.012,-0.0051,-0.6500,0.0000,1.0000,0.5000,1.0000,0.0000
35.260,Upwind,1290.449,0.429,1290.449,0.429,4.669,4.669,164.795,1.931,0.042,5.714,-0.022,-0.0046,-0.6500,0.0000,1.0000,0.5000,1.0000,0.0000
35.459,Upwind,1307.452,0.442,1307.452,0.442,5.193,5.193,165.585,3.370,0.042,6.599,-0.035,-0.0040,-0.6500,0.0000,1.0000,0.5000,1.0000,0.0000
35.649,Upwind,1323.108,0.454,1323.108,0.454,5.957,5.957,166.271,5.010,0.042,7.382,-0.049,-0.0035,-0.6500,0.0000,1.0000,0.5000,1.0000,0.0000
35.866,Upwind,1341.687,0.467,1341.687,0.467,7.280,7.280,167.030,7.255,0.042,8.257,-0.066,-0.0029,-0.6500,0.0000,1.0000,0.5000,1.0000,0.0000
36.062,Upwind,1358.906,0.480,1358.906,0.480,8.956,8.956,167.679,9.528,0.041,9.008,-0.081,-0.0023,-0.6500,0.0000,1.0000,0.5000,1.0000,0.0000
36.262,Upwind,1376.184,0.492,1376.184,0.492,11.099,11.099,168.276,11.925,0.040,9.703,-0.095,-0.0017,-0.6500,0.0000,1.0000,0.5000,1.0000,0.0000
36.456,Upwind,1393.515,0.504,1393.515,0.504,13.733,13.733,168.822,14.423,0.037,10.345,-0.107,-0.0012,-0.6500,0.0000,1.0000,0.5000,1.0000,0.0000
36.667,Upwind,1410.892,0.515,1410.892,0.515,16.872,16.872,169.318,16.969,0.035,10.939,-0.117,-0.0007,-0.6433,0.0000,1.0000,0.5000,1.0000,0.0000
36.861,Upwind,1428.309,0.526,1428.309,0.526,20.522,20.522,169.767,19.535,0.031,11.489,-0.125,-0.0003,-0.6142,0.0001,1.0000,0.5000,1.0000,0.0000
37.058,Upwind,1445.759,0.535,1445.759,0.535,24.684,24.684,170.172,22.080,0.028,11.987,-0.131,0.0001,-0.5847,0.0001,1.0000,0.5000,1.0000,0.0000
37.264,Upwind,1463.239,0.544,1463.239,0.544,28.943,28.943,170.508,24.377,0.024,12.391,-0.134,0.0005,-0.5538,0.0001,1.0000,0.5000,1.0000,0.0000
37.450,Upwind,1479.282,0.552,1479.282,0.552,34.064,34.064,170.839,26.815,0.019,12.772,-0.135,0.0008,-0.5259,0.0001,1.0000,0.5000,1.0000,0.0000
37.658,Upwind,1498.265,0.559,1498.265,0.559,39.664,39.664,171.137,29.172,0.014,13.087,-0.135,0.0011,-0.4947,0.0001,1.0000,0.5000,1.0000,0.0000
37.859,Upwind,1515.803,0.566,1515.803,0.566,46.251,46.252,171.427,31.613,0.009,13.353,-0.133,0.0014,-0.4645,0.0001,1.0000,0.5000,1.0000,0.0000
38.063,Upwind,1533.355,0.571,1533.355,0.571,52.789,52.789,171.668,33.742,0.005,13.531,-0.129,0.0016,-0.4339,0.0001,1.0000,0.5000,1.0000,0.0000
38.258,Upwind,1550.917,0.576,1550.917,0.576,59.739,59.739,171.888,35.731,0.001,13.647,-0.124,0.0018,-0.4048,0.0001,1.0000,0.5000,1.0000,0.0000
38.453,Upwind,1567.024,0.579,1567.024,0.579,66.446,66.446,172.075,37.418,359.997,13.701,-0.119,0.0019,-0.3755,0.0001,1.0000,0.5000,1.0000,0.0000
38.667,Upwind,1586.069,0.582,1586.069,0.582,74.754,74.755,172.282,39.242,359.994,13.705,-0.112,0.0019,-0.3433,0.0001,1.0000,0.5000,1.0000,0.0000
38.867,Upwind,1603.657,0.584,1603.657,0.584,82.756,82.756,172.465,40.743,359.991,13.654,-0.105,0.0018,-0.3134,0.0000,1.0000,0.5000,1.0000,0.0000
39.048,Upwind,1619.787,0.586,1619.787,0.586,90.339,90.340,172.628,41.964,359.990,13.564,-0.099,0.0017,-0.2862,0.0000,1.0000,0.5000,1.0000,0.0000
39.272,Upwind,1640.329,0.587,1640.329,0.587,99.570,99.571,172.819,43.208,359.988,13.408,-0.091,0.0016,-0.2525,0.0000,1.0000,0.5000,1.0000,0.0000
39.459,Upwind,1656.479,0.587,1656.479,0.587,108.311,108.311,172.994,44.164,359.988,13.218,-0.084,0.0014,-0.2246,0.0000,0.9983,0.5000,1.0000,0.0000
39.659,Upwind,1674.109,0.587,1674.109,0.587,117.223,117.224,173.166,44.931,359.988,12.988,-0.078,0.0012,-0.2459,0.0000,0.9959,0.5000,1.0000,0.0000
39.861,Upwind,1691.754,0.587,1691.754,0.587,126.269,126.269,173.332,45.487,359.988,12.742,-0.072,0.0009,-0.2989,0.0000,0.9935,0.5000,1.0000,0.0000
40.053,Upwind,1707.941,0.586,1707.941,0.586,134.641,134.642,173.480,45.829,359.989,12.547,-0.066,0.0007,-0.3368,0.0000,0.9915,0.5000,1.0000,0.0000
40.263,Upwind,1727.089,0.585,1727.089,0.585,144.601,144.602,173.651,46.086,359.989,12.391,-0.061,0.0004,-0.3627,0.0000,0.9891,0.5000,1.0000,0.0000
40.450,Upwind,1743.306,0.584,1743.306,0.584,153.064,153.065,173.790,46.236,359.990,12.335,-0.057,0.0003,-0.3675,0.0000,0.9871,0.5000,0.0000,0.0000
40.664,Upwind,1762.491,0.582,1762.491,0.582,163.099,163.100,173.950,46.398,359.991,12.357,-0.054,0.0001,-0.3554,0.0000,0.9848,0.5000,0.0000,0.0000
40.857,Upwind,1780.215,0.581,1780.215,0.581,172.397,172.397,174.093,46.583,359.992,12.441,-0.051,0.0000,-0.3339,0.0000,0.9828,0.5000,0.0000,0.0000
41.061,Upwind,1797.955,0.579,1797.955,0.579,181.736,181.737,174.228,46.827,359.992,12.560,-0.048,-0.0001,-0.3058,0.0000,0.9809,0.5000,0.0000,0.0000
41.257,Upwind,1815.708,0.577,1815.708,0.577,191.132,191.133,174.357,47.138,359.993,12.687,-0.047,-0.0002,-0.2787,0.0000,0.9791,0.5000,0.0000,0.0000
41.453,Upwind,1831.993,0.575,1831.993,0.575,199.804,199.805,174.469,47.471,359.993,12.790,-0.046,-0.0003,-0.2568,0.0000,0.9776,0.5000,0.0000,0.0000
41.657,Upwind,1851.249,0.573,1851.249,0.573,210.135,210.136,174.593,47.903,359.993,12.879,-0.045,-0.0003,-0.2411,0.0000,0.9758,0.5000,0.0000,0.0000
41.866,Upwind,1869.036,0.571,1869.036,0.571,219.757,219.758,174.702,48.309,359.993,12.921,-0.044,-0.0003,-0.2355,0.0000,0.9743,0.5000,0.0000,0.0000
42.049,Upwind,1885.348,0.569,1885.348,0.569,228.646,228.647,174.797,48.665,359.993,12.927,-0.044,-0.0002,-0.2370,0.0000,0.9730,0.5000,0.0000,0.0000
42.260,Upwind,1904.637,0.566,1904.637,0.566,239.232,239.233,174.905,49.045,359.992,12.904,-0.044,-0.0002,-0.2446,0.0000,0.9714,0.5000,0.0000,0.0000
42.448,Upwind,1920.967,0.564,1920.967,0.564,248.250,248.251,174.994,49.323,359.992,12.868,-0.044,-0.0002,-0.2534,0.0000,0.9702,0.5000,0.0000,0.0000
42.656,Upwind,1940.276,0.562,1940.276,0.562,258.141,258.142,175.088,49.578,359.992,12.823,-0.044,-0.0001,-0.2632,0.0000,0.9689,0.5000,0.0000,0.0000
42.865,Upwind,1958.111,0.559,1958.111,0.559,268.908,268.909,175.189,49.804,359.991,12.780,-0.044,0.0000,-0.2716,0.0000,0.9675,0.5000,0.0000,0.0000
43.051,Upwind,1974.468,0.557,1974.468,0.557,278.054,278.055,175.272,49.964,359.991,12.755,-0.044,0.0000,-0.2758,0.0000,0.9663,0.5000,0.0000,0.0000
43.261,Upwind,1993.811,0.554,1993.811,0.554,288.898,288.899,175.369,50.130,359.990,12.742,-0.044,0.0001,-0.2768,0.0000,0.9649,0.5000,0.0000,0.0000
43.462,Upwind,2011.677,0.551,2011.677,0.551,298.938,298.939,175.457,50.273,359.990,12.747,-0.044,0.0001,-0.2745,0.0000,0.9637,0.5000,0.0000,0.0000
43.656,Upwind,2029.553,0.548,2029.553,0.548,308.167,308.168,175.535,50.406,359.989,12.762,-0.043,0.0002,-0.2703,0.0000,0.9626,0.5000,0.0000,0.0000
43.868,Upwind,2047.439,0.546,2047.439,0.546,319.105,319.107,175.626,50.569,359.989,12.787,-0.043,0.0002,-0.2643,0.0000,0.9614,0.5000,0.0000,0.0000
44.062,Upwind,2065.334,0.543,2065.334,0.543,329.235,329.237,175.707,50.729,359.988,12.813,-0.042,0.0002,-0.2588,0.0000,0.9602,0.5000,0.0000,0.0000
44.264,Upwind,2083.240,0.540,2083.240,0.540,339.397,339.399,175.786,50.896,359.988,12.836,-0.042,0.0003,-0.2543,0.0000,0.9591,0.5000,0.0000,0.0000
44.459,Upwind,2101.153,0.537,2101.153,0.537,349.593,349.595,175.863,51.066,359.988,12.853,-0.041,0.0003,-0.2512,0.0000,0.9580,0.5000,0.0000,0.0000
44.656,Upwind,2119.076,0.533,2119.076,0.533,359.823,359.825,175.938,51.234,359.987,12.862,-0.040,0.0003,-0.2499,0.0000,0.9570,0.5000,0.0000,0.0000
44.860,Upwind,2137.008,0.530,2137.008,0.530,370.086,370.088,176.012,51.395,359.987,12.864,-0.039,0.0002,-0.2501,0.0000,0.9559,0.5000,0.0000,0.0000
45.053,Upwind,2153.453,0.527,2153.453,0.527,379.522,379.523,176.078,51.534,359.987,12.861,-0.038,0.0002,-0.2511,0.0000,0.9550,0.5000,0.0000,0.0000
45.273,Upwind,2174.394,0.523,2174.394,0.523,390.704,390.706,176.156,51.685,359.987,12.853,-0.037,0.0002,-0.2530,0.0000,0.9539,0.5000,0.0000,0.0000
45.454,Upwind,2189.359,0.521,2189.359,0.521,400.190,400.192,176.220,51.802,359.987,12.846,-0.036,0.0002,-0.2547,0.0000,0.9530,0.5000,0.0000,0.0000
45.659,Upwind,2208.822,0.517,2208.822,0.517,411.428,411.430,176.293,51.927,359.987,12.838,-0.035,0.0002,-0.2563,0.0000,0.9520,0.5000,0.0000,0.0000
45.855,Upwind,2226.798,0.514,2226.798,0.514,420.957,420.959,176.353,52.024,359.987,12.834,-0.034,0.0001,-0.2569,0.0000,0.9512,0.5000,0.0000,0.0000
46.068,Upwind,2244.781,0.510,2244.781,0.510,432.240,432.242,176.419,52.131,359.987,12.833,-0.033,0.0001,-0.2567,0.0000,0.9502,0.5000,0.0000,0.0000
46.265,Upwind,2262.772,0.507,2262.772,0.507,442.676,442.678,176.477,52.226,359.987,12.835,-0.032,0.0001,-0.2557,0.0000,0.9494,0.5000,0.0000,0.0000
46.449,Upwind,2279.271,0.503,2279.271,0.503,452.259,452.261,176.528,52.312,359.987,12.841,-0.032,0.0001,-0.2543,0.0000,0.9487,0.5000,0.0000,0.0000
46.649,Upwind,2297.277,0.500,2297.277,0.500,462.730,462.732,176.580,52.405,359.987,12.849,-0.031,0.0001,-0.2525,0.0000,0.9480,0.5000,0.0000,0.0000
46.852,Upwind,2315.291,0.497,2315.291,0.497,473.220,473.223,176.630,52.499,359.987,12.857,-0.030,0.0001,-0.2507,0.0000,0.9473,0.5000,0.0000,0.0000
47.056,Upwind,2334.813,0.493,2334.813,0.493,483.729,483.732,176.677,52.593,359.988,12.865,-0.030,0.0001,-0.2490,0.0000,0.9466,0.5000,0.0000,0.0000
47.265,Upwind,2352.840,0.489,2352.840,0.489,495.136,495.138,176.725,52.694,359.988,12.872,-0.029,0.0000,-0.2476,0.0000,0.9459,0.5000,0.0000,0.0000
47.457,Upwind,2370.873,0.486,2370.873,0.486,505.683,505.686,176.766,52.785,359.988,12.877,-0.029,0.0000,-0.2468,0.0000,0.9453,0.5000,0.0000,0.0000
47.656,Upwind,2388.912,0.483,2388.912,0.483,516.249,516.252,176.805,52.874,359.988,12.880,-0.028,0.0000,-0.2463,0.0000,0.9448,0.5000,0.0000,0.0000
47.862,Upwind,2406.958,0.479,2406.958,0.479,525.950,525.953,176.839,52.951,359.988,12.881,-0.028,0.0001,-0.2461,0.0000,0.9443,0.5000,0.0000,0.0000
48.049,Upwind,2423.504,0.476,2423.504,0.476,536.548,536.551,176.874,53.031,359.988,12.881,-0.028,0.0000,-0.2461,0.0000,0.9438,0.5000,0.0000,0.0000
48.260,Upwind,2443.065,0.473,2443.065,0.473,548.047,548.050,176.910,53.112,359.988,12.881,-0.028,0.0000,-0.2461,0.0000,0.9433,0.5000,0.0000,0.0000
48.466,Upwind,2461.127,0.469,2461.127,0.469,558.677,558.679,176.941,53.183,359.988,12.881,-0.028,0.0000,-0.2461,0.0000,0.9429,0.5000,0.0000,0.0000
48.650,Upwind,2477.689,0.466,2477.689,0.466,568.433,568.435,176.968,53.244,359.988,12.882,-0.027,0.0000,-0.2459,0.0000,0.9425,0.5000,0.0000,0.0000
48.848,Upwind,2495.761,0.463,2495.761,0.463,579.088,579.090,176.995,53.308,359.988,12.883,-0.027,0.0000,-0.2456,0.0000,0.9421,0.5000,0.0000,0.0000
49.055,Upwind,2515.344,0.460,2515.344,0.460,590.645,590.648,177.023,53.373,359.988,12.885,-0.027,0.0001,-0.2450,0.0000,0.9417,0.5000,0.0000,0.0000
49.254,Upwind,2531.919,0.457,2531.919,0.457,600.435,600.438,177.045,53.427,359.988,12.887,-0.027,0.0000,-0.2445,0.0000,0.9414,0.5000,0.0000,0.0000
49.455,Upwind,2551.514,0.453,2551.514,0.453,612.017,612.020,177.070,53.489,359.989,12.890,-0.027,0.0000,-0.2439,0.0000,0.9411,0.5000,0.0000,0.0000
49.666,Upwind,2569.605,0.450,2569.605,0.450,622.721,622.724,177.091,53.544,359.989,12.893,-0.027,0.0000,-0.2433,0.0000,0.9408,0.5000,0.0000,0.0000
49.860,Upwind,2587.700,0.447,2587.700,0.447,633.435,633.438,177.111,53.598,359.989,12.896,-0.026,0.0000,-0.2427,0.0000,0.9405,0.5000,0.0000,0.0000
50.058,Upwind,2605.801,0.444,2605.801,0.444,644.160,644.163,177.130,53.650,359.989,12.898,-0.026,0.0000,-0.2423,0.0000,0.9403,0.5000,0.0000,0.0000
50.251,Upwind,2622.396,0.441,2622.396,0.441,654.000,654.003,177.146,53.696,359.989,12.900,-0.026,0.0001,-0.2419,0.0000,0.9400,0.5000,0.0000,0.0000
50.456,Upwind,2642.014,0.438,2642.014,0.438,665.639,665.642,177.163,53.748,359.989,12.901,-0.026,0.0000,-0.2416,0.0000,0.9398,0.5000,0.0000,0.0000
50.660,Upwind,2660.126,0.435,2660.126,0.435,676.393,676.397,177.178,53.794,359.989,12.902,-0.026,0.0000,-0.2414,0.0000,0.9396,0.5000,0.0000,0.0000
50.857,Upwind,2678.243,0.432,2678.243,0.432,686.259,686.263,177.191,53.834,359.989,12.903,-0.026,0.0000,-0.2412,0.0000,0.9394,0.5000,0.0000,0.0000
51.065,Upwind,2696.363,0.429,2696.363,0.429,697.928,697.932,177.204,53.879,359.989,12.904,-0.026,0.0001,-0.2410,0.0000,0.9392,0.5000,0.0000,0.0000
51.248,Upwind,2712.977,0.427,2712.977,0.427,707.809,707.813,177.215,53.915,359.990,12.905,-0.026,0.0000,-0.2409,0.0000,0.9391,0.5000,0.0000,0.0000
51.463,Upwind,2732.615,0.423,2732.615,0.423,719.496,719.499,177.227,53.956,359.990,12.906,-0.026,0.0000,-0.2407,0.0000,0.9389,0.5000,0.0000,0.0000
51.656,Upwind,2750.746,0.421,2750.746,0.421,730.290,730.294,177.237,53.992,359.990,12.907,-0.026,0.0000,-0.2405,0.0000,0.9387,0.5000,0.0000,0.0000
51.852,Upwind,2767.370,0.418,2767.370,0.418,740.192,740.195,177.246,54.024,359.990,12.908,-0.026,0.0000,-0.2403,0.0000,0.9386,0.5000,0.0000,0.0000
52.066,Upwind,2787.019,0.415,2787.019,0.415,749.198,749.202,177.253,54.051,359.990,12.908,-0.026,0.0001,-0.2401,0.0000,0.9385,0.5000,0.0000,0.0000
52.254,Upwind,2803.649,0.413,2803.649,0.413,761.814,761.818,177.262,54.088,359.990,12.910,-0.026,0.0000,-0.2398,0.0000,0.9384,0.5000,0.0000,0.0000
52.456,Upwind,2823.306,0.410,2823.306,0.410,773.537,773.541,177.269,54.121,359.990,12.911,-0.026,0.0000,-0.2395,0.0000,0.9383,0.5000,0.0000,0.0000
52.660,Upwind,2841.455,0.407,2841.455,0.407,784.364,784.368,177.276,54.151,359.990,12.912,-0.026,0.0000,-0.2393,0.0000,0.9382,0.5000,0.0000,0.0000
52.857,Upwind,2859.606,0.405,2859.606,0.405,795.197,795.201,177.281,54.179,359.991,12.913,-0.026,0.0000,-0.2391,0.0000,0.9381,0.5000,0.0000,0.0000
53.053,Upwind,2876.248,0.403,2876.248,0.403,806.035,806.039,177.286,54.206,359.991,12.914,-0.026,0.0000,-0.2390,0.0000,0.9381,0.5000,0.0000,0.0000
53.250,Upwind,2894.406,0.400,2894.406,0.400,816.879,816.883,177.290,54.231,359.991,12.914,-0.026,0.0000,-0.2388,0.0000,0.9380,0.5000,0.0000,0.0000
53.458,Upwind,2914.080,0.397,2914.080,0.397,827.728,827.732,177.294,54.256,359.991,12.915,-0.026,0.0000,-0.2387,0.0000,0.9380,0.5000,0.0000,0.0000
53.652,Upwind,2930.730,0.395,2930.730,0.395,838.581,838.585,177.297,54.279,359.991,12.915,-0.026,0.0000,-0.2386,0.0000,0.9379,0.5000,0.0000,0.0000
53.859,Upwind,2950.411,0.393,2950.411,0.393,849.439,849.443,177.300,54.302,359.991,12.916,-0.026,0.0001,-0.2385,0.0000,0.9379,0.5000,0.0000,0.0000
54.061,Upwind,2968.581,0.390,2968.581,0.390,860.302,860.306,177.302,54.323,359.991,12.916,-0.026,0.0000,-0.2384,0.0000,0.9378,0.5000,0.0000,0.0000
54.257,Upwind,2986.754,0.388,2986.754,0.388,871.168,871.172,177.304,54.343,359.991,12.917,-0.026,0.0000,-0.2383,0.0000,0.9378,0.5000,0.0000,0.0000
54.456,Upwind,3004.929,0.386,3004.929,0.386,882.039,882.043,177.305,54.362,359.992,12.917,-0.026,0.0000,-0.2382,0.0000,0.9378,0.5000,0.0000,0.0000
54.650,Upwind,3021.593,0.384,3021.593,0.384,892.913,892.917,177.306,54.381,359.992,12.918,-0.026,0.0000,-0.2381,0.0000,0.9378,0.5000,0.0000,0.0000
54.853,Upwind,3039.774,0.382,3039.774,0.382,903.791,903.795,177.306,54.399,359.992,12.918,-0.026,0.0000,-0.2380,0.0000,0.9378,0.5000,0.0000,0.0000
55.048,Upwind,3057.958,0.380,3057.958,0.380,913.766,913.770,177.306,54.414,359.992,12.918,-0.026,0.0000,-0.2379,0.0000,0.9378,0.5000,0.0000,0.0000
55.255,Upwind,3076.145,0.377,3076.145,0.377,925.557,925.562,177.306,54.432,359.992,12.919,-0.026,0.0000,-0.2378,0.0000,0.9378,0.5000,0.0000,0.0000
55.448,Upwind,3094.336,0.375,3094.336,0.375,935.538,935.542,177.305,54.446,359.992,12.919,-0.026,0.0000,-0.2377,0.0000,0.9378,0.5000,0.0000,0.0000
55.657,Upwind,3114.044,0.373,3114.044,0.373,947.336,947.341,177.304,54.463,359.992,12.920,-0.026,0.0000,-0.2377,0.0000,0.9378,0.5000,0.0000,0.0000
55.850,Upwind,3130.723,0.371,3130.723,0.371,958.230,958.235,177.303,54.477,359.992,12.920,-0.026,0.0000,-0.2376,0.0000,0.9378,0.5000,0.0000,0.0000
56.057,Upwind,3150.434,0.369,3150.434,0.369,969.127,969.131,177.301,54.490,359.993,12.920,-0.026,0.0000,-0.2376,0.0000,0.9379,0.5000,0.0000,0.0000
56.251,Upwind,3167.119,0.368,3167.119,0.368,979.118,979.122,177.300,54.502,359.993,12.920,-0.026,0.0000,-0.2375,0.0000,0.9379,0.5000,0.0000,0.0000
56.456,Upwind,3186.839,0.366,3186.839,0.366,990.928,990.933,177.297,54.516,359.993,12.921,-0.026,0.0000,-0.2375,0.0000,0.9379,0.5000,0.0000,0.0000
56.661,Upwind,3205.045,0.364,3205.045,0.364,1001.832,1001.837,177.295,54.528,359.993,12.921,-0.026,0.0000,-0.2374,0.0000,0.9379,0.5000,0.0000,0.0000
56.851,Upwind,3221.736,0.362,3221.736,0.362,1012.739,1012.744,177.292,54.539,359.993,12.921,-0.026,0.0000,-0.2374,0.0000,0.9380,0.5000,0.0000,0.0000
57.051,Upwind,3239.945,0.360,3239.945,0.360,1023.648,1023.653,177.290,54.550,359.993,12.921,-0.026,0.0000,-0.2374,0.0000,0.9380,0.5000,0.0000,0.0000
57.257,Upwind,3259.674,0.358,3259.674,0.358,1034.559,1034.564,177.286,54.560,359.993,12.921,-0.027,0.0000,-0.2373,0.0000,0.9381,0.5000,0.0000,0.0000
57.453,Upwind,3276.375,0.357,3276.375,0.357,1045.472,1045.477,177.283,54.570,359.993,12.921,-0.027,0.0000,-0.2373,0.0000,0.9381,0.5000,0.0000,0.0000
57.659,Upwind,3296.110,0.355,3296.110,0.355,1056.387,1056.392,177.280,54.580,359.993,12.922,-0.027,0.0000,-0.2373,0.0000,0.9382,0.5000,0.0000,0.0000
57.857,Upwind,3314.331,0.353,3314.331,0.353,1067.304,1067.309,177.276,54.589,359.994,12.922,-0.027,0.0000,-0.2372,0.0000,0.9382,0.5000,0.0000,0.0000
58.050,Upwind,3331.034,0.352,3331.034,0.352,1077.312,1077.317,177.272,54.597,359.994,12.922,-0.027,0.0000,-0.2372,0.0000,0.9383,0.5000,0.0000,0.0000
58.251,Upwind,3349.261,0.350,3349.261,0.350,1089.142,1089.148,177.268,54.606,359.994,12.922,-0.027,0.0000,-0.2372,0.0000,0.9383,0.5000,0.0000,0.0000
58.451,Upwind,3367.489,0.349,3367.489,0.349,1099.154,1099.159,177.264,54.613,359.994,12.922,-0.027,0.0000,-0.2372,0.0000,0.9384,0.5000,0.0000,0.0000
58.654,Upwind,3385.719,0.347,3385.719,0.347,1110.988,1110.993,177.259,54.621,359.994,12.922,-0.027,0.0000,-0.2372,0.0000,0.9384,0.5000,0.0000,0.0000
58.848,Upwind,3403.952,0.346,3403.952,0.346,1121.002,1121.008,177.255,54.628,359.994,12.922,-0.027,0.0000,-0.2372,0.0000,0.9385,0.5000,0.0000,0.0000
59.056,Upwind,3423.706,0.344,3423.706,0.344,1132.839,1132.845,177.250,54.636,359.994,12.922,-0.027,0.0000,-0.2372,0.0000,0.9386,0.5000,0.0000,0.0000
59.253,Upwind,3440.424,0.343,3440.424,0.343,1143.767,1143.772,177.245,54.642,359.994,12.922,-0.027,0.0000,-0.2372,0.0000,0.9386,0.5000,0.0000,0.0000
59.450,Upwind,3458.663,0.342,3458.663,0.342,1154.696,1154.702,177.241,54.649,359.994,12.922,-0.027,0.0000,-0.2371,0.0000,0.9387,0.5000,0.0000,0.0000
59.660,Upwind,3478.427,0.340,3478.427,0.340,1165.626,1165.632,177.235,54.655,359.994,12.922,-0.027,0.0000,-0.2371,0.0000,0.9388,0.5000,0.0000,0.0000
59.851,Upwind,3495.151,0.339,3495.151,0.339,1176.558,1176.563,177.230,54.661,359.995,12.922,-0.027,0.0000,-0.2372,0.0000,0.9388,0.5000,0.0000,0.0000
60.059,Upwind,3514.917,0.338,3514.917,0.338,1187.491,1187.496,177.225,54.666,359.995,12.922,-0.027,0.0000,-0.2372,0.0000,0.9389,0.5000,0.0000,0.0000
60.262,Upwind,3533.168,0.337,3533.168,0.337,1198.424,1198.430,177.220,54.672,359.995,12.922,-0.027,0.0000,-0.2372,0.0000,0.9390,0.5000,0.0000,0.0000
60.453,Upwind,3549.899,0.335,3549.899,0.335,1209.359,1209.365,177.214,54.677,359.995,12.922,-0.027,0.0000,-0.2372,0.0000,0.9391,0.5000,0.0000,0.0000
60.659,Upwind,3569.675,0.334,3569.675,0.334,1220.295,1220.301,177.209,54.682,359.995,12.922,-0.027,0.0000,-0.2372,0.0000,0.9392,0.5000,0.0000,0.0000
60.850,Upwind,3586.408,0.333,3586.408,0.333,1230.320,1230.326,177.203,54.686,359.995,12.922,-0.027,0.0000,-0.2372,0.0000,0.9392,0.5000,0.0000,0.0000
61.057,Upwind,3606.189,0.332,3606.189,0.332,1242.170,1242.176,177.197,54.691,359.995,12.922,-0.028,0.0000,-0.2372,0.0000,0.9393,0.5000,0.0000,0.0000
61.256,Upwind,3624.450,0.331,3624.450,0.331,1253.108,1253.114,177.191,54.696,359.995,12.922,-0.028,0.0000,-0.2372,0.0000,0.9394,0.5000,0.0000,0.0000
61.459,Upwind,3642.714,0.330,3642.714,0.330,1264.048,1264.054,177.186,54.700,359.995,12.922,-0.028,0.0000,-0.2372,0.0000,0.9395,0.5000,0.0000,0.0000
61.658,Upwind,3660.980,0.329,3660.980,0.329,1274.988,1274.994,177.180,54.704,359.995,12.922,-0.028,0.0000,-0.2373,0.0000,0.9396,0.5000,0.0000,0.0000
61.856,Upwind,3679.247,0.328,3679.247,0.328,1285.930,1285.936,177.174,54.708,359.996,12.921,-0.028,0.0000,-0.2373,0.0000,0.9396,0.5000,0.0000,0.0000
62.059,Upwind,3697.517,0.327,3697.517,0.327,1296.871,1296.878,177.167,54.712,359.996,12.921,-0.028,0.0000,-0.2373,0.0000,0.9397,0.5000,0.0000,0.0000
62.261,Upwind,3715.790,0.326,3715.790,0.326,1307.814,1307.820,177.161,54.715,359.996,12.921,-0.028,0.0000,-0.2373,0.0000,0.9398,0.5000,0.0000,0.0000
62.457,Upwind,3734.065,0.325,3734.065,0.325,1318.757,1318.764,177.155,54.718,359.996,12.921,-0.028,0.0000,-0.2374,0.0000,0.9399,0.5000,0.0000,0.0000
62.655,Upwind,3750.820,0.324,3750.820,0.324,1329.701,1329.708,177.149,54.722,359.996,12.921,-0.028,0.0000,-0.2374,0.0000,0.9400,0.5000,0.0000,0.0000
62.858,Upwind,3770.623,0.323,3770.623,0.323,1340.646,1340.652,177.142,54.725,359.996,12.921,-0.028,0.0000,-0.2374,0.0000,0.9401,0.5000,0.0000,0.0000
63.052,Upwind,3787.381,0.323,3787.381,0.323,1351.591,1351.598,177.136,54.728,359.996,12.921,-0.028,0.0000,-0.2374,0.0000,0.9402,0.5000,0.0000,0.0000
63.259,Upwind,3807.187,0.322,3807.187,0.322,1362.537,1362.544,177.130,54.731,359.996,12.921,-0.028,0.0000,-0.2374,0.0000,0.9403,0.5000,0.0000,0.0000
63.458,Upwind,3825.475,0.321,3825.475,0.321,1373.483,1373.490,177.123,54.734,359.996,12.921,-0.028,0.0000,-0.2375,0.0000,0.9404,0.5000,0.0000,0.0000
63.650,Upwind,3842.239,0.320,3842.239,0.320,1383.518,1383.525,177.117,54.736,359.996,12.921,-0.028,0.0000,-0.2375,0.0000,0.9404,0.5000,0.0000,0.0000
63.852,Upwind,3860.530,0.319,3860.530,0.319,1395.378,1395.385,177.110,54.739,359.996,12.920,-0.028,0.0000,-0.2375,0.0000,0.9405,0.5000,0.0000,0.0000
64.056,Upwind,3880.348,0.319,3880.348,0.319,1406.326,1406.333,177.104,54.742,359.996,12.920,-0.028,0.0000,-0.2376,0.0000,0.9406,0.5000,0.0000,0.0000
64.248,Upwind,3897.118,0.318,3897.118,0.318,1416.362,1416.369,177.097,54.744,359.997,12.920,-0.028,0.0000,-0.2376,0.0000,0.9407,0.5000,0.0000,0.0000
64.455,Upwind,3915.415,0.317,3915.415,0.317,1428.223,1428.230,177.090,54.746,359.997,12.920,-0.028,0.0000,-0.2376,0.0000,0.9408,0.5000,0.0000,0.0000
64.659,Upwind,3935.239,0.317,3935.239,0.317,1439.173,1439.180,177.084,54.749,359.997,12.920,-0.028,0.0000,-0.2377,0.0000,0.9409,0.5000,0.0000,0.0000
64.855,Upwind,3952.019,0.316,3952.019,0.316,1450.123,1450.130,177.077,54.751,359.997,12.920,-0.028,0.0000,-0.2377,0.0000,0.9410,0.5000,0.0000,0.0000
65.060,Upwind,3971.849,0.316,3971.849,0.316,1461.073,1461.080,177.070,54.753,359.997,12.920,-0.028,-0.0001,-0.2377,0.0000,0.9411,0.5000,0.0000,0.0000
65.250,Upwind,3988.628,0.315,3988.628,0.315,1471.111,1471.118,177.064,54.755,359.997,12.919,-0.028,0.0000,-0.2378,0.0000,0.9412,0.5000,0.0000,0.0000
65.452,Upwind,4006.938,0.315,4006.938,0.315,1482.975,1482.982,177.056,54.757,359.997,12.919,-0.029,0.0000,-0.2378,0.0000,0.9413,0.5000,0.0000,0.0000
65.655,Upwind,4025.250,0.314,4025.250,0.314,1493.926,1493.934,177.050,54.759,359.997,12.919,-0.029,-0.0001,-0.2378,0.0000,0.9414,0.5000,0.0000,0.0000
65.856,Upwind,4045.089,0.314,4045.089,0.314,1504.878,1504.886,177.043,54.761,359.997,12.919,-0.029,0.0000,-0.2379,0.0000,0.9415,0.5000,0.0000,0.0000
66.062,Upwind,4063.405,0.313,4063.405,0.313,1515.831,1515.838,177.036,54.762,359.997,12.919,-0.029,0.0000,-0.2379,0.0000,0.9416,0.5000,0.0000,0.0000
66.258,Upwind,4081.723,0.313,4081.723,0.313,1526.783,1526.791,177.029,54.764,359.997,12.919,-0.029,0.0000,-0.2379,0.0000,0.9417,0.5000,0.0000,0.0000
66.455,Upwind,4098.515,0.312,4098.515,0.312,1537.736,1537.744,177.022,54.766,359.997,12.919,-0.029,-0.0001,-0.2380,0.0000,0.9418,0.5000,0.0000,0.0000
66.651,Upwind,4116.836,0.312,4116.836,0.312,1548.690,1548.697,177.015,54.768,359.997,12.918,-0.029,0.0000,-0.2380,0.0000,0.9419,0.5000,0.0000,0.0000
66.856,Upwind,4136.688,0.312,4136.688,0.312,1559.643,1559.651,177.008,54.769,359.998,12.918,-0.029,-0.0001,-0.2380,0.0000,0.9420,0.5000,0.0000,0.0000
67.050,Upwind,4153.488,0.311,4153.488,0.311,1570.597,1570.605,177.001,54.771,359.998,12.918,-0.030,0.0000,-0.2381,0.0000,0.9421,0.5000,0.0000,0.0000
67.248,Upwind,4171.819,0.311,4171.819,0.311,1580.638,1580.646,176.994,54.772,359.998,12.918,-0.030,0.0000,-0.2381,0.0000,0.9422,0.5000,0.0000,0.0000
67.451,Upwind,4190.149,0.311,4190.149,0.311,1592.506,1592.514,176.987,54.774,359.998,12.918,-0.030,0.0000,-0.2381,0.0000,0.9423,0.5000,0.0000,0.0000
67.656,Upwind,4210.010,0.310,4210.010,0.310,1603.461,1603.468,176.980,54.775,359.998,12.917,-0.030,0.0000,-0.2382,0.0000,0.9424,0.5000,0.0000,0.0000
67.851,Upwind,4226.817,0.310,4226.817,0.310,1614.416,1614.424,176.973,54.776,359.998,12.917,-0.030,0.0000,-0.2382,0.0000,0.9425,0.5000,0.0000,0.0000
68.053,Upwind,4245.157,0.310,4245.157,0.310,1625.371,1625.379,176.966,54.778,359.998,12.917,-0.030,0.0000,-0.2383,0.0000,0.9426,0.5000,0.0000,0.0000
68.258,Upwind,4265.024,0.310,4265.024,0.310,1636.327,1636.335,176.958,54.779,359.998,12.917,-0.030,0.0000,-0.2383,0.0000,0.9427,0.5000,0.0000,0.0000
68.452,Upwind,4281.840,0.309,4281.840,0.309,1647.283,1647.291,176.951,54.780,359.998,12.917,-0.030,0.0000,-0.2383,0.0000,0.9428,0.5000,0.0000,0.0000
68.648,Upwind,4300.183,0.309,4300.183,0.309,1657.326,1657.334,176.945,54.781,359.998,12.917,-0.030,0.0000,-0.2384,0.0000,0.9429,0.5000,0.0000,0.0000
68.856,Upwind,4320.059,0.309,4320.059,0.309,1669.195,1669.203,176.937,54.783,359.998,12.916,-0.030,0.0000,-0.2384,0.0000,0.9430,0.5000,0.0000,0.0000
69.056,Upwind,4338.411,0.309,4338.411,0.309,1680.152,1680.160,176.930,54.784,359.998,12.916,-0.030,0.0000,-0.2385,0.0000,0.9431,0.5000,0.0000,0.0000
69.250,Upwind,4355.232,0.309,4355.232,0.309,1690.196,1690.204,176.923,54.785,359.998,12.916,-0.031,0.0000,-0.2385,0.0000,0.9432,0.5000,0.0000,0.0000
69.453,Upwind,4373.584,0.308,4373.584,0.308,1702.066,1702.074,176.916,54.786,359.998,12.916,-0.031,0.0000,-0.2385,0.0000,0.9433,0.5000,0.0000,0.0000
69.652,Upwind,4391.939,0.308,4391.939,0.308,1713.023,1713.031,176.908,54.787,359.998,12.916,-0.031,0.0000,-0.2386,0.0000,0.9434,0.5000,0.0000,0.0000
69.856,Upwind,4411.828,0.308,4411.828,0.308,1723.981,1723.989,176.901,54.788,359.998,12.916,-0.031,0.0000,-0.2386,0.0000,0.9435,0.5000,0.0000,0.0000
70.050,Upwind,4428.659,0.308,4428.659,0.308,1734.938,1734.947,176.894,54.789,359.998,12.915,-0.031,0.0000,-0.2387,0.0000,0.9436,0.5000,0.0000,0.0000
70.248,Upwind,4447.023,0.308,4447.023,0.308,1744.983,1744.992,176.887,54.790,359.998,12.915,-0.031,0.0000,-0.2387,0.0000,0.9437,0.5000,0.0000,0.0000
70.452,Upwind,4465.387,0.308,4465.387,0.308,1756.854,1756.863,176.879,54.791,359.998,12.915,-0.031,0.0000,-0.2387,0.0000,0.9438,0.5000,0.0000,0.0000
70.655,Upwind,4483.754,0.308,4483.754,0.308,1767.813,1767.821,176.872,54.792,359.998,12.915,-0.031,0.0000,-0.2388,0.0000,0.9439,0.5000,0.0000,0.0000
70.858,Upwind,4503.655,0.308,4503.655,0.308,1778.771,1778.780,176.865,54.793,359.998,12.915,-0.031,0.0000,-0.2388,0.0000,0.9440,0.5000,0.0000,0.0000
71.053,Upwind,4520.495,0.308,4520.495,0.308,1789.730,1789.739,176.858,54.794,359.998,12.914,-0.031,0.0000,-0.2389,0.0000,0.9441,0.5000,0.0000,0.0000
71.252,Upwind,4538.868,0.307,4538.868,0.307,1800.689,1800.698,176.850,54.795,359.998,12.914,-0.031,0.0000,-0.2389,0.0000,0.9442,0.5000,0.0000,0.0000
71.454,Upwind,4557.245,0.307,4557.245,0.307,1811.648,1811.657,176.843,54.796,359.998,12.914,-0.031,0.0000,-0.2389,0.0000,0.9443,0.5000,0.0000,0.0000
71.653,Upwind,4575.621,0.307,4575.621,0.307,1822.607,1822.616,176.836,54.797,359.998,12.914,-0.031,-0.0001,-0.2390,0.0000,0.9444,0.5000,0.0000,0.0000
71.851,Upwind,4594.004,0.307,4594.004,0.307,1832.654,1832.662,176.829,54.798,359.998,12.914,-0.031,0.0000,-0.2390,0.0000,0.9445,0.5000,0.0000,0.0000
72.059,Upwind,4613.916,0.307,4613.916,0.307,1844.526,1844.535,176.821,54.799,359.998,12.913,-0.031,0.0000,-0.2391,0.0000,0.9446,0.5000,0.0000,0.0000
72.259,Upwind,4632.302,0.307,4632.302,0.307,1855.486,1855.495,176.814,54.800,359.998,12.913,-0.032,0.0000,-0.2391,0.0000,0.9447,0.5000,0.0000,0.0000
72.453,Upwind,4649.157,0.307,4649.157,0.307,1866.446,1866.455,176.807,54.800,359.998,12.913,-0.032,0.0000,-0.2392,0.0000,0.9448,0.5000,0.0000,0.0000
72.651,Upwind,4667.545,0.307,4667.545,0.307,1877.406,1877.415,176.799,54.801,359.999,12.913,-0.032,0.0000,-0.2392,0.0000,0.9449,0.5000,0.0000,0.0000
72.853,Upwind,4685.937,0.307,4685.937,0.307,1888.367,1888.376,176.792,54.802,359.999,12.913,-0.032,0.0000,-0.2392,0.0000,0.9450,0.5000,0.0000,0.0000
73.052,Upwind,4704.332,0.307,4704.332,0.307,1899.327,1899.336,176.785,54.803,359.999,12.912,-0.032,0.0000,-0.2393,0.0000,0.9451,0.5000,0.0000,0.0000
73.250,Upwind,4722.727,0.307,4722.727,0.307,1909.374,1909.383,176.778,54.804,359.999,12.912,-0.032,0.0000,-0.2393,0.0000,0.9452,0.5000,0.0000,0.0000
73.457,Upwind,4742.658,0.307,4742.658,0.307,1921.248,1921.258,176.770,54.804,359.999,12.912,-0.032,0.0000,-0.2394,0.0000,0.9453,0.5000,0.0000,0.0000
73.663,Upwind,4761.058,0.307,4761.058,0.307,1932.209,1932.219,176.763,54.805,359.999,12.912,-0.032,0.0000,-0.2394,0.0000,0.9454,0.5000,0.0000,0.0000
73.848,Upwind,4777.929,0.307,4777.929,0.307,1942.257,1942.266,176.756,54.806,359.999,12.912,-0.032,0.0000,-0.2395,0.0000,0.9455,0.5000,0.0000,0.0000
74.062,Upwind,4797.866,0.307,4797.866,0.307,1954.132,1954.141,176.748,54.807,359.999,12.912,-0.032,0.0000,-0.2395,0.0000,0.9456,0.5000,0.0000,0.0000
74.254,Upwind,4816.276,0.307,4816.276,0.307,1964.180,1964.189,176.741,54.807,359.999,12.911,-0.032,0.0000,-0.2395,0.0000,0.9457,0.5000,0.0000,0.0000
74.450,Upwind,4833.150,0.307,4833.150,0.307,1975.141,1975.151,176.734,54.808,359.999,12.911,-0.032,0.0000,-0.2396,0.0000,0.9458,0.5000,0.0000,0.0000
74.660,Upwind,4853.096,0.307,4853.096,0.307,1987.016,1987.026,176.726,54.809,359.999,12.911,-0.032,0.0000,-0.2396,0.0000,0.9459,0.5000,0.0000,0.0000
74.857,Upwind,4871.509,0.307,4871.509,0.307,1997.978,1997.988,176.718,54.809,359.999,12.911,-0.032,0.0000,-0.2397,0.0000,0.9460,0.5000,0.0000,0.0000
75.048,Crosswind,4888.392,0.307,4888.392,0.307,2008.026,2008.035,176.688,54.788,359.998,12.912,0.012,0.4000,-0.3020,0.0001,0.8768,0.0000,0.0000,0.0000
75.261,Crosswind,4908.329,0.308,4908.329,0.308,2019.877,2019.887,176.458,54.576,359.994,12.947,0.529,0.4000,-0.3977,0.0001,0.7705,0.0000,0.0000,0.0000
75.455,Crosswind,4926.705,0.313,4926.705,0.313,2030.759,2030.769,176.059,54.223,359.991,13.067,1.427,0.4000,-0.4852,0.0001,0.7000,0.0000,0.0000,0.0000
75.656,Crosswind,4945.042,0.327,4945.042,0.327,2041.563,2041.573,175.592,53.818,359.997,13.311,2.631,0.4000,-0.5755,0.0000,0.7000,0.0000,0.0000,0.0000
75.855,Crosswind,4961.809,0.353,4961.809,0.353,2052.289,2052.299,175.118,53.458,0.026,13.709,4.067,0.4000,-0.6648,-0.0002,0.7000,0.0000,0.0000,0.0000
76.060,Crosswind,4981.578,0.411,4981.578,0.411,2062.954,2062.964,174.639,53.220,0.094,14.282,5.673,0.4000,-0.7571,-0.0006,0.7102,0.0000,0.0000,0.0000
76.249,Crosswind,4998.260,0.491,4998.260,0.491,2072.704,2072.714,174.199,53.175,0.209,14.967,7.256,0.4000,-0.8000,-0.0011,0.7206,0.0000,0.0000,0.0000
76.457,Crosswind,5017.922,0.636,5017.922,0.636,2084.246,2084.256,173.676,53.430,0.429,15.950,9.218,0.4000,-0.8000,-0.0018,0.7331,0.0000,0.0000,0.0000
76.651,Crosswind,5034.510,0.813,5034.510,0.813,2094.084,2094.094,173.226,53.937,0.697,16.876,10.927,0.4000,-0.7952,-0.0027,0.7440,0.0000,0.0000,0.0000
76.854,Crosswind,5052.551,1.076,5052.551,1.076,2105.865,2105.875,172.680,54.875,1.118,18.014,12.977,0.4000,-0.7648,-0.0038,0.7571,0.0000,0.0000,0.0000
77.049,Crosswind,5070.522,1.430,5070.522,1.430,2116.018,2116.029,172.205,55.925,1.564,18.956,14.716,0.4000,-0.7354,-0.0052,0.7684,0.0000,0.0000,0.0000
77.260,Crosswind,5089.913,1.933,5089.913,1.933,2128.293,2128.303,171.627,57.415,2.191,19.982,16.757,0.4000,-0.7038,-0.0069,0.7819,0.0000,0.0000,0.0000
77.451,Crosswind,5106.250,2.471,5106.250,2.471,2139.927,2139.937,171.079,58.944,2.856,20.802,18.614,0.3588,-0.6751,-0.0084,0.7945,0.0000,0.0000,0.0000
77.657,Crosswind,5125.471,3.259,5125.471,3.259,2151.874,2151.884,170.524,60.530,3.594,21.471,20.400,0.2968,-0.6443,-0.0104,0.8071,0.0000,0.0000,0.0000
77.860,Crosswind,5143.125,4.145,5143.125,4.145,2164.137,2164.147,169.968,62.092,4.390,21.972,22.048,0.2427,-0.6138,-0.0121,0.8192,0.0000,0.0000,0.0000
78.054,Crosswind,5159.230,5.103,5159.230,5.103,2176.704,2176.715,169.416,63.560,5.227,22.301,23.514,0.1959,-0.5847,-0.0137,0.8309,0.0000,0.0000,0.0000
78.249,Crosswind,5176.720,6.314,5176.720,6.314,2188.470,2188.481,168.920,64.775,6.015,22.454,24.683,0.1618,-0.5555,-0.0152,0.8409,0.0000,0.0000,0.0000
78.458,Crosswind,5195.572,7.830,5195.572,7.830,2202.642,2202.653,168.353,66.001,6.953,22.463,25.851,0.1276,-0.5241,-0.0164,0.8520,0.0000,0.0000,0.0000
78.660,Crosswind,5212.888,9.422,5212.888,9.422,2215.936,2215.947,167.854,66.897,7.807,22.325,26.738,0.1020,-0.4938,-0.0173,0.8613,0.0000,0.0000,0.0000
78.848,Crosswind,5228.692,11.046,5228.692,11.046,2228.259,2228.270,167.421,67.499,8.567,22.089,27.408,0.0825,-0.4656,-0.0177,0.8692,0.0000,0.0000,0.0000
79.048,Crosswind,5245.861,12.996,5245.861,12.996,2241.804,2241.814,166.978,67.904,9.358,21.734,28.007,0.0648,-0.4356,-0.0178,0.8770,0.0000,0.0000,0.0000
79.260,Crosswind,5264.384,15.319,5264.384,15.319,2256.536,2256.547,166.537,68.036,10.158,21.255,28.528,0.0488,-0.4039,-0.0176,0.8846,0.0000,0.0000,0.0000
79.458,Crosswind,5281.416,17.654,5281.416,17.654,2270.132,2270.143,166.168,67.875,10.836,20.747,28.915,0.0363,-0.3742,-0.0171,0.8908,0.0000,0.0000,0.0000
79.657,Crosswind,5298.393,20.169,5298.393,20.169,2283.668,2283.679,165.836,67.444,11.451,20.191,29.232,0.0257,-0.3443,-0.0165,0.8962,0.0000,0.0000,0.0000
79.849,Crosswind,5313.914,22.629,5313.914,22.629,2295.979,2295.990,165.567,66.819,11.958,19.651,29.471,0.0174,-0.3155,-0.0157,0.9006,0.0000,0.0000,0.0000
80.057,Crosswind,5332.211,25.722,5332.211,25.722,2310.352,2310.363,165.292,65.809,12.486,18.986,29.703,0.0093,-0.3004,-0.0148,0.9051,0.0000,0.0000,0.0000
80.248,Crosswind,5347.658,28.491,5347.658,28.491,2322.321,2322.332,165.093,64.725,12.878,18.413,29.862,0.0039,-0.3864,-0.0140,0.9083,0.0000,0.0000,0.0000
80.450,Crosswind,5364.483,31.667,5364.483,31.667,2335.128,2335.139,164.908,63.307,13.282,17.829,30.008,-0.0009,-0.4775,-0.0131,0.9113,0.0000,0.0000,0.0000
80.657,Crosswind,5382.683,35.283,5382.683,35.283,2348.658,2348.669,164.743,61.555,13.731,17.304,30.144,-0.0049,-0.5706,-0.0123,0.9136,0.0000,0.0000,0.0000
80.850,Crosswind,5398.063,38.482,5398.063,38.482,2359.798,2359.810,164.627,59.963,14.151,16.985,30.247,-0.0075,-0.6573,-0.0117,0.9152,0.0000,0.0000,0.0000
81.050,Crosswind,5414.827,42.116,5414.827,42.116,2371.613,2371.625,164.523,58.187,14.674,16.795,30.347,-0.0095,-0.7473,-0.0112,0.9167,0.0000,0.0000,0.0000
81.255,Crosswind,5431.572,45.900,5431.572,45.900,2384.016,2384.027,164.429,56.317,15.339,16.794,30.445,-0.0111,-0.8000,-0.0109,0.9180,0.0000,0.0000,0.0000
81.448,Crosswind,5448.297,49.837,5448.297,49.837,2394.206,2394.217,164.362,54.872,15.988,16.953,30.516,-0.0114,-0.7980,-0.0107,0.9189,0.0000,0.0000,0.0000
81.652,Crosswind,5464.994,53.934,5464.994,53.934,2405.040,2405.051,164.297,53.509,16.769,17.254,30.578,-0.0112,-0.7675,-0.0107,0.9198,0.0000,0.0000,0.0000
81.850,Crosswind,5481.660,58.197,5481.660,58.197,2415.627,2415.638,164.235,52.406,17.601,17.634,30.616,-0.0102,-0.7377,-0.0107,0.9207,0.0000,0.0000,0.0000
82.051,Crosswind,5498.290,62.632,5498.290,62.632,2426.019,2426.031,164.173,51.565,18.460,18.043,30.626,-0.0081,-0.7076,-0.0109,0.9216,0.0000,0.0000,0.0000
82.260,Crosswind,5516.255,67.639,5516.255,67.639,2437.118,2437.129,164.101,50.927,19.393,18.468,30.602,-0.0049,-0.6763,-0.0111,0.9226,0.0000,0.0000,0.0000
82.460,Crosswind,5532.781,72.453,5532.781,72.453,2447.263,2447.274,164.031,50.552,20.236,18.807,30.547,-0.0012,-0.6463,-0.0114,0.9236,0.0000,0.0000,0.0000
82.654,Crosswind,5547.881,77.032,5547.881,77.032,2457.349,2457.361,163.959,50.335,21.046,19.071,30.464,0.0031,-0.6172,-0.0116,0.9246,0.0000,0.0000,0.0000
82.851,Crosswind,5564.295,82.208,5564.295,82.208,2466.566,2466.578,163.891,50.227,21.748,19.231,30.365,0.0075,-0.5876,-0.0118,0.9255,0.0000,0.0000,0.0000
83.052,Crosswind,5580.641,87.575,5580.641,87.575,2477.440,2477.452,163.815,50.155,22.520,19.309,30.227,0.0130,-0.5575,-0.0120,0.9266,0.0000,0.0000,0.0000
83.261,Crosswind,5598.271,93.604,5598.271,93.604,2487.465,2487.477,163.751,50.086,23.172,19.272,30.085,0.0180,-0.5261,-0.0121,0.9275,0.0000,0.0000,0.0000
83.452,Crosswind,5613.129,98.876,5613.129,98.876,2496.638,2496.650,163.701,49.978,23.717,19.147,29.948,0.0225,-0.4974,-0.0121,0.9281,0.0000,0.0000,0.0000
83.666,Crosswind,5630.613,105.306,5630.613,105.306,2507.444,2507.456,163.656,49.748,24.298,18.892,29.785,0.0276,-0.4654,-0.0121,0.9282,0.0000,0.0000,0.0000
83.853,Crosswind,5645.350,110.912,5645.350,110.912,2517.362,2517.374,163.633,49.402,24.776,18.563,29.638,0.0320,-0.4373,-0.0121,0.9282,0.0000,0.0000,0.0000
84.061,Crosswind,5662.700,117.726,5662.700,117.726,2527.194,2527.206,163.628,48.889,25.204,18.155,29.499,0.0358,-0.5067,-0.0121,0.9279,0.0000,0.0000,0.0000
84.255,Crosswind,5677.327,123.647,5677.327,123.647,2536.903,2536.915,163.640,48.172,25.611,17.716,29.378,0.0391,-0.5942,-0.0120,0.9274,0.0000,0.0000,0.0000
84.457,Crosswind,5694.554,130.821,5694.554,130.821,2546.450,2546.463,163.669,47.272,26.033,17.310,29.285,0.0411,-0.6852,-0.0120,0.9267,0.0000,0.0000,0.0000
84.654,Crosswind,5709.087,137.038,5709.087,137.038,2555.803,2555.815,163.713,46.232,26.502,16.989,29.227,0.0423,-0.7738,-0.0119,0.9260,0.0000,0.0000,0.0000
84.862,Crosswind,5726.213,144.554,5726.213,144.554,2564.938,2564.951,163.769,45.123,27.041,16.792,29.206,0.0420,-0.8000,-0.0119,0.9251,0.0000,0.0000,0.0000
85.053,Crosswind,5740.658,151.055,5740.658,151.055,2573.853,2573.866,163.837,44.036,27.653,16.723,29.219,0.0409,-0.8000,-0.0119,0.9242,0.0000,0.0000,0.0000
85.257,Crosswind,5757.678,158.909,5757.678,158.909,2582.558,2582.570,163.913,43.027,28.327,16.758,29.257,0.0391,-0.8000,-0.0119,0.9232,0.0000,0.0000,0.0000
